timens,GPSnumSat,GPScoord0,GPScoord1,GPSaltitude,GPSspeedms,GPSgroundcourse,loopIteration,axisP0,axisP1,axisP2,axisI0,axisI1,axisI2,axisD0,axisD1,axisD2,rcCommand0,rcCommand1,rcCommand2,rcCommand3,vbatLatestV,rssi,gyroADC0,gyroADC1,gyroADC2,accSmooth0,accSmooth1,accSmooth2,motor0,motor1,motor2,motor3,flightModeFlagsflags,stateFlagsflags,failsafePhaseflags,rxSignalReceived,rxFlightChannelsValid,acceleration_G
0D00:00:56.753239000,20,1.329391,103.7862,23,0.02,74.1,39976,1,2,-26,-33,-13,-57,-1,-4,0,-154,-3,29,1423,1.586,1023,-107,-4,25,-2668,14950,672,700,1214,965,615,,,,1,1,0.1157049
0D00:00:57.010605000,20,1.329391,103.7862,23,0.02,74.1,40480,-1,2,-24,-52,-7,-88,0,1,0,-160,-3,57,1447,1.569,1023,-107,-5,40,-1070,14668,4313,761,1363,1062,504,,,,1,1,0.0005247013
0D00:00:57.132547000,20,1.329391,103.7862,23,0.01,74.1,44744,38,-14,-35,50,-18,3,-1,0,0,-45,-15,0,1276,1.639,1023,-68,4,12,-4924,5929,-14492,181,519,797,803,,,,1,1,0.0001243038
0D00:00:57.320513000,20,1.329391,103.7862,23,0.05,74.1,45112,9,-14,-60,117,-73,-37,-3,1,0,-51,-16,0,1254,1.622,1023,-42,5,21,-981,14718,-7176,116,846,1030,967,,,,1,1,0.0009580326
0D00:00:57.520489000,20,1.329391,103.7862,23,0.1,74.1,45504,-2,-1,-39,121,-83,-67,0,0,0,-76,-20,0,1261,1.631,1023,-47,-11,14,-1716,14739,-3042,116,870,1050,936,,,,1,1,0.002038491
0D00:00:57.721003000,20,1.329391,103.7862,23,0.12,74.1,45896,-4,-4,-13,111,-86,-92,0,-2,0,-108,-31,-1,1287,1.595,1023,-65,-15,4,-2529,14889,-2937,116,877,938,881,,,,1,1,0.002452771
0D00:00:58.002655000,20,1.32939,103.7862,23,0.22,74.1,46448,4,-2,-36,120,-95,-113,0,-2,0,-127,-38,-1,1312,1.613,1023,-88,-22,12,-3694,16217,2806,116,1077,1194,958,,,,1,1,0.006316355
0D00:00:58.121323000,20,1.329389,103.7862,23,0.61,154.3,46680,-1,0,-51,118,-97,-125,11,-1,0,-139,-36,0,1352,1.604,1023,-91,-23,18,-3791,16491,3858,116,1197,1338,966,,,,1,1,0.007378948
0D00:00:58.321354000,20,1.329385,103.7862,24,1.38,164.5,47072,-68,39,24,59,-66,-139,-3,-7,0,-155,-25,14,1458,1.595,1023,-36,-56,-1,-4341,13565,6128,622,1327,1108,726,,,,1,1,0.02813892
0D00:00:58.521621000,20,1.329378,103.7862,24,2.96,170.9,47464,-3,2,0,12,-22,-113,-18,1,0,-156,-23,27,1476,1.569,1023,-102,-17,14,-5726,13651,8387,696,1310,1182,738,,,,1,1,0.06042715
0D00:00:58.725683000,20,1.329369,103.7862,25,4.56,178.1,47864,-5,0,2,15,-22,-109,-17,15,0,-126,-3,29,1443,1.595,1023,-77,-2,15,-5151,11727,8535,672,1193,1125,667,,,,1,1,0.09485451
0D00:00:59.015711000,20,1.329358,103.7862,26,5.67,180.4,48432,-5,-2,26,12,-20,-105,4,-4,0,-107,0,40,1440,1.613,1023,-64,2,13,-4704,10379,9317,638,1124,1055,816,,,,1,1,0.1676309
0D00:00:59.125955000,20,1.329345,103.7862,26,6.96,179.7,48648,-1,-3,8,8,-24,-103,-2,-4,0,-93,-3,50,1442,1.595,1023,-58,1,24,-3885,10250,9432,608,1195,1067,779,,,,1,1,0.07821593
0D00:00:59.305554000,21,1.329345,103.7862,26,7.64,169.5,49000,-7,3,17,0,-26,-100,10,0,0,-72,-16,63,1456,1.595,1023,-39,-14,28,-2685,9100,9738,686,1178,1085,814,,,,1,1,0.1398712
0D00:00:59.326172000,21,1.329331,103.7862,27,7.64,169.5,49040,-7,2,16,-2,-26,-99,5,4,0,-69,-17,63,1456,1.604,1023,-37,-14,29,-2182,8669,8175,717,1187,1076,782,,,,1,1,0.01605724
0D00:00:59.534445000,21,1.329317,103.7863,28,8.98,151.1,49448,0,4,33,-4,-15,-78,-29,-2,0,-23,-25,55,1461,1.613,1023,-15,-20,18,-2917,7845,8165,891,1162,947,803,,,,1,1,0.1906515
0D00:00:59.734639000,21,1.329305,103.7863,29,11.06,131.8,49840,6,-2,28,8,-5,-57,0,-1,0,0,-27,30,1449,1.604,1023,-6,-14,6,-3272,6782,7750,806,982,1001,916,,,,1,1,0.2257029
0D00:01:00.016599000,21,1.329293,103.7863,30,13.19,119.8,50392,0,0,17,19,-3,-40,0,2,0,35,-3,80,1370,1.631,1023,22,-2,38,-2521,4740,5221,664,777,862,761,,,,1,1,0.3791083
0D00:01:00.126834000,21,1.329283,103.7863,31,15.64,112.7,50608,-1,3,13,20,0,-35,1,1,0,37,-1,57,1387,1.648,1023,25,-4,26,-3168,4057,4866,714,795,908,784,,,,1,1,0.1757467
0D00:01:00.327025000,21,1.329274,103.7864,31,17.87,107.2,51000,-8,1,-9,13,2,-26,-30,-2,0,5,-1,5,1406,1.639,1023,12,-2,6,-3287,2981,5298,818,978,864,696,,,,1,1,0.36467
0D00:01:00.526817000,21,1.329266,103.7864,32,22.04,101.8,51392,1,-1,-5,11,4,-19,3,6,0,-2,17,1,1380,1.648,1023,-3,13,3,-1996,2345,4308,712,787,898,747,,,,1,1,0.4488701
0D00:01:00.726732000,21,1.329257,103.7865,33,26.2,100.7,51784,0,0,12,10,4,-13,-6,1,0,-2,33,3,1368,1.648,1023,-1,20,-3,-2443,1599,3388,766,744,785,753,,,,1,1,0.5339218
0D00:01:01.016426000,21,1.329247,103.7865,33,30.62,99.4,52352,0,0,-9,9,1,-5,0,0,0,-2,49,7,1353,1.657,1023,-1,31,7,-3442,1503,1658,681,741,790,712,,,,1,1,0.9042233
0D00:01:01.134927000,21,1.329236,103.7866,34,33.92,99.3,52584,0,0,17,9,0,-2,0,1,0,-2,44,10,1353,1.657,1023,-2,28,-1,-1343,1182,1359,747,674,721,782,,,,1,1,0.4097405
0D00:01:01.326797000,21,1.329226,103.7866,35,35.53,99.9,52960,0,0,2,8,0,1,0,0,0,-2,32,14,1392,1.648,1023,-1,20,7,-635,1320,1658,809,783,820,830,,,,1,1,0.6949175
0D00:01:01.526846000,21,1.329216,103.7867,36,36.03,99.1,53352,-2,2,17,4,2,4,-1,3,0,-2,0,27,1470,1.639,1023,1,-3,10,-1647,829,5045,1035,900,940,1001,,,,1,1,0.7347365
0D00:01:01.726752000,21,1.329207,103.7868,37,36.2,98.6,53744,2,-3,11,6,1,4,0,0,0,-2,-12,3,1389,1.648,1023,-4,-5,-2,-1759,809,1779,815,754,783,865,,,,1,1,0.7376756
0D00:01:02.016765000,21,1.3292,103.7868,39,36.17,97.4,54312,0,0,-14,10,-3,2,0,-1,0,-2,-40,0,1355,1.666,1023,-2,-25,5,-1011,761,119,679,751,773,739,,,,1,1,1.069294
0D00:01:02.126792000,21,1.329195,103.7869,40,35.89,95.1,54528,0,0,-7,11,-2,0,-1,0,0,-2,-36,0,1355,1.666,1023,-2,-23,3,-725,806,374,691,737,766,748,,,,1,1,0.4025351
0D00:01:02.326777000,21,1.329194,103.787,41,36.62,92,54920,-2,0,3,10,1,-3,1,-5,0,-2,0,0,1386,1.657,1023,0,0,-1,-4873,777,1214,767,787,811,828,,,,1,1,0.7465291
0D00:01:02.526925000,21,1.329192,103.787,42,37.53,91.2,55312,-1,-1,-15,9,1,-4,-1,-1,0,0,25,0,1400,1.657,1023,2,17,5,-3801,590,2713,763,863,883,799,,,,1,1,0.7657038
0D00:01:02.726737000,21,1.329192,103.7871,44,38.38,90.8,55704,0,-1,14,6,0,-3,0,0,0,0,0,0,1406,1.657,1023,-1,1,-5,-3692,304,1964,846,801,828,882,,,,1,1,0.7817314
0D00:01:03.020550000,21,1.329192,103.7872,46,39.35,90.4,56280,-4,1,-12,15,-1,-5,-5,3,0,123,-3,-50,1360,1.666,1023,84,-3,-23,-4367,-508,1284,699,764,808,711,,,,1,1,1.178547
0D00:01:03.131046000,21,1.329192,103.7872,48,40.91,89.5,56496,-18,-2,11,0,-1,-1,-1,-4,0,174,-1,-65,1406,1.657,1023,140,2,-39,-4498,-4786,2180,887,877,758,835,,,,1,1,0.4607942
0D00:01:03.310617000,20,1.329192,103.7872,48,42.39,89.6,56848,-2,-7,26,-28,-13,13,12,-5,0,175,-1,-26,1431,1.639,1023,124,7,-23,-3346,-11330,5663,965,900,701,993,,,,1,1,0.7759444
0D00:01:03.330944000,20,1.329193,103.7873,50,42.39,89.6,56888,0,-6,19,-29,-14,14,-3,-2,0,174,-1,-19,1432,1.648,1023,122,6,-17,-3291,-11745,7435,990,941,693,944,,,,1,1,0.08783502
0D00:01:03.531064000,20,1.329192,103.7874,53,41.12,90,57280,0,-2,38,-29,-21,28,-39,4,0,158,-1,-7,1460,1.631,1023,108,2,-17,-2833,-13627,10140,1208,994,603,990,,,,1,1,0.8388312
0D00:01:03.710776000,19,1.329192,103.7874,53,41.24,90.6,57632,1,2,26,-20,-23,42,-15,-2,0,119,-28,-4,1474,1.631,1023,77,-20,-11,-3669,-13275,9570,1153,954,696,1105,,,,1,1,0.7554865
0D00:01:03.731081000,19,1.329193,103.7875,55,41.24,90.6,57672,2,-3,36,-18,-24,43,-9,2,0,117,-29,-4,1474,1.622,1023,74,-15,-15,-3393,-13009,9697,1157,911,686,1156,,,,1,1,0.08535965
0D00:01:04.020810000,19,1.329196,103.7875,58,41.14,88.8,58240,2,-3,1,0,-22,62,-3,6,0,114,-33,-4,1456,1.622,1023,72,-17,-3,-3061,-10413,9188,1043,844,750,1125,,,,1,1,1.215031
0D00:01:04.119097000,20,1.329196,103.7875,58,41.76,86.5,58432,5,0,-10,2,-22,65,-6,0,0,110,-44,-4,1456,1.631,1023,66,-29,2,-3140,-10225,9596,1010,866,772,1115,,,,1,1,0.418396
0D00:01:04.131310000,20,1.329202,103.7876,61,41.76,86.5,58456,2,3,7,2,-21,65,8,4,0,110,-44,-4,1456,1.622,1023,68,-32,-5,-3003,-10172,9822,1041,777,777,1168,,,,1,1,0.05198928
0D00:01:04.331377000,20,1.329208,103.7877,64,42.49,84.7,58848,-4,0,4,0,-18,69,-36,2,0,86,-20,-5,1423,1.639,1023,61,-12,-4,-3681,-9213,9700,1090,837,581,986,,,,1,1,0.8665491
0D00:01:04.531227000,20,1.329212,103.7878,67,41.8,85.3,59240,1,2,-12,0,-12,68,4,0,0,76,-13,-5,1421,1.639,1023,47,-11,1,-4005,-7954,8935,955,752,735,1036,,,,1,1,0.8515525
0D00:01:04.731428000,20,1.329209,103.7878,70,41.28,89.1,59632,-5,-3,-25,-2,-7,60,11,-8,0,55,-5,-4,1456,1.631,1023,41,0,7,-4168,-7736,7860,970,897,825,1070,,,,1,1,0.842436
0D00:01:04.911154000,19,1.329209,103.7878,70,40.55,95.7,59984,-6,1,-4,-15,-7,62,-1,0,0,3,-5,-4,1460,1.622,1023,9,-5,-1,-4758,-6406,8400,1123,880,753,1039,,,,1,1,0.7429041
0D00:01:05.021457000,19,1.329196,103.7879,73,40.55,95.7,60200,-3,1,-27,-17,-4,60,6,-3,0,-10,-7,-5,1460,1.622,1023,-3,-6,7,-4031,-6108,8772,1042,920,827,1006,,,,1,1,0.4559416
0D00:01:05.131929000,19,1.329171,103.788,75,40.01,105.3,60416,0,4,-22,-16,-1,53,0,2,0,-17,-7,-12,1460,1.631,1023,-11,-10,1,-4137,-5437,7877,1069,902,856,968,,,,1,1,0.4505591
0D00:01:05.331566000,19,1.329134,103.788,77,39.52,115.9,60808,1,1,-28,-10,2,38,-12,0,0,-3,-26,-19,1460,1.631,1023,-4,-18,-1,-4750,-3879,4829,1029,961,889,916,,,,1,1,0.8042461
0D00:01:05.531518000,19,1.329087,103.7881,79,38.95,127.2,61200,3,-1,-16,-9,5,31,8,0,0,-2,-27,-16,1460,1.631,1023,-6,-16,-3,-5502,-2753,4962,988,900,930,978,,,,1,1,0.7938971
0D00:01:05.702876000,18,1.329087,103.7881,79,37.48,139.1,61536,1,4,-3,-6,5,27,-3,-3,0,-5,-12,-19,1460,1.639,1023,-4,-12,-9,-5199,-2338,4028,1039,898,888,971,,,,1,1,0.6546889
0D00:01:05.711032000,18,1.329032,103.7881,81,37.48,139.1,61552,1,3,-13,-6,6,27,1,4,0,-5,-12,-19,1460,1.631,1023,-5,-12,-6,-5290,-2292,2542,1022,893,940,941,,,,1,1,0.03116074
0D00:01:05.911374000,19,1.329032,103.7881,81,36.88,150.8,61944,2,1,-5,0,6,20,-2,-2,0,-8,-5,-23,1460,1.639,1023,-8,-5,-10,-5636,-891,6624,995,905,927,968,,,,1,1,0.7531716
0D00:01:06.013238000,19,1.328973,103.7882,82,36.88,150.8,62144,0,1,-12,0,5,15,3,7,0,-12,-3,-23,1460,1.631,1023,-7,-3,-8,-5195,-843,4269,982,902,980,931,,,,1,1,0.3829505
0D00:01:06.111159000,18,1.328973,103.7882,82,33.65,165.6,62336,0,-1,-7,1,6,12,4,4,0,-16,-3,-23,1460,1.631,1023,-10,-1,-10,-5236,-217,4548,965,904,973,954,,,,1,1,0.335886
0D00:01:06.131580000,18,1.328916,103.7882,83,33.65,165.6,62376,1,-3,-10,2,5,12,-2,-3,0,-16,-3,-23,1460,1.639,1023,-12,2,-9,-5139,-57,4899,946,944,946,960,,,,1,1,0.07004757
0D00:01:06.331504000,18,1.328861,103.7882,83,31.05,180.2,62768,0,2,-5,3,5,7,-3,6,0,-16,-4,-23,1460,1.639,1023,-10,-6,-11,-4733,357,4523,985,911,977,922,,,,1,1,0.632787
0D00:01:06.531577000,18,1.328806,103.7881,83,31.51,196.1,63160,2,-1,-17,5,5,3,4,-6,0,0,-7,-19,1436,1.639,1023,-3,-3,-4,-5125,785,4212,832,908,957,904,,,,1,1,0.6426402
0D00:01:06.711075000,16,1.328806,103.7881,83,36.02,212.1,63512,4,0,10,5,3,3,2,2,0,11,-1,-4,1415,1.648,1023,2,-1,-6,-4900,-94,1523,873,783,870,904,,,,1,1,0.6590742
0D00:01:06.731364000,16,1.328749,103.7881,81,36.02,212.1,63552,-1,-1,0,5,3,3,5,-1,0,11,-1,-4,1406,1.648,1023,9,1,-2,-4893,-97,2447,825,811,855,864,,,,1,1,0.07449641
0D00:01:06.910923000,17,1.328749,103.7881,81,43.85,223.4,63904,-2,0,8,2,0,5,-5,1,0,5,0,-3,1368,1.648,1023,6,0,-5,-4119,-1068,1005,809,737,721,780,,,,1,1,0.8026159
0D00:01:07.021049000,17,1.328695,103.788,80,43.85,223.4,64120,-1,0,0,1,-2,7,0,1,0,0,0,-3,1347,1.666,1023,2,1,-2,-4018,-1034,1316,732,707,697,741,,,,1,1,0.4922554
0D00:01:07.115059000,16,1.328695,103.788,80,47.89,234.1,64304,0,-1,-16,2,-4,8,-1,0,0,0,0,-1,1316,1.666,1023,-1,2,5,-3757,-811,-11,621,685,660,659,,,,1,1,0.4589336
0D00:01:07.131401000,16,1.328651,103.7879,79,47.89,234.1,64336,1,0,-23,2,-4,8,-1,0,0,0,0,-1,1315,1.675,1023,-2,1,8,-3678,-792,74,602,695,680,639,,,,1,1,0.07977761
0D00:01:07.331710000,16,1.328622,103.7879,77,49.62,245.1,64728,0,4,4,3,-3,8,1,0,0,-3,0,-1,1346,1.657,1023,-3,-4,-2,-3758,-342,749,735,676,702,756,,,,1,1,1.013184
0D00:01:07.531759000,16,1.328607,103.7878,76,49.62,256.1,65120,0,0,-2,4,2,5,0,0,0,7,0,-1,1391,1.657,1023,5,0,0,-3968,-68,2328,809,788,813,825,,,,1,1,1.011869
0D00:01:07.723585000,17,1.328607,103.7878,76,50.22,264.4,65496,-3,3,13,3,4,5,-2,-6,0,21,18,-3,1393,1.657,1023,17,8,-6,-3379,-1075,2515,863,774,769,844,,,,1,1,0.9820083
0D00:01:07.731694000,17,1.3286,103.7877,75,50.22,264.4,65512,-1,-2,11,2,4,5,5,-1,0,22,18,-3,1393,1.657,1023,16,15,-5,-3330,-1127,2642,833,762,790,866,,,,1,1,0.04151213
0D00:01:08.021419000,17,1.328597,103.7876,74,51.72,267.1,66080,0,1,-2,2,1,7,-8,3,0,29,1,-3,1393,1.657,1002,18,-1,-1,-3275,-1464,2424,850,799,804,798,,,,1,1,1.52748
0D00:01:08.131654000,17,1.328594,103.7875,74,54.76,268.6,66296,-1,-2,7,2,1,7,-2,0,0,53,0,-10,1393,1.648,1002,35,2,-8,-3150,-2252,1939,845,783,774,848,,,,1,1,0.6153383
0D00:01:08.315230000,19,1.328594,103.7875,74,57.45,268.5,66656,-2,0,2,-3,0,10,-2,0,0,57,0,-16,1393,1.657,1002,38,0,-10,-3288,-3740,3276,856,801,768,825,,,,1,1,1.07507
0D00:01:08.335501000,19,1.328591,103.7874,74,57.45,268.5,66696,-2,-2,8,-3,0,10,1,1,0,57,0,-16,1393,1.657,1002,39,2,-12,-3291,-3843,2921,863,784,757,846,,,,1,1,0.1187124
0D00:01:08.535510000,19,1.328586,103.7873,74,58.7,267.9,67088,-2,0,-2,-10,-4,15,0,0,0,57,-12,-17,1393,1.657,1023,38,-8,-8,-3228,-5497,3793,858,825,747,821,,,,1,1,1.196792
0D00:01:08.723495000,17,1.328586,103.7873,74,59.39,267,67456,-5,0,-8,-14,-5,17,0,0,0,110,-56,-57,1392,1.657,1023,77,-36,-28,-3531,-6889,3749,857,848,735,802,,,,1,1,1.138066
0D00:01:08.731623000,17,1.32858,103.7872,74,59.39,267,67472,-5,-3,18,-14,-5,17,1,-5,0,110,-57,-57,1392,1.648,1023,77,-33,-37,-3450,-7064,3734,898,807,657,880,,,,1,1,0.04920713
0D00:01:09.033506000,17,1.328573,103.7871,74,59.68,266.4,68064,-1,0,6,-31,-15,29,-4,11,0,110,-24,-71,1392,1.648,1023,73,-15,-41,-3926,-9456,6494,963,824,633,822,,,,1,1,1.836532
0D00:01:09.123333000,18,1.328573,103.7871,74,59.77,265.9,68240,0,-4,24,-32,-17,35,2,4,0,110,-3,-73,1392,1.648,1023,73,3,-48,-3195,-9618,5783,973,785,567,917,,,,1,1,0.5472946
0D00:01:09.135507000,18,1.328564,103.787,74,59.77,265.9,68264,0,-3,-20,-32,-18,36,-5,0,0,110,-3,-73,1392,1.639,1023,72,1,-33,-3102,-9703,6233,884,908,641,810,,,,1,1,0.07417329
0D00:01:09.335805000,18,1.328555,103.7868,74,58.84,265.3,68656,4,0,19,-28,-20,43,4,-3,0,115,0,-69,1392,1.648,1023,71,-2,-44,-2606,-8924,7814,939,768,578,958,,,,1,1,1.20138
0D00:01:09.523672000,19,1.328555,103.7868,74,53.66,264.2,69024,3,-2,-1,-19,-15,39,2,-6,0,125,0,-69,1392,1.648,1023,78,3,-37,-1526,-9508,8327,870,809,643,920,,,,1,1,1.027619
0D00:01:09.535871000,19,1.328545,103.7868,73,53.66,264.2,69048,1,-1,-4,-18,-15,39,-8,-4,0,125,0,-69,1392,1.639,1023,81,2,-36,-1542,-9628,8747,900,837,627,878,,,,1,1,0.06672766
0D00:01:09.723942000,20,1.328545,103.7868,73,50.18,263.8,69416,13,0,2,-2,-10,29,10,-1,0,130,0,-71,1396,1.648,1023,73,-1,-40,-1332,-8715,8232,818,727,768,962,,,,1,1,0.9620186
0D00:01:09.736143000,20,1.328535,103.7867,73,50.18,263.8,69440,8,5,-28,0,-10,29,-17,7,0,130,0,-71,1396,1.648,1023,78,-6,-29,-1270,-8560,7587,850,834,802,789,,,,1,1,0.06241042
0D00:01:09.924130000,19,1.328535,103.7867,73,48.9,263.3,69808,7,2,-28,8,-8,21,1,0,0,134,0,-78,1396,1.648,1023,81,-3,-33,-722,-8307,8884,751,809,860,854,,,,1,1,0.9370606
0D00:01:10.034308000,19,1.328525,103.7866,73,48.9,263.3,70024,7,0,-4,11,-9,17,6,2,0,134,0,-79,1396,1.648,1012,82,-1,-42,-645,-8490,8823,777,747,831,920,,,,1,1,0.5492053
0D00:01:10.103804000,18,1.328525,103.7866,73,48.73,263.2,70160,5,0,-22,14,-9,15,-2,0,0,134,0,-78,1400,1.639,1012,84,1,-35,-551,-8051,9700,753,825,860,869,,,,1,1,0.3452131
0D00:01:10.124201000,18,1.328514,103.7865,73,48.73,263.2,70200,-2,0,-1,14,-9,14,-1,-3,0,132,0,-78,1407,1.648,1002,90,1,-42,-960,-7995,10176,815,821,805,924,,,,1,1,0.1013197
0D00:01:10.324441000,18,1.328498,103.7864,73,47.06,261.9,70592,1,1,9,19,-5,8,5,11,0,98,42,-63,1409,1.639,992,62,25,-38,-350,-7571,9156,845,732,878,926,,,,1,1,0.9605805
0D00:01:10.524263000,18,1.328473,103.7863,73,44.43,255.7,70984,-5,0,-11,18,-5,6,-8,4,0,80,68,-10,1372,1.639,992,56,43,-2,-25,-6280,8739,746,769,794,771,,,,1,1,0.9050042
0D00:01:10.703868000,19,1.328473,103.7863,73,42.14,246,71336,2,2,-9,16,-6,2,10,6,0,76,41,-4,1416,1.639,971,46,23,1,-898,-5812,9562,785,802,948,902,,,,1,1,0.7715142
0D00:01:10.724291000,19,1.328437,103.7863,73,42.14,246,71376,-3,-1,-3,16,-5,2,-1,-1,0,74,32,-3,1446,1.631,961,51,22,0,-305,-5991,9853,853,897,907,943,,,,1,1,0.08772938
0D00:01:11.006262000,19,1.328393,103.7862,73,38.45,233.9,71928,-5,3,20,6,-5,-2,3,-3,0,35,-22,0,1632,1.551,982,28,-17,-7,-1604,-7321,15711,1316,1263,1254,1362,,,,1,1,1.105177
0D00:01:11.104299000,18,1.328393,103.7862,73,35.23,222.2,72120,2,3,14,3,-5,0,5,6,0,30,-24,0,1680,1.542,982,16,-19,-6,-1823,-7148,17989,1413,1327,1396,1448,,,,1,1,0.3520738
0D00:01:11.124658000,18,1.328345,103.7862,73,35.23,222.2,72160,-2,2,16,2,-4,2,-1,-1,0,28,-24,0,1689,1.533,971,21,-19,-6,-1798,-7174,17661,1453,1384,1363,1457,,,,1,1,0.07311392
0D00:01:11.316670000,18,1.328296,103.7862,74,31.1,207.3,72536,-2,0,3,-5,-2,9,-3,0,0,15,-27,0,1758,1.506,1002,13,-17,-2,-3019,-7303,14845,1602,1560,1493,1564,,,,1,1,0.6087231
0D00:01:11.504339000,19,1.328296,103.7862,74,26.54,192.2,72904,-2,0,7,-4,1,15,0,-1,0,3,-29,0,1808,1.471,1012,7,-17,-4,-4555,-6787,16194,1719,1623,1585,1697,,,,1,1,0.5077202
0D00:01:11.516828000,19,1.328252,103.7862,75,26.54,192.2,72928,0,0,5,-4,0,15,0,2,0,3,-29,0,1816,1.471,1012,3,-18,-3,-4610,-6641,14095,1741,1633,1614,1702,,,,1,1,0.03378777
0D00:01:11.716827000,19,1.328213,103.7862,77,23.1,173.7,73320,1,0,1,0,4,18,-1,2,0,0,-3,0,1862,1.453,1012,-3,-3,-1,-5703,-4923,11386,1826,1703,1736,1799,,,,1,1,0.4709457
0D00:01:12.018588000,19,1.328181,103.7862,79,22.66,152,73912,-1,0,3,5,3,17,0,1,0,1,40,4,1918,1.427,1023,5,27,-1,-3785,-2721,8265,1931,1810,1851,1928,,,,1,1,0.6970341
0D00:01:12.108607000,17,1.328181,103.7862,79,23.66,133.2,74088,0,0,2,7,1,18,1,0,0,1,42,5,1942,1.418,1023,0,29,0,-1838,-1935,9266,1960,1854,1902,1998,,,,1,1,0.21711
0D00:01:12.116700000,17,1.328156,103.7862,81,23.66,133.2,74104,0,0,2,7,1,19,0,1,0,1,42,5,1943,1.418,1023,-1,29,-1,-1745,-1979,9610,1969,1855,1901,1997,,,,1,1,0.0195189
0D00:01:12.329221000,17,1.32814,103.7863,83,24.64,116.8,74520,1,0,3,12,-5,24,1,0,0,2,24,5,1980,1.418,1023,-6,20,-3,546,-1424,4259,1954,1852,1895,2047,,,,1,1,0.5337938
0D00:01:12.517132000,17,1.328131,103.7863,86,26.06,103.7,74888,0,1,0,14,-2,29,0,0,0,1,0,3,2000,1.418,1023,-1,-8,0,436,-470,3891,1968,1826,1894,2047,,,,1,1,0.4991805
0D00:01:12.717392000,17,1.328126,103.7864,89,27.35,97.9,75280,-1,1,-1,16,-1,27,0,0,0,2,-28,0,2000,1.418,1023,13,-29,4,-2018,-535,-119,1975,1844,1918,2046,,,,1,1,0.5583192
0D00:01:12.909122000,16,1.328126,103.7864,89,29.59,94.7,75656,-3,0,-2,12,2,18,0,0,0,2,-24,0,2000,1.4,1023,22,-20,6,-4962,-1020,-2957,2008,1904,1972,2037,,,,1,1,0.5783171
0D00:01:13.019249000,16,1.328122,103.7864,91,29.59,94.7,75872,0,0,0,14,5,18,0,0,0,2,-12,0,2000,1.409,1023,5,-8,-1,-3960,-1820,5351,1991,1865,1962,2033,,,,1,1,0.3321772
0D00:01:13.129715000,16,1.328119,103.7865,93,33,93.1,76088,0,-1,0,16,1,17,0,0,0,2,-3,0,2000,1.409,1023,-4,5,2,-6419,-1757,393,1962,1873,1960,2046,,,,1,1,0.3715982
0D00:01:13.329717000,16,1.328115,103.7866,95,34.62,93.2,76480,0,0,0,20,1,18,0,0,0,2,-4,0,2000,1.409,1023,6,3,2,-6049,705,1370,1942,1851,1953,2047,,,,1,1,0.7058175
0D00:01:13.517516000,16,1.328111,103.7866,97,36,93.4,76848,0,0,6,16,0,21,0,0,0,2,-12,0,2000,1.4,1023,2,-9,-14,-6191,-295,2322,1962,1822,1906,2047,,,,1,1,0.6891706
0D00:01:13.730015000,16,1.32811,103.7867,99,36.48,92.7,77264,0,0,1,17,3,16,0,0,0,2,-17,0,2000,1.4,1023,-2,-4,-3,-7892,-986,2211,1963,1855,1963,2038,,,,1,1,0.7902103
0D00:01:13.909875000,17,1.32811,103.7867,99,35.57,89.2,77616,0,-1,2,15,2,17,0,0,0,2,-17,0,2000,1.409,1023,-1,-2,-6,-4851,-1466,3835,1969,1859,1942,2045,,,,1,1,0.6521529
0D00:01:14.020011000,17,1.328113,103.7868,101,35.57,89.2,77832,-1,0,0,15,5,15,0,0,0,2,-17,0,2000,1.391,1023,10,-16,-1,-7849,-973,1653,1993,1876,1980,2030,,,,1,1,0.3993412
0D00:01:14.130264000,17,1.328118,103.7868,102,34.92,86.5,78048,0,0,0,19,2,17,0,0,0,2,-17,0,2000,1.391,1023,3,-16,0,-8233,-728,-324,1956,1851,1964,2039,,,,1,1,0.3924602
0D00:01:14.309935000,18,1.328118,103.7868,102,34.49,82.9,78400,0,0,-1,19,5,14,-1,0,0,2,-18,-1,2000,1.382,1023,8,-14,4,-8457,-333,-6263,1971,1877,1993,2033,,,,1,1,0.6316873
0D00:01:14.330287000,18,1.328126,103.7869,103,34.49,82.9,78440,0,0,-2,18,5,13,0,0,0,2,-18,-1,2000,1.373,1023,6,-17,6,-9024,-295,-8486,1974,1877,2008,2027,,,,1,1,0.07155357
0D00:01:14.530462000,18,1.328134,103.7869,104,34.89,82.6,78832,1,1,2,20,-2,18,0,3,0,2,-17,-1,1998,1.409,1023,-5,-22,-6,-6738,-243,3867,1947,1821,1947,2037,,,,1,1,0.7119374
0D00:01:14.730414000,18,1.328139,103.787,105,35.81,84.5,79224,1,-3,-15,19,-1,11,-2,5,0,-27,-3,-22,1737,1.506,1023,-19,3,-5,-8688,1267,-439,1457,1473,1572,1546,,,,1,1,0.7298961
0D00:01:15.020349000,18,1.328143,103.7871,105,36.37,86.2,79792,30,-17,-33,63,-26,-13,8,2,0,-111,-30,-3,1429,1.586,1023,-102,-1,10,-6234,12329,-8603,393,852,1163,1135,,,,1,1,1.074917
0D00:01:15.130574000,18,1.328147,103.7871,106,37.31,87.1,80008,58,-55,-84,104,-52,-34,20,0,0,-117,-47,8,1391,1.551,1023,-136,26,34,-5299,19068,-4442,115,1001,1389,1335,,,,1,1,0.4192146
0D00:01:15.322753000,18,1.328151,103.7872,106,37.83,87.3,80384,0,6,-23,129,-107,-83,1,7,0,-145,-48,25,1344,1.56,1012,-96,-37,22,-1762,21671,1272,116,898,1087,1013,,,,1,1,0.7410939
0D00:01:15.522830000,18,1.328157,103.7873,107,37.87,86.2,80776,0,1,-57,133,-104,-100,-3,-1,0,-154,-46,16,1353,1.551,1012,-104,-31,29,-2305,22758,6468,116,1175,1305,1036,,,,1,1,0.7723666
0D00:01:15.711129000,17,1.328157,103.7873,107,37.85,84.6,81144,-53,34,7,57,-66,-111,11,-4,0,-154,-50,17,1382,1.569,1023,-51,-67,7,-3439,16708,4309,404,1101,999,662,,,,1,1,0.7265155
0D00:01:15.723288000,17,1.328164,103.7874,108,37.85,84.6,81168,-44,29,-18,50,-61,-111,4,-4,0,-154,-50,17,1382,1.569,1023,-60,-62,16,-3401,16136,4414,351,1178,1047,585,,,,1,1,0.04691317
0D00:01:16.025181000,17,1.328173,103.7874,108,38.03,83.4,81760,-1,10,-18,32,-47,-139,-4,3,0,-152,-42,32,1383,1.569,1023,-102,-37,24,-3760,13617,7799,267,1191,1154,557,,,,1,1,1.170335
0D00:01:16.123177000,17,1.328182,103.7875,109,38.11,82.5,81952,-3,3,-21,29,-43,-143,12,1,0,-152,-36,33,1383,1.577,1023,-99,-26,25,-3571,13298,7220,209,1189,1190,581,,,,1,1,0.380696
0D00:01:16.315386000,19,1.328182,103.7875,109,38.06,81.6,82328,-5,4,30,6,-32,-135,6,3,0,-149,-29,40,1386,1.577,1023,-95,-23,11,-1511,9667,9088,474,1093,1004,622,,,,1,1,0.7457161
0D00:01:16.323489000,19,1.328193,103.7876,109,38.06,81.6,82344,-1,4,0,5,-31,-134,7,-4,0,-149,-29,40,1386,1.577,1023,-99,-23,22,-1578,9535,8908,372,1170,1071,581,,,,1,1,0.03143733
0D00:01:16.523301000,19,1.328205,103.7876,110,38.21,80.8,82736,2,8,42,0,-15,-112,7,3,0,-125,-28,42,1400,1.586,1023,-85,-27,8,-3603,7169,9654,628,977,1008,694,,,,1,1,0.7782688
0D00:01:16.723680000,19,1.328218,103.7877,110,38.18,80,83128,2,6,29,4,-5,-85,0,7,0,-55,-27,51,1424,1.569,1023,-38,-24,17,-2902,5859,10357,747,965,1047,744,,,,1,1,0.7798644
0D00:01:17.025728000,19,1.328233,103.7878,111,37.74,78.4,83720,-6,0,39,-7,-11,-63,-14,-3,0,-3,-30,60,1455,1.577,1023,4,-19,19,-3500,3824,12113,914,1094,896,851,,,,1,1,1.162007
0D00:01:17.135949000,19,1.328252,103.7878,111,37.23,76,83936,12,4,16,-7,-8,-52,-7,-2,0,8,-16,48,1447,1.577,1023,-8,-15,20,-3556,4562,9314,828,1029,985,847,,,,1,1,0.4183005
0D00:01:17.335816000,19,1.328276,103.7879,111,35.57,71.2,84328,0,6,12,4,-2,-39,-7,0,0,102,7,-16,1438,1.586,1023,66,-2,-13,-3526,3233,8400,863,963,971,820,,,,1,1,0.7246961
0D00:01:17.515785000,18,1.328276,103.7879,111,31.72,61.9,84680,0,-2,21,8,2,-27,2,-1,0,92,3,-19,1429,1.595,1023,59,5,-18,-3050,593,8844,842,881,917,904,,,,1,1,0.5819181
0D00:01:17.523929000,18,1.328303,103.7879,112,31.72,61.9,84696,-1,0,23,9,2,-26,-4,1,0,92,3,-19,1429,1.595,1023,60,2,-19,-2945,571,8871,881,874,911,878,,,,1,1,0.0263331
0D00:01:17.715780000,17,1.328303,103.7879,112,26.57,55.1,85072,-3,0,19,1,3,-13,-1,-1,0,97,4,-19,1418,1.595,1023,67,2,-17,-2720,-1406,7455,895,849,846,864,,,,1,1,0.5196209
0D00:01:17.736110000,17,1.32833,103.788,112,26.57,55.1,85112,-2,-1,22,0,3,-11,4,0,0,98,4,-19,1429,1.595,1023,66,4,-18,-2684,-1632,7646,913,848,871,912,,,,1,1,0.05506301
0D00:01:17.915636000,18,1.32833,103.788,112,22.12,50.6,85464,-2,0,22,-2,1,-1,0,3,0,101,19,-33,1442,1.586,1023,69,12,-26,-2789,-3215,8054,984,862,864,939,,,,1,1,0.4048028
0D00:01:18.025741000,18,1.328353,103.788,112,22.12,50.6,85680,-2,0,14,-5,1,3,-1,0,0,91,31,-33,1442,1.595,1023,61,21,-23,-2712,-4068,8180,978,889,853,929,,,,1,1,0.2482694
0D00:01:18.115828000,17,1.328353,103.788,112,17.32,48.6,85856,-1,-3,11,-6,0,6,-5,-1,0,90,33,-32,1442,1.577,1023,59,25,-21,-2146,-4691,7712,972,912,829,936,,,,1,1,0.1590527
0D00:01:18.123951000,17,1.328371,103.788,111,17.32,48.6,85872,-2,0,-4,-6,0,6,0,0,0,89,34,-32,1442,1.577,1023,60,22,-16,-2161,-4821,8180,939,931,884,895,,,,1,1,0.01434152
0D00:01:18.327971000,17,1.328383,103.788,110,12.2,47.8,86272,0,-3,-10,-6,-1,7,3,-4,0,76,21,-7,1431,1.586,1023,49,17,0,-1778,-5621,8038,868,927,869,896,,,,1,1,0.2537252
0D00:01:18.527851000,17,1.328391,103.788,109,8.26,42.8,86664,0,3,2,-8,-2,5,-2,-1,0,61,0,-19,1429,1.595,1023,40,-2,-11,-1833,-6329,7298,926,899,837,881,,,,1,1,0.1682986
0D00:01:18.707452000,18,1.328391,103.788,109,3.19,40.8,87016,2,0,5,-7,-3,4,1,0,0,64,0,-35,1429,1.604,1023,39,-1,-21,-1878,-5975,6117,909,877,849,908,,,,1,1,0.05840236
0D00:01:18.728034000,18,1.328393,103.788,108,3.19,40.8,87056,2,0,0,-7,-2,4,-2,-3,0,66,0,-35,1429,1.604,1023,40,-1,-19,-1600,-6069,6762,901,906,847,890,,,,1,1,0.006692822
0D00:01:19.025897000,18,1.328391,103.788,106,3,340.7,87640,-3,1,-15,-5,-3,2,-1,-1,0,81,-7,-47,1429,1.604,1023,56,-6,-20,-1537,-6762,7012,874,948,884,838,,,,1,1,0.0910896
0D00:01:19.127828000,18,1.328384,103.788,105,9.5,255.5,87840,-1,0,11,-6,-3,2,0,3,0,82,-5,-48,1429,1.595,1023,54,-4,-30,-1518,-7346,6496,935,873,837,898,,,,1,1,0.09870994
0D00:01:19.327789000,18,1.328373,103.7879,103,21.2,256.4,88232,0,0,-10,-5,-5,1,-5,-2,0,82,-6,-55,1421,1.595,1023,53,-4,-26,-1165,-7218,7032,856,936,846,840,,,,1,1,0.4321277
0D00:01:19.527903000,18,1.328358,103.7879,101,33.15,257.8,88624,-1,-4,15,-7,-7,0,-2,-3,0,82,-9,-60,1420,1.595,1023,55,-2,-38,-1434,-8306,7699,895,895,769,911,,,,1,1,0.6762262
0D00:01:19.719644000,17,1.328358,103.7879,101,43.6,257.2,89000,1,0,-18,-9,-4,-2,-3,2,0,82,-2,-61,1420,1.604,1023,52,-3,-27,-1527,-8148,7469,844,943,885,798,,,,1,1,0.8521822
0D00:01:19.727818000,17,1.328339,103.7878,100,43.6,257.2,89016,0,0,-22,-9,-4,-2,-2,-2,0,82,-2,-61,1420,1.604,1023,52,-3,-26,-1452,-8075,7362,821,965,884,800,,,,1,1,0.03632889
0D00:01:20.029536000,17,1.328317,103.7877,98,51.2,257.1,89608,0,0,0,-10,-4,-5,-2,4,0,92,0,-65,1433,1.595,1023,58,-1,-36,-208,-8753,9365,912,931,878,854,,,,1,1,1.574716
0D00:01:20.119228000,18,1.328317,103.7877,98,56.24,257.1,89784,6,4,13,-8,-3,-5,2,1,0,95,13,-65,1442,1.595,1023,55,4,-40,-719,-8434,8632,937,885,902,925,,,,1,1,0.5141976
0D00:01:20.139889000,18,1.328294,103.7876,96,56.24,257.1,89824,3,1,-20,-7,-2,-5,8,0,0,95,15,-67,1442,1.595,1023,58,8,-30,-420,-8450,8331,841,965,978,865,,,,1,1,0.118448
0D00:01:20.339718000,18,1.328269,103.7875,95,59.35,257,90216,0,0,0,-4,-1,-5,3,-8,0,95,17,-50,1454,1.586,1023,61,12,-27,-133,-8668,8982,898,976,922,951,,,,1,1,1.208955
0D00:01:20.539566000,18,1.328244,103.7874,93,61.72,257.1,90608,-1,0,0,-1,0,-6,2,-1,0,93,42,-41,1477,1.586,1023,61,26,-22,-145,-8935,10634,966,1003,994,970,,,,1,1,1.257352
0D00:01:20.739597000,18,1.328218,103.7873,92,63.14,257.1,91000,-3,2,-9,-1,-2,-7,-5,7,0,76,1,-33,1490,1.586,1023,52,-2,-15,162,-9446,10224,1009,1058,1042,930,,,,1,1,1.287457
0D00:01:21.029304000,18,1.328192,103.7871,90,63.96,257,91568,4,2,5,-2,-2,-7,8,-5,0,77,-13,-54,1512,1.569,1023,45,-10,-31,-450,-9379,9784,1013,1045,1072,1088,,,,1,1,1.888854
0D00:01:21.139513000,18,1.328166,103.787,89,64.37,256.8,91784,-1,1,-6,-4,-2,-7,0,0,0,77,-3,-61,1484,1.586,1023,52,-3,-31,-727,-9521,8914,980,1046,1015,950,,,,1,1,0.7231553
0D00:01:21.331168000,18,1.328139,103.7869,87,64.77,256.8,92160,-1,0,2,-4,-2,-7,0,1,0,79,-1,-69,1481,1.595,1023,52,-1,-38,-510,-9355,8856,989,1019,991,968,,,,1,1,1.265392
0D00:01:21.539308000,18,1.328112,103.7868,85,64.93,256.6,92568,3,0,7,-3,-2,-7,1,0,0,90,-1,-73,1516,1.569,1023,55,-1,-42,-119,-10348,9575,1054,1065,1062,1070,,,,1,1,1.377628
0D00:01:21.718965000,19,1.328112,103.7868,85,63.61,256.3,92920,-1,0,0,0,-1,-7,-4,0,0,93,-1,-65,1531,1.56,1023,61,0,-36,274,-9874,10320,1087,1132,1089,1065,,,,1,1,1.164932
0D00:01:21.739289000,19,1.32808,103.7867,84,63.61,256.3,92960,5,0,-8,0,-1,-7,-4,0,0,93,0,-65,1531,1.56,1023,54,0,-33,382,-9854,10503,1046,1131,1128,1067,,,,1,1,0.1317849
0D00:01:22.028994000,19,1.32804,103.7866,82,56.49,249.7,93528,0,-2,-8,1,0,-9,5,-12,0,100,19,-51,1521,1.569,1023,65,15,-25,442,-11223,8985,983,1131,1097,1080,,,,1,1,1.66824
0D00:01:22.139409000,19,1.327996,103.7866,80,47.5,237.8,93744,-1,4,-9,4,0,-10,-6,4,0,98,22,-37,1497,1.577,1023,65,9,-17,1165,-11328,11075,1011,1058,1081,946,,,,1,1,0.5346292
0D00:01:22.339387000,19,1.327956,103.7865,79,38.33,233.2,94136,-5,0,7,4,0,-13,-3,1,0,88,37,-22,1447,1.595,1023,62,24,-15,1992,-11229,6604,922,941,929,898,,,,1,1,0.7813615
0D00:01:22.539653000,19,1.327919,103.7865,77,31.52,227.6,94528,-3,0,-17,0,1,-20,1,5,0,84,42,-1,1402,1.595,1023,58,28,5,285,-9984,6393,763,909,928,723,,,,1,1,0.6434643
0D00:01:22.739615000,19,1.327886,103.7864,76,26.43,221.1,94920,1,0,-11,0,1,-26,-2,2,0,83,44,0,1393,1.604,1023,52,29,4,2086,-10305,6880,733,894,912,712,,,,1,1,0.5387355
0D00:01:22.919202000,17,1.327886,103.7864,76,20.18,216.6,95272,4,0,-2,-1,1,-28,-15,4,0,31,52,13,1340,1.613,1023,16,33,8,754,-8688,5621,678,791,763,588,,,,1,1,0.3694257
0D00:01:23.029344000,17,1.327861,103.7864,74,20.18,216.6,95488,0,1,14,0,1,-28,6,-2,0,18,54,5,1333,1.613,1023,12,33,-2,602,-7917,4741,644,706,738,676,,,,1,1,0.2265714
0D00:01:23.139913000,17,1.32784,103.7864,72,14.81,213,95704,-1,0,11,0,3,-28,2,-3,0,12,56,0,1318,1.622,1023,10,37,-4,182,-7370,3718,617,701,698,625,,,,1,1,0.1669242
0D00:01:23.339766000,17,1.327825,103.7864,70,10.45,200.5,96096,2,-2,3,0,1,-24,5,-3,0,19,43,0,1316,1.622,1023,10,30,-1,703,-5991,3032,579,694,713,639,,,,1,1,0.2128913
0D00:01:23.539669000,17,1.327815,103.7864,69,7.24,172.3,96488,-3,-3,39,-1,-1,-18,0,-2,0,47,1,12,1406,1.604,1023,34,4,-7,-1457,-6574,5361,884,820,758,895,,,,1,1,0.1475329
0D00:01:23.739496000,17,1.327809,103.7864,67,7.19,130.4,96880,1,0,13,-1,-2,-8,-3,3,0,12,0,25,1501,1.577,1023,7,1,9,-863,-6654,8586,1053,1031,1013,1032,,,,1,1,0.1464583
0D00:01:23.923521000,16,1.327809,103.7864,67,10.18,102.7,97240,1,0,11,-2,-1,-1,-5,5,0,0,-1,33,1576,1.56,1023,-1,0,14,-2223,-5068,10582,1229,1172,1155,1182,,,,1,1,0.1909658
0D00:01:24.029538000,16,1.327806,103.7865,65,10.18,102.7,97448,1,-4,19,-1,-1,3,5,-1,0,-1,-1,29,1605,1.551,1023,-2,4,9,-2312,-4828,10319,1266,1199,1186,1324,,,,1,1,0.1100156
0D00:01:24.119289000,17,1.327806,103.7865,65,14,93.6,97624,4,2,6,0,-1,5,7,2,0,-2,-1,25,1644,1.533,1023,-7,-3,11,-2270,-3827,10265,1328,1262,1331,1371,,,,1,1,0.128085
0D00:01:24.139642000,17,1.327806,103.7865,64,14,93.6,97664,0,1,9,0,0,5,8,-11,0,-2,-1,16,1653,1.542,1023,-1,-2,5,-2561,-4298,10192,1332,1312,1303,1418,,,,1,1,0.02904608
0D00:01:24.339579000,17,1.327809,103.7865,63,17.97,86.4,98056,0,0,0,2,0,7,-3,1,0,-3,-3,7,1721,1.489,1023,-2,-2,4,-3212,-2415,10270,1503,1461,1466,1488,,,,1,1,0.3662455
0D00:01:24.539767000,17,1.327815,103.7866,62,21.72,83.4,98448,3,1,-1,6,2,7,4,2,0,-3,-8,7,1784,1.471,1023,-8,-8,4,-4330,-1464,10676,1609,1542,1642,1638,,,,1,1,0.4432297
0D00:01:24.739670000,17,1.327825,103.7866,62,27.17,81.1,98840,1,-1,1,9,4,13,0,2,0,-3,-4,16,1863,1.436,1023,-5,0,8,-4621,-516,6264,1789,1693,1775,1815,,,,1,1,0.5536559
0D00:01:24.923210000,18,1.327825,103.7866,62,33.58,79,99200,1,0,-1,14,4,15,0,0,0,-3,-3,14,1928,1.391,1023,-8,-1,9,-4442,1579,5697,1911,1819,1913,1957,,,,1,1,0.6282643
0D00:01:25.033425000,18,1.327837,103.7867,63,33.58,79,99416,0,0,0,15,5,16,1,0,0,-3,-3,17,1966,1.382,1023,-4,-4,9,-4994,2347,8706,1974,1871,1982,2034,,,,1,1,0.3772701
0D00:01:25.143877000,18,1.327851,103.7867,64,36.42,78.3,99632,-1,1,0,18,4,18,0,0,0,-3,-3,23,1998,1.391,1023,8,-9,14,-5425,3056,6022,1972,1859,1972,2034,,,,1,1,0.4100573
0D00:01:25.343865000,18,1.327864,103.7868,65,36.43,78.4,100024,0,0,2,22,3,14,-1,0,0,-3,-3,18,2000,1.4,1023,-2,-3,4,-5795,3188,-2241,1949,1849,1974,2038,,,,1,1,0.742667
0D00:01:25.543916000,18,1.327877,103.7869,66,36.77,78.6,100416,0,0,2,20,3,17,0,-1,0,-3,-3,14,2000,1.4,1023,-1,0,3,-5302,2588,2578,1945,1836,1952,2042,,,,1,1,0.7498344
0D00:01:25.740226000,18,1.327893,103.7869,67,38.66,78.5,100800,0,0,3,21,3,19,0,0,0,-3,-3,12,2000,1.4,1023,-7,-2,-2,-4137,1921,-3480,1942,1806,1937,2037,,,,1,1,0.7736335
0D00:01:26.034007000,18,1.327913,103.787,67,46.14,77.7,101376,1,0,0,22,1,20,0,0,0,-3,-3,7,2000,1.409,1023,-13,-6,3,-5269,2555,-2505,1922,1803,1944,2041,,,,1,1,1.381759
0D00:01:26.132094000,19,1.327913,103.787,67,52.89,76.8,101568,0,0,0,21,2,21,0,0,0,-3,-3,5,2000,1.409,1023,1,1,3,-4272,2454,-2866,1938,1821,1944,2042,,,,1,1,0.5288299
0D00:01:26.140235000,19,1.327936,103.7871,68,52.89,76.8,101584,0,0,-1,21,2,21,1,0,0,-3,-3,5,2000,1.409,1023,-2,2,7,-4501,2550,-2162,1930,1825,1950,2044,,,,1,1,0.04389169
0D00:01:26.332119000,18,1.327936,103.7871,68,57.28,76.4,101960,0,0,2,22,2,20,0,0,0,-3,-3,3,2000,1.4,1023,-2,-5,-4,-4412,2372,-5355,1937,1801,1937,2038,,,,1,1,1.120399
0D00:01:26.340521000,18,1.327961,103.7872,69,57.28,76.4,101976,0,0,1,22,2,20,-1,0,0,-3,-3,3,2000,1.4,1023,0,0,-3,-4561,2424,-4621,1943,1819,1933,2043,,,,1,1,0.04905877
0D00:01:26.524176000,17,1.327961,103.7872,69,60.34,76.1,102336,2,0,-7,23,-1,17,4,1,0,-2,-10,-19,1711,1.498,1023,-5,-6,-6,-4903,2380,-5511,1404,1357,1510,1566,,,,1,1,1.129637
0D00:01:26.544645000,17,1.327988,103.7873,70,60.34,76.1,102376,1,-2,-20,24,-2,17,0,0,0,-2,-12,-26,1652,1.515,1023,-3,-5,-7,-4766,2576,-5733,1256,1291,1401,1409,,,,1,1,0.1474732
0D00:01:26.732424000,18,1.327988,103.7873,70,62.19,75.9,102744,19,-6,-27,35,-13,4,3,-2,0,-2,-12,-28,1313,1.604,1023,-21,-2,-6,-4390,1710,-15636,382,615,805,798,,,,1,1,1.190415
0D00:01:26.744664000,18,1.328016,103.7875,70,62.19,75.9,102768,21,-5,-20,38,-14,3,0,-2,0,-2,-12,-26,1312,1.604,1023,-24,-3,-7,-4348,1875,-15631,392,593,789,818,,,,1,1,0.07759486
0D00:01:26.932734000,17,1.328016,103.7875,70,63.09,75.5,103136,24,-28,-64,85,-52,-24,-5,1,0,-2,-12,-13,1276,1.595,1023,-27,21,15,-3076,4844,-11146,115,777,902,855,,,,1,1,1.209514
0D00:01:27.034663000,17,1.328045,103.7876,71,63.09,75.5,103336,1,-5,-45,98,-70,-45,4,3,0,-2,-12,-5,1268,1.604,1023,-4,-2,13,-2656,5250,-8885,116,770,935,836,,,,1,1,0.655525
0D00:01:27.124381000,18,1.328045,103.7876,71,64.11,75.5,103512,-4,1,-35,97,-70,-59,-9,0,0,-2,-10,-4,1257,1.586,1023,3,-8,10,-2977,4613,-8041,116,773,847,719,,,,1,1,0.5863222
0D00:01:27.144776000,18,1.328073,103.7877,72,64.11,75.5,103552,-4,1,-25,97,-70,-61,-9,0,0,-2,-10,-4,1257,1.604,1023,3,-8,7,-3292,4455,-8013,116,732,801,708,,,,1,1,0.1332848
0D00:01:27.344789000,18,1.328103,103.7878,72,64.82,75.8,103944,-2,1,-15,89,-64,-75,1,0,0,-2,-10,-5,1257,1.595,1023,0,-7,3,-3757,2969,-6766,116,729,857,715,,,,1,1,1.321595
0D00:01:27.545084000,18,1.32814,103.7879,73,64.5,75,104336,10,0,-28,83,-59,-83,5,1,0,-119,-3,-17,1230,1.604,1023,-88,-3,1,-3610,4777,-4637,116,800,1000,738,,,,1,1,1.316924
0D00:01:27.732919000,19,1.32814,103.7879,73,58.35,65.8,104704,4,-9,-4,105,-72,-93,-1,-3,0,-144,0,-19,1221,1.604,1023,-101,9,-9,-3347,11158,-238,116,791,901,844,,,,1,1,1.117245
0D00:01:27.745130000,19,1.328187,103.788,73,58.35,65.8,104728,-1,-11,-14,105,-74,-94,-3,1,0,-144,0,-19,1221,1.604,1023,-95,12,-5,-3359,11261,204,116,846,922,805,,,,1,1,0.07263118
0D00:01:27.925061000,17,1.328187,103.788,73,47.92,54.1,105080,5,1,-25,111,-87,-105,4,-4,0,-144,12,-5,1224,1.586,1023,-103,6,6,-2458,14282,3732,116,956,1104,908,,,,1,1,0.878929
0D00:01:28.035259000,17,1.32824,103.788,72,47.92,54.1,105296,-3,-1,-23,112,-88,-110,-6,-4,0,-133,25,-3,1226,1.577,1023,-85,17,7,-2660,14633,4523,116,973,1015,823,,,,1,1,0.5382964
0D00:01:28.133477000,18,1.32824,103.788,72,37.92,37.5,105488,-9,1,-9,106,-86,-114,-4,-2,0,-131,33,7,1227,1.595,1023,-78,19,7,-2196,13828,1948,116,901,926,752,,,,1,1,0.3796561
0D00:01:28.141608000,18,1.328293,103.7881,71,37.92,37.5,105504,-10,-1,-5,105,-86,-114,3,-3,0,-131,33,7,1227,1.595,1023,-76,23,6,-2214,13710,2661,116,892,923,789,,,,1,1,0.03142992
0D00:01:28.345783000,16,1.328573,103.7871,49,28.08,252.7,105904,-37,23,14,55,-64,-115,9,-7,0,-152,19,16,1230,1.604,1023,-65,-11,4,-1804,11111,2927,116,768,666,425,,,,1,1,0.2810404
0D00:01:28.545657000,18,1.328389,103.7881,69,26.8,2.9,106296,0,-2,-17,31,-51,-114,-2,-2,0,-158,5,16,1250,1.586,1023,-107,6,15,-1680,9786,4867,116,926,796,448,,,,1,1,0.546037
0D00:01:28.745873000,18,1.328426,103.788,67,24.78,341,106688,-5,0,-29,28,-52,-131,5,-5,0,-143,0,17,1268,1.569,1023,-90,-1,19,-1076,9347,6398,116,1055,921,443,,,,1,1,0.5057444
0D00:01:29.035495000,18,1.328454,103.788,66,24.55,317,107256,-4,5,34,-3,-27,-119,-3,-7,0,-140,0,30,1282,1.604,1023,-88,-5,4,-1761,6539,6119,353,872,688,435,,,,1,1,0.7247931
0D00:01:29.125122000,15,1.328454,103.788,66,27.28,297.3,107432,2,3,38,-4,-21,-108,7,14,0,-138,0,29,1286,1.595,1023,-94,-4,2,-1068,5668,6706,413,753,761,454,,,,1,1,0.249238
0D00:01:29.145556000,15,1.328472,103.788,66,27.28,297.3,107472,3,0,25,-3,-20,-105,-6,-9,0,-137,0,29,1286,1.595,1023,-94,-1,7,-860,5560,6756,359,858,699,464,,,,1,1,0.0568236
0D00:01:29.345830000,15,1.328483,103.7879,66,31.3,284.7,107864,2,7,36,0,-7,-79,2,10,0,-112,0,29,1307,1.604,1023,-75,-7,3,-1553,3608,7131,552,700,771,529,,,,1,1,0.6389986
0D00:01:29.545763000,15,1.328488,103.7878,66,34.24,277.2,108256,-3,1,24,10,3,-57,-11,-2,0,-64,0,32,1315,1.604,1023,-37,-1,9,-1677,2867,7248,593,737,724,563,,,,1,1,0.6978293
0D00:01:29.745588000,15,1.328488,103.7878,67,36.81,271.5,108648,8,8,18,14,7,-48,-6,-1,0,3,0,30,1355,1.595,1023,-6,-9,10,-2031,2650,7573,665,730,877,669,,,,1,1,0.7498021
0D00:01:30.035429000,15,1.328485,103.7877,68,37.6,268.6,109216,-6,-2,1,16,7,-40,-3,1,0,22,0,10,1396,1.586,1023,21,3,5,-3147,3129,8537,729,877,940,729,,,,1,1,1.110909
0D00:01:30.133226000,16,1.328485,103.7877,68,37.45,266.3,109408,-3,0,-6,11,5,-40,-7,4,0,22,0,7,1403,1.586,1023,18,1,6,-3088,3087,8955,741,922,964,706,,,,1,1,0.3733433
0D00:01:30.145412000,16,1.32848,103.7876,69,37.45,266.3,109432,1,0,-7,11,4,-40,0,0,0,22,0,7,1403,1.586,1023,13,1,6,-2705,3151,8858,702,905,982,743,,,,1,1,0.04652046
0D00:01:30.345307000,13,1.328764,103.7876,113,63.2,74,109824,0,-1,21,7,2,-34,8,-1,0,-1,-48,-1,1405,1.586,1023,-1,-29,-8,-4134,2417,9071,768,828,907,845,,,,1,1,1.183122
0D00:01:30.545586000,12,1.328804,103.7877,112,53.29,59.5,110216,1,-2,-6,8,5,-23,10,-2,0,7,-51,-3,1405,1.595,1023,3,-30,1,-3865,1929,8454,722,860,954,812,,,,1,1,0.5559434
0D00:01:30.745339000,13,1.328854,103.7878,111,42.37,48.9,110608,-3,-5,-13,9,5,-16,-5,-4,0,37,-5,-3,1443,1.586,1023,27,2,3,-4794,924,6400,834,993,975,856,,,,1,1,0.7750687
0D00:01:31.034965000,16,1.328441,103.7874,74,37.45,260.5,111176,-2,0,-3,6,2,-8,-1,2,0,40,-1,-5,1426,1.595,1023,28,0,-1,-4047,-59,10304,855,888,925,851,,,,1,1,1.105657
0D00:01:31.145384000,15,1.32895,103.7879,109,29.47,31.9,111392,-4,-1,25,2,3,-5,2,2,0,35,-1,-15,1415,1.595,1023,26,1,-17,-4307,-406,6129,915,800,821,893,,,,1,1,0.5394031
0D00:01:31.357420000,16,1.328413,103.7872,78,37.69,258.1,111808,0,0,15,-2,3,5,5,-3,0,32,0,-7,1406,1.595,1023,20,0,-9,-4057,-1160,6306,882,784,797,894,,,,1,1,0.8146419
0D00:01:31.537018000,17,1.328413,103.7872,78,38.08,256.7,112160,-5,0,18,-5,4,11,-9,0,0,48,0,-15,1406,1.595,1023,36,-1,-15,-3215,-2366,6034,969,805,735,847,,,,1,1,0.6971551
0D00:01:31.545128000,14,1.32903,103.7879,106,20.27,18.1,112176,-1,0,22,-5,4,11,7,-2,0,48,0,-15,1406,1.595,1023,32,-1,-16,-3473,-2302,5861,924,757,766,909,,,,1,1,0.202388
0D00:01:31.745067000,17,1.32838,103.7871,83,38.16,255.9,112568,-1,-1,4,-11,2,18,0,0,0,47,4,-5,1383,1.604,1023,31,4,-4,-4068,-3238,4916,874,769,710,817,,,,1,1,0.7777444
0D00:01:32.034992000,17,1.328361,103.787,85,37.96,255.3,113136,0,-1,4,-17,-1,26,-7,1,0,39,0,-3,1378,1.604,1023,25,2,-3,-3363,-3929,4277,907,774,647,801,,,,1,1,1.121871
0D00:01:32.145095000,15,1.328283,103.7878,89,41.59,213.7,113352,0,1,4,-19,-2,27,-3,6,0,39,0,-3,1378,1.604,1023,26,-2,-3,-3849,-4280,4505,921,751,667,790,,,,1,1,0.8641944
0D00:01:32.349110000,16,1.328674,103.7863,36,14.45,272.6,113752,4,6,9,-17,-3,28,0,2,0,39,0,-3,1378,1.595,1023,21,-6,-5,-3721,-4526,3725,910,711,678,829,,,,1,1,0.4086713
0D00:01:32.545267000,16,1.328165,103.7877,90,42.75,219.5,114136,-2,0,-17,-15,-2,28,-7,-1,0,86,0,-15,1378,1.604,1023,58,0,-2,-4006,-4756,4005,860,827,686,756,,,,1,1,0.08968349
0D00:01:32.737399000,18,1.328297,103.7868,92,40.42,251.1,114512,2,-2,3,-22,-5,27,-3,-1,0,91,0,-23,1378,1.613,1023,56,2,-14,-2765,-6307,4658,888,787,636,818,,,,1,1,0.7916387
0D00:01:32.749604000,18,1.328274,103.7868,94,40.42,251.1,114536,0,0,15,-22,-5,27,-1,2,0,91,0,-23,1378,1.613,1023,59,-1,-18,-3222,-6433,4735,936,747,619,827,,,,1,1,0.05028808
0D00:01:33.039240000,18,1.328253,103.7867,95,40.93,253,115104,0,0,3,-25,-11,28,0,-3,0,88,-43,-67,1403,1.595,1023,56,-26,-38,-2546,-7890,6267,927,853,667,885,,,,1,1,1.208441
0D00:01:33.157912000,18,1.328234,103.7866,97,41.2,254.5,115336,1,-2,-10,-26,-13,33,14,-5,0,69,-50,-69,1418,1.586,1023,43,-30,-34,-3444,-8222,6412,892,882,738,942,,,,1,1,0.4983982
0D00:01:33.349724000,16,1.328756,103.7862,35,14.64,317.2,115712,2,3,32,-24,-14,42,15,1,0,75,-55,-69,1446,1.577,1023,45,-38,-49,-3786,-8869,8517,1086,782,709,1104,,,,1,1,0.4142269
0D00:01:33.558003000,18,1.328199,103.7865,100,41,256.3,116120,2,-1,15,-20,-10,49,-8,-1,0,79,-7,-65,1470,1.577,1023,48,-3,-41,-3056,-8517,9354,1148,910,728,1090,,,,1,1,0.8704831
0D00:01:33.757852000,18,1.328184,103.7864,101,40.2,256.8,116512,0,4,-15,-16,-11,45,-8,2,0,79,-1,-65,1473,1.569,1023,50,-6,-30,-2808,-8635,7727,1091,975,837,998,,,,1,1,0.8189531
0D00:01:33.937487000,4,1.329203,103.7876,89,36.88,267.6,116864,-4,0,-17,-12,-11,35,-6,1,0,91,-1,-63,1478,1.586,1023,63,-1,-28,-2685,-9368,7949,1061,1018,867,996,,,,1,1,0.5529331
0D00:01:34.047665000,19,1.328171,103.7863,102,39.27,258.4,117080,-1,-2,-10,-14,-10,30,17,0,0,95,-1,-76,1426,1.577,1023,63,2,-38,-2178,-9092,8150,892,859,807,961,,,,1,1,0.4410489
0D00:01:34.141629000,18,1.328171,103.7863,102,38.5,261.1,117264,-3,0,9,-16,-10,27,-3,-5,0,101,-1,-80,1403,1.586,1023,69,0,-47,-1701,-9360,8976,933,842,653,904,,,,1,1,0.368768
0D00:01:34.161963000,18,1.328162,103.7863,103,38.5,261.1,117304,0,-3,-12,-16,-11,26,0,6,0,101,-12,-82,1403,1.586,1023,65,-4,-41,-1966,-9017,8251,880,856,746,850,,,,1,1,0.07980214
0D00:01:34.349779000,18,1.328156,103.7862,104,37.98,263.4,117672,2,2,6,-14,-12,23,1,5,0,88,-38,-89,1393,1.595,1023,55,-27,-51,-2061,-8030,7229,898,778,707,868,,,,1,1,0.7271408
0D00:01:34.541488000,19,1.328156,103.7862,104,38.18,266,118048,8,3,-20,0,-5,12,3,4,0,142,5,-106,1375,1.604,1012,85,0,-52,-533,-7550,7364,734,762,826,782,,,,1,1,0.7461213
0D00:01:34.562146000,19,1.328153,103.7861,105,38.18,266,118088,7,0,-21,1,-5,10,-2,2,0,160,8,-106,1375,1.586,1012,101,5,-52,-418,-7588,7329,729,793,808,774,,,,1,1,0.08039984
0D00:01:34.761941000,19,1.328151,103.7861,107,38.84,268,118480,6,0,-28,14,-2,-2,-2,-3,0,224,31,-118,1340,1.604,1002,166,20,-57,307,-7779,7213,577,748,804,690,,,,1,1,0.7910334
0D00:01:34.941638000,6,1.329189,103.7872,92,40.6,268.5,118832,0,3,-50,11,6,-27,7,4,0,164,10,-105,1284,1.604,1002,111,3,-41,461,-6270,6576,396,692,851,425,,,,1,1,0.794059
0D00:01:35.051678000,20,1.328151,103.786,108,39.55,269.4,119048,-3,5,-44,8,10,-43,-8,-4,0,140,5,-92,1273,1.604,1023,97,-3,-35,456,-4950,6378,401,754,792,328,,,,1,1,0.4436373
0D00:01:35.162105000,6,1.329186,103.7871,94,40.39,268.9,119264,-4,-3,-14,3,11,-53,0,-4,0,138,0,-86,1282,1.604,1023,97,4,-42,527,-3772,6340,438,736,756,419,,,,1,1,0.8240836
0D00:01:35.362248000,20,1.328159,103.7858,112,39.33,272.4,119656,-3,-4,-17,4,6,-64,2,-5,0,138,-12,-93,1326,1.595,1023,96,-3,-45,191,-2822,8116,470,868,865,503,,,,1,1,0.8024082
0D00:01:35.562447000,20,1.328172,103.7858,114,37.51,278.1,120048,4,-8,-3,1,9,-69,-12,-10,0,120,-4,-96,1355,1.595,1023,74,6,-52,527,-2093,8698,561,939,869,572,,,,1,1,0.7654908
0D00:01:35.742058000,19,1.328172,103.7858,114,35.39,285.9,120400,18,-1,42,21,10,-65,16,1,0,101,-3,-65,1421,1.577,1023,47,0,-50,682,-2416,10239,710,767,1078,923,,,,1,1,0.6479545
0D00:01:35.750191000,6,1.329182,103.7869,96,40.02,268.9,120416,17,0,33,23,10,-64,-2,2,0,101,-3,-65,1421,1.577,1023,48,-1,-47,692,-2363,10277,738,824,1058,859,,,,1,1,0.8156655
0D00:01:36.044046000,19,1.328223,103.7857,118,31.31,297,120992,-10,1,26,25,-1,-19,-1,0,0,115,-1,-33,1496,1.56,1023,85,-2,-27,-93,-2047,13359,1002,977,1039,1070,,,,1,1,0.9378797
0D00:01:36.141751000,18,1.328223,103.7857,118,27,309.4,121184,0,0,27,21,-3,-11,4,3,0,115,-1,-20,1501,1.569,1023,75,0,-20,-31,-2032,13529,1007,938,1055,1129,,,,1,1,0.2689128
0D00:01:36.153963000,18,1.328254,103.7857,120,27,309.4,121208,-1,3,27,20,-3,-11,-2,3,0,115,-1,-20,1501,1.569,1023,77,-4,-20,-50,-2017,13592,1040,945,1042,1102,,,,1,1,0.03361101
0D00:01:36.354009000,16,1.329215,103.7862,35,20.68,42.1,121600,-2,-1,10,10,-3,-2,12,-2,0,82,-16,-8,1513,1.56,1023,55,-8,-8,-643,-2722,13439,1008,1012,1067,1140,,,,1,1,0.5934654
0D00:01:36.542031000,19,1.328282,103.7856,121,15.62,336.3,121968,-2,1,0,1,-1,0,2,1,0,40,-16,-23,1405,1.595,1023,28,-13,-13,-1554,-2775,9478,840,829,844,836,,,,1,1,0.2993786
0D00:01:36.554306000,19,1.328304,103.7856,123,15.62,336.3,121992,-3,0,7,0,-1,0,-3,-2,0,39,-16,-23,1405,1.595,1023,28,-10,-15,-1413,-2852,9043,860,839,799,851,,,,1,1,0.0195449
0D00:01:36.762208000,8,1.329189,103.7865,101,38.06,272.4,122400,-1,0,-3,-5,-1,4,-1,0,0,32,-16,-19,1349,1.595,1023,22,-11,-9,-1768,-3280,6305,744,744,698,708,,,,1,1,0.7750467
0D00:01:36.933599000,20,1.328318,103.7856,124,7.25,10.3,122736,-3,-3,0,-5,0,4,0,0,0,92,-4,-63,1326,1.613,1023,63,1,-34,-1000,-3542,5038,701,694,636,674,,,,1,1,0.1266651
0D00:01:37.043620000,20,1.32833,103.7856,124,7.25,10.3,122952,-4,-4,6,-8,-2,5,0,-1,0,124,-3,-83,1303,1.613,1023,86,2,-48,-1676,-4130,4785,666,649,553,651,,,,1,1,0.08131012
0D00:01:37.145702000,19,1.32833,103.7856,124,6.8,31.9,123152,-5,-5,6,-12,-8,9,-1,1,0,135,-1,-101,1287,1.613,1023,95,5,-59,-1373,-5158,4297,650,635,484,621,,,,1,1,0.0707602
0D00:01:37.153841000,19,1.328338,103.7856,125,6.8,31.9,123168,-3,-2,15,-12,-9,9,4,1,0,135,-1,-101,1287,1.613,1023,93,2,-62,-1304,-5145,4328,660,588,488,653,,,,1,1,0.005641713
0D00:01:37.353835000,19,1.328344,103.7857,125,9.78,66.6,123560,16,3,-10,0,-9,12,-12,5,0,191,-1,-139,1276,1.613,1023,120,-4,-77,-830,-5585,4503,569,561,577,593,,,,1,1,0.1993824
0D00:01:37.553772000,19,1.32835,103.7857,124,16.84,78.7,123952,9,2,-34,14,-1,5,0,2,0,197,-1,-146,1284,1.613,1023,134,-4,-74,117,-5431,5532,480,595,722,567,,,,1,1,0.343215
0D00:01:37.753562000,19,1.328354,103.7858,124,26.17,83.9,124344,1,5,-50,8,10,-29,2,7,0,190,-1,-151,1291,1.613,1023,135,-6,-72,603,-3966,7153,448,706,874,394,,,,1,1,0.532977
0D00:01:38.047607000,19,1.328358,103.7858,123,34.52,86.4,124920,2,-4,-2,-8,2,-51,1,-3,0,42,87,-93,1273,1.613,1023,25,61,-51,-168,-1764,6312,443,715,672,445,,,,1,1,1.034703
0D00:01:38.157707000,19,1.328362,103.7859,123,43.77,87.2,125136,0,1,-6,-8,0,-52,-10,0,0,28,90,-73,1270,1.613,1023,18,56,-38,-151,-1488,5943,471,740,656,384,,,,1,1,0.4912413
0D00:01:38.357911000,19,1.328366,103.786,122,51.14,87.4,125528,19,1,-29,3,14,-61,4,0,0,49,92,-19,1349,1.595,1023,12,58,0,137,-1566,7819,489,833,1030,541,,,,1,1,1.043673
0D00:01:38.558024000,19,1.32837,103.7861,122,55.95,87.6,125920,17,-11,45,18,0,-53,-6,-6,0,64,34,5,1455,1.586,1023,24,34,-13,-416,-2500,10131,813,927,985,1030,,,,1,1,1.141317
0D00:01:38.757955000,19,1.328375,103.7862,122,59.41,87.4,126312,-1,2,22,31,-7,-23,1,3,0,52,0,-1,1570,1.524,1023,34,-2,-8,-858,-2248,15379,1093,1109,1244,1244,,,,1,1,1.210795
0D00:01:39.047938000,19,1.328381,103.7863,121,61.56,87.3,126880,-11,2,26,10,-1,-6,-7,-4,0,48,0,25,1653,1.506,1023,43,-3,4,-2090,-2586,17710,1401,1322,1266,1376,,,,1,1,1.81971
0D00:01:39.157891000,19,1.328387,103.7864,121,63.16,86.9,127096,-1,3,14,2,-2,0,0,8,0,28,3,39,1655,1.515,1023,19,-2,16,-2001,-2456,17043,1399,1284,1336,1362,,,,1,1,0.7079135
0D00:01:39.349634000,18,1.328387,103.7864,121,64.15,86.6,127472,0,0,10,0,1,9,1,3,0,5,0,35,1683,1.498,1023,3,1,15,-2749,-2532,15882,1454,1339,1370,1445,,,,1,1,1.253855
0D00:01:39.357783000,16,1.329254,103.7872,44,38.31,82.6,127488,6,3,16,0,1,10,14,4,0,5,0,35,1683,1.498,1023,-4,-4,12,-2736,-2475,16054,1437,1266,1414,1492,,,,1,1,1.098735
0D00:01:39.558013000,18,1.328402,103.7867,121,64.6,86.4,127880,2,0,-6,5,2,12,1,0,0,-3,0,25,1773,1.444,1012,-5,-1,17,-3480,-1521,13371,1585,1542,1598,1615,,,,1,1,1.318538
0D00:01:39.749819000,19,1.328402,103.7867,121,65.02,86.2,128256,0,-2,-1,6,4,8,1,0,0,-4,0,7,1900,1.409,1012,-3,6,5,-3756,-879,12919,1843,1803,1850,1877,,,,1,1,1.271277
0D00:01:39.757939000,19,1.32841,103.7868,121,65.02,86.2,128272,0,-1,0,6,4,8,0,1,0,-4,0,7,1900,1.391,1012,-4,4,4,-3854,-841,13491,1853,1795,1853,1872,,,,1,1,0.0538188
0D00:01:40.047849000,19,1.32842,103.7869,119,64.73,85.2,128840,0,0,3,12,1,13,0,0,0,-4,0,0,2000,1.365,1023,2,2,-8,-3756,524,5272,1988,1900,1962,2045,,,,1,1,1.912933
0D00:01:40.170614000,20,1.328478,103.7853,46,12.21,130.5,129080,-1,0,0,9,2,21,0,0,0,-4,0,-1,2000,1.365,1023,9,1,-1,-3431,-252,6131,2021,1901,1948,2039,,,,1,1,0.325417
0D00:01:40.370743000,19,1.328445,103.7871,112,63.04,83.5,129472,1,0,0,14,1,14,0,0,0,-2,0,-3,2000,1.382,1023,-14,3,-3,-4555,956,3564,1964,1880,1971,2044,,,,1,1,1.286048
0D00:01:40.570801000,19,1.328459,103.7872,109,62.95,83,129864,1,1,1,23,1,19,-1,0,0,-2,4,-1,2000,1.373,1012,-9,-4,-5,-3787,1914,3850,1938,1812,1949,2037,,,,1,1,1.283756
0D00:01:40.770972000,19,1.328476,103.7874,105,63.66,82.6,130256,-2,0,0,19,1,21,0,0,0,0,4,-3,2000,1.382,1002,14,-2,-3,-3360,1463,2470,1965,1839,1943,2039,,,,1,1,1.298969
0D00:01:41.048849000,19,1.328501,103.7875,102,62.11,80.4,130800,2,1,1,19,1,25,1,0,0,0,1,-3,2000,1.382,1012,-15,-9,-4,-3248,-177,-1571,1933,1786,1915,2042,,,,1,1,1.759321
0D00:01:41.171248000,19,1.328536,103.7875,100,53.64,70.9,131040,2,0,0,15,-1,20,0,0,0,0,1,-3,2000,1.382,1012,-17,6,-3,-3817,-446,624,1949,1851,1930,2047,,,,1,1,0.6692643
0D00:01:41.371467000,19,1.328575,103.7876,97,44,61.9,131432,0,0,0,27,0,22,-2,0,0,4,0,-3,2000,1.382,1002,-3,0,0,-4086,1952,1076,1917,1804,1934,2046,,,,1,1,0.8980261
0D00:01:41.551126000,20,1.328575,103.7876,97,35.86,53.2,131784,0,2,0,20,-4,23,-1,1,0,18,-2,-3,2000,1.373,1002,11,-17,0,-3758,-1617,-2777,1949,1834,1926,2047,,,,1,1,0.6567351
0D00:01:41.571446000,20,1.328613,103.7876,95,35.86,53.2,131824,-1,1,1,19,-1,24,0,0,0,18,-3,-3,2000,1.382,1002,24,-15,-5,-4099,-1546,-4505,1961,1825,1916,2045,,,,1,1,0.07427882
0D00:01:41.771520000,20,1.328649,103.7877,93,29.64,45.5,132216,-2,0,0,11,0,22,0,0,0,18,-3,-3,2000,1.373,1002,31,-2,-2,-4504,-2875,-870,1999,1881,1926,2047,,,,1,1,0.6045049
0D00:01:41.951274000,19,1.328649,103.7877,93,24.32,37.9,132568,-10,0,-1,11,-1,19,1,0,0,76,-3,-29,1924,1.373,1023,79,-5,-14,-4651,-5339,-3393,1931,1839,1854,1944,,,,1,1,0.4456287
0D00:01:42.053656000,19,1.328683,103.7877,91,24.32,37.9,132768,0,0,1,-2,-6,22,4,5,0,89,-1,-51,1831,1.418,1012,57,-2,-29,-3869,-13024,2258,1758,1636,1646,1773,,,,1,1,0.2538155
0D00:01:42.143472000,20,1.328683,103.7877,91,20.04,24.1,132944,-5,1,4,-7,-7,25,-4,-1,0,92,-1,-48,1792,1.436,1012,68,-3,-29,-3685,-15806,-1010,1729,1610,1483,1673,,,,1,1,0.1834773
0D00:01:42.159776000,20,1.328714,103.7877,89,20.04,24.1,132976,-2,-4,0,-8,-7,25,1,-3,0,92,-1,-47,1770,1.444,1012,63,5,-25,-3571,-16466,-3842,1632,1581,1448,1654,,,,1,1,0.03330603
0D00:01:42.351688000,15,1.329258,103.7882,69,31.06,135.8,133352,-2,0,-15,-21,-12,22,0,-2,0,196,-1,-23,1569,1.515,1023,145,-1,-7,-2826,-22478,-2099,1212,1250,1055,1166,,,,1,1,0.8533711
0D00:01:42.363912000,19,1.328742,103.7877,88,16.02,1.3,133376,-19,-4,-5,-23,-12,21,-6,-2,0,197,-1,-23,1567,1.506,1023,163,4,-11,-2702,-22584,-1788,1285,1303,947,1131,,,,1,1,0.01996213
0D00:01:42.564149000,19,1.328765,103.7877,87,15.06,336,133768,-1,-4,-14,-64,-29,18,12,2,0,193,-1,0,1564,1.498,1023,140,4,5,-1014,-27585,6293,1225,1370,930,1115,,,,1,1,0.3073975
0D00:01:42.752027000,18,1.328765,103.7877,87,16.55,315.4,134136,13,2,17,-18,-24,15,-12,17,0,174,-1,-1,1576,1.471,1023,108,-3,-7,-2232,-24020,9500,1300,1155,1046,1238,,,,1,1,0.3169603
0D00:01:42.764466000,18,1.328785,103.7877,87,16.55,315.4,134160,9,4,-24,-16,-23,16,16,-8,0,174,-1,-1,1576,1.489,1012,111,-5,8,-2091,-24004,9212,1065,1253,1162,1259,,,,1,1,0.02098527
0D00:01:43.054414000,18,1.328801,103.7876,87,19.15,299.7,134728,-4,-1,25,12,-30,41,-1,-3,0,157,-1,-4,1570,1.48,1002,111,1,-11,-1823,-19102,10976,1237,1074,927,1452,,,,1,1,0.5660045
0D00:01:43.152505000,19,1.328801,103.7876,87,22.19,291.5,134920,4,-1,26,15,-33,54,3,-9,0,149,-1,-4,1569,1.471,1002,96,1,-11,-1566,-17770,9906,1202,1019,909,1552,,,,1,1,0.2218796
0D00:01:43.164721000,19,1.328814,103.7876,87,22.19,291.5,134944,9,4,40,17,-33,55,14,13,0,149,-1,-4,1569,1.489,1002,90,-5,-16,-1783,-17793,9437,1272,858,988,1564,,,,1,1,0.02763232
0D00:01:43.364821000,19,1.328826,103.7875,87,25.48,285.2,135336,-2,1,12,23,-34,73,1,-2,0,114,-1,-3,1597,1.471,1002,76,-2,-6,-1559,-15299,13661,1300,1038,980,1591,,,,1,1,0.5197297
0D00:01:43.565141000,19,1.328834,103.7875,87,28.16,280.8,135728,-5,-1,32,25,-34,86,-1,-6,0,96,-7,-3,1603,1.453,1023,68,-3,-13,-1732,-13303,11924,1387,999,879,1694,,,,1,1,0.5750266
0D00:01:43.765087000,19,1.328841,103.7874,88,30.04,278,136120,-5,8,-12,22,-29,88,-30,-5,0,57,-1,-1,1601,1.48,1023,42,-9,4,-2419,-11730,10241,1394,1143,946,1458,,,,1,1,0.6122709
0D00:01:44.055459000,19,1.328845,103.7874,88,31.25,275.3,136688,-3,1,-21,-9,-14,60,1,-3,0,34,-5,-1,1552,1.506,1023,25,-5,7,-3646,-9571,11246,1225,1103,970,1244,,,,1,1,0.9249873
0D00:01:44.165580000,19,1.328847,103.7873,89,31.34,273,136904,-3,5,-17,-14,-12,54,-2,11,0,33,-25,-1,1512,1.515,1023,25,-21,6,-3174,-8943,8223,1208,1004,923,1082,,,,1,1,0.3518035
0D00:01:44.365972000,19,1.328848,103.7873,89,31.08,270.9,137296,-10,-2,7,-27,-10,49,-2,-3,0,1,-92,-19,1392,1.542,1023,12,-57,-13,-3558,-7722,6301,1013,808,529,892,,,,1,1,0.6348811
0D00:01:44.566157000,19,1.328847,103.7872,89,30.75,269.5,137688,-22,-22,53,-59,-30,73,-4,-2,0,0,-68,-29,1305,1.551,1023,23,-21,-34,-4990,-6463,3441,1033,682,115,881,,,,1,1,0.6274912
0D00:01:44.766296000,8,1.328856,103.7859,89,35.69,86.4,138080,-1,1,13,-76,-51,103,-6,2,0,-3,-47,-23,1307,1.542,1023,-1,-31,-17,-4734,-5732,3793,1015,676,115,837,,,,1,1,0.6837382
0D00:01:45.056151000,19,1.328846,103.7871,88,33.92,269.5,138648,17,12,-28,-44,-18,104,12,-1,0,-22,-12,17,1321,1.56,1023,-32,-21,19,-5539,-3304,3253,871,534,426,835,,,,1,1,1.002231
0D00:01:45.174451000,19,1.328847,103.787,88,39.33,270.6,138880,16,7,-49,-21,-4,86,0,3,0,-25,-7,16,1326,1.569,1023,-32,-12,26,-4717,-2173,3107,794,587,589,736,,,,1,1,0.4742853
0D00:01:45.366227000,19,1.32885,103.7869,89,44.83,271.2,139256,-2,-1,-31,-11,-2,53,-3,0,0,-3,-1,0,1309,1.577,1023,0,1,11,-4865,-804,2710,725,639,539,665,,,,1,1,0.8763831
0D00:01:45.566439000,19,1.328852,103.7868,89,51.53,271.7,139648,-5,0,-7,-16,-3,41,0,1,0,2,9,-3,1303,1.577,1023,8,5,1,-4530,-1640,2591,767,605,490,657,,,,1,1,1.051674
0D00:01:45.758320000,18,1.328852,103.7868,89,56.98,270.4,140024,-1,1,3,-13,-2,35,-1,3,0,8,15,-12,1303,1.577,1023,7,8,-8,-4293,-1185,2057,767,572,505,674,,,,1,1,1.114514
0D00:01:45.766446000,18,1.328852,103.7867,90,56.98,270.4,140040,0,0,-9,-13,-2,34,1,-1,0,8,15,-12,1303,1.586,1023,6,10,-3,-3915,-977,1842,712,610,532,666,,,,1,1,0.04719872
0D00:01:46.056321000,18,1.32885,103.7866,91,60.16,269.4,140608,0,1,-1,-13,-2,33,0,-3,0,19,16,-19,1294,1.586,1023,12,9,-10,-4105,-565,1663,710,575,496,664,,,,1,1,1.777664
0D00:01:46.158192000,17,1.32885,103.7866,91,62.19,268.3,140808,2,0,-3,-11,0,31,-5,0,0,22,22,-22,1264,1.586,1023,12,13,-11,-3477,-1041,1486,653,515,453,581,,,,1,1,0.6458061
0D00:01:46.166319000,17,1.328845,103.7865,92,62.19,268.3,140824,0,0,-2,-11,0,31,0,-1,0,22,22,-22,1264,1.586,1023,13,14,-11,-3436,-1027,1393,638,511,454,598,,,,1,1,0.05152071
0D00:01:46.366348000,16,1.328771,103.7866,82,67.61,263.1,141216,-3,-3,13,-18,-2,33,1,-2,0,22,25,-19,1221,1.586,1023,17,19,-15,-3105,-1736,367,601,421,286,544,,,,1,1,1.94009
0D00:01:46.558559000,16,1.328841,103.7864,94,64.55,267.3,141592,-15,-16,27,-34,-19,41,0,-6,0,22,38,-22,1131,1.595,1023,30,41,-22,-2377,-2228,-402,573,451,115,536,,,,1,1,1.264752
0D00:01:46.566687000,16,1.328835,103.7863,95,64.55,267.3,141608,-17,-15,18,-36,-20,41,1,-4,0,22,38,-22,1131,1.595,1023,32,40,-18,-2321,-2255,-348,548,456,115,494,,,,1,1,0.05348241
0D00:01:46.770553000,16,1.32883,103.7861,96,65.42,267.1,142008,0,-1,19,-49,-34,57,-1,-1,0,22,41,-12,1077,1.595,1023,15,27,-13,-2010,-2603,447,625,441,115,560,,,,1,1,1.359522
0D00:01:47.060318000,16,1.328825,103.786,96,65.8,267.4,142576,0,-1,5,-48,-35,65,0,0,0,32,0,-1,1110,1.595,1023,21,1,-3,-2131,-3069,679,582,421,115,529,,,,1,1,1.943582
0D00:01:47.158097000,17,1.328825,103.786,96,66.23,267.7,142768,-2,-1,14,-50,-34,66,-2,-3,0,32,0,0,1114,1.595,1023,24,2,-5,-1890,-2784,714,653,463,115,584,,,,1,1,0.6601328
0D00:01:47.170332000,17,1.328817,103.7859,95,66.23,267.7,142792,0,0,9,-50,-34,66,2,1,0,32,0,0,1114,1.595,1023,21,0,-3,-1910,-2830,710,615,414,115,546,,,,1,1,0.08260184
0D00:01:47.370455000,17,1.328802,103.7858,94,64.02,265.3,143184,-2,-1,8,-51,-33,70,-3,-5,0,57,-34,0,1142,1.604,1023,39,-21,-3,-2151,-3042,1282,657,476,115,571,,,,1,1,1.306001
0D00:01:47.558202000,18,1.328802,103.7858,94,56.31,258.1,143552,1,0,48,-53,-34,81,-13,6,0,21,-31,10,1147,1.595,1023,12,-19,-11,-2731,-3331,2347,948,482,115,776,,,,1,1,1.077679
0D00:01:47.570421000,18,1.328776,103.7857,92,56.31,258.1,143576,-5,2,7,-53,-34,81,-13,1,0,9,-30,10,1147,1.577,1023,12,-22,3,-2521,-3378,2409,792,517,115,593,,,,1,1,0.07013781
0D00:01:47.762050000,19,1.328776,103.7857,92,48.62,248.6,143952,-1,5,-1,-49,-25,87,-8,7,0,-6,-16,12,1147,1.595,1023,-3,-17,7,-3659,-2963,2302,754,418,115,540,,,,1,1,0.9497454
0D00:01:47.770211000,19,1.328742,103.7856,90,48.62,248.6,143968,-3,3,-5,-49,-25,87,-6,0,0,-9,-16,12,1147,1.595,1023,-2,-14,9,-3539,-2952,2278,713,440,115,544,,,,1,1,0.04044728
0D00:01:48.060276000,19,1.328706,103.7856,88,41.38,242.2,144536,3,0,-2,-41,-17,82,1,3,0,-11,-1,8,1150,1.595,1023,-11,0,5,-2944,-1717,1277,619,320,115,522,,,,1,1,1.223536
0D00:01:48.170068000,19,1.328667,103.7855,85,35.82,233.9,144752,3,0,-17,-37,-17,78,-2,-1,0,-5,-1,7,1150,1.604,1023,-7,-1,10,-2719,-1294,1139,523,328,115,442,,,,1,1,0.4008919
0D00:01:48.370057000,19,1.328629,103.7855,83,31.29,227.2,145144,8,6,-21,-27,-11,66,-2,-3,0,-4,-1,3,1154,1.604,1023,-11,-8,9,-2950,-1139,664,462,289,157,400,,,,1,1,0.6378854
0D00:01:48.561971000,18,1.328629,103.7855,83,27.08,220.6,145520,1,0,-39,-11,-4,50,-2,0,0,-3,-1,1,1161,1.604,1023,-3,0,14,-3137,-738,817,385,357,274,348,,,,1,1,0.5297687
0D00:01:48.570122000,18,1.328593,103.7855,80,27.08,220.6,145536,1,0,-30,-11,-4,49,5,-2,0,-3,-1,1,1161,1.604,1023,-3,0,11,-3093,-688,816,379,327,269,390,,,,1,1,0.02250042
0D00:01:48.782175000,7,1.328857,103.7879,86,43.13,124.8,145952,5,2,-31,0,-2,28,-2,-4,0,7,-1,-1,1205,1.604,1023,-1,-3,10,-3200,-371,1353,407,438,438,439,,,,1,1,0.08937714
0D00:01:49.064149000,18,1.328526,103.7854,75,21.11,209.6,146504,0,3,-16,6,-2,0,1,3,0,18,-1,-1,1303,1.586,1023,12,-4,5,-3864,-922,4083,585,639,692,603,,,,1,1,0.6067759
0D00:01:49.162019000,19,1.328526,103.7854,75,18.9,203.6,146696,0,0,-9,5,0,-4,0,-2,0,18,-1,-1,1380,1.586,1023,12,-2,3,-4079,-1067,5782,741,808,826,769,,,,1,1,0.1885569
0D00:01:49.174206000,19,1.328496,103.7854,72,18.9,203.6,146720,0,0,-12,5,0,-4,0,-1,0,18,-2,-1,1380,1.586,1023,12,-2,4,-4215,-990,6076,735,816,834,760,,,,1,1,0.02347954
0D00:01:49.374295000,19,1.328468,103.7854,69,16.85,196.5,147112,3,4,-5,0,3,-2,1,9,0,12,-30,-1,1560,1.533,1023,4,-23,1,-5996,-661,11979,1165,1120,1218,1106,,,,1,1,0.3436799
0D00:01:49.574504000,19,1.328441,103.7854,66,15.33,188.6,147504,-3,-4,8,-2,2,1,0,-2,0,16,-6,-23,1291,1.595,1023,14,0,-15,-4449,-546,4312,632,608,558,624,,,,1,1,0.3128648
0D00:01:49.774357000,19,1.328416,103.7854,63,14.13,179.1,147896,-1,0,11,-11,0,11,0,0,0,19,-3,-19,1282,1.595,1023,14,-2,-14,-3637,-1006,2531,666,567,501,614,,,,1,1,0.2878617
0D00:01:50.064171000,19,1.328393,103.7854,60,13.5,168.6,148464,-1,0,13,-13,0,20,0,3,0,22,-1,-8,1234,1.595,1023,16,-1,-9,-3583,-1631,1595,611,437,386,524,,,,1,1,0.3988266
0D00:01:50.182379000,7,1.328471,103.7879,77,30.9,211,148696,1,0,-3,-13,0,22,0,-4,0,34,-1,-8,1228,1.595,1023,20,-2,-3,-3431,-1809,1484,541,469,398,501,,,,1,1,0.629582
