timens,GPSnumSat,GPScoord0,GPScoord1,GPSaltitude,GPSspeedms,GPSgroundcourse,loopIteration,axisP0,axisP1,axisP2,axisI0,axisI1,axisI2,axisD0,axisD1,axisF0,axisF1,axisF2,rcCommand0,rcCommand1,rcCommand2,rcCommand3,setpoint0,setpoint1,setpoint2,setpoint3,vbatLatestV,amperageLatestA,BaroAltcm,rssi,gyroADC0,gyroADC1,gyroADC2,accSmooth0,accSmooth1,accSmooth2,motor0,motor1,motor2,motor3,energyCumulativemAh,flightModeFlagsflags,stateFlagsflags,failsafePhaseflags,rxSignalReceived,rxFlightChannelsValid
0D00:00:00.000721000,19,1.329412,103.7863,228,0.01,131.5,,,,,,,,,,,,,,,,,,,,,,,,,,,,,,,,,,,,,,,,
0D00:00:00.222429000,19,1.329412,103.7863,227,0.01,131.5,,,,,,,,,,,,,,,,,,,,,,,,,,,,,,,,,,,,,,,,
0D00:00:00.311707000,19,1.329412,103.7863,227,0.03,131.5,,,,,,,,,,,,,,,,,,,,,,,,,,,,,,,,,,,,,,,,
0D00:00:00.512888000,19,1.329412,103.7863,227,0.09,131.5,,,,,,,,,,,,,,,,,,,,,,,,,,,,,,,,,,,,,,,,
0D00:00:00.713331000,19,1.329413,103.7863,226,0.06,131.5,,,,,,,,,,,,,,,,,,,,,,,,,,,,,,,,,,,,,,,,
0D00:00:00.913437000,19,1.329413,103.7863,226,0.04,131.5,,,,,,,,,,,,,,,,,,,,,,,,,,,,,,,,,,,,,,,,
0D00:00:01.223817000,19,1.329413,103.7863,226,0.06,131.5,,,,,,,,,,,,,,,,,,,,,,,,,,,,,,,,,,,,,,,,
0D00:00:01.313741000,19,1.329413,103.7863,226,0.05,131.5,,,,,,,,,,,,,,,,,,,,,,,,,,,,,,,,,,,,,,,,
0D00:00:01.514244000,19,1.329413,103.7863,226,0.06,131.5,,,,,,,,,,,,,,,,,,,,,,,,,,,,,,,,,,,,,,,,
0D00:00:01.714708000,19,1.329413,103.7863,225,0.05,131.5,,,,,,,,,,,,,,,,,,,,,,,,,,,,,,,,,,,,,,,,
0D00:00:01.914381000,19,1.329413,103.7863,225,0.03,131.5,,,,,,,,,,,,,,,,,,,,,,,,,,,,,,,,,,,,,,,,
0D00:00:02.224995000,19,1.329414,103.7863,225,0.09,131.5,,,,,,,,,,,,,,,,,,,,,,,,,,,,,,,,,,,,,,,,
0D00:00:02.314761000,19,1.329414,103.7863,225,0.05,131.5,,,,,,,,,,,,,,,,,,,,,,,,,,,,,,,,,,,,,,,,
0D00:00:02.515290000,19,1.329414,103.7863,224,0.06,131.5,,,,,,,,,,,,,,,,,,,,,,,,,,,,,,,,,,,,,,,,
0D00:00:02.715070000,19,1.329414,103.7863,223,0.03,131.5,,,,,,,,,,,,,,,,,,,,,,,,,,,,,,,,,,,,,,,,
0D00:00:02.915394000,19,1.329413,103.7863,225,0.05,131.5,,,,,,,,,,,,,,,,,,,,,,,,,,,,,,,,,,,,,,,,
0D00:00:03.215824000,19,1.329412,103.7863,229,0.43,131.5,,,,,,,,,,,,,,,,,,,,,,,,,,,,,,,,,,,,,,,,
0D00:00:03.315729000,19,1.329411,103.7862,232,0.84,201.9,,,,,,,,,,,,,,,,,,,,,,,,,,,,,,,,,,,,,,,,
0D00:00:03.515983000,19,1.329408,103.7862,239,1.13,186.6,,,,,,,,,,,,,,,,,,,,,,,,,,,,,,,,,,,,,,,,
0D00:00:03.696365000,18,1.329408,103.7862,239,2.12,193.9,,,,,,,,,,,,,,,,,,,,,,,,,,,,,,,,,,,,,,,,
0D00:00:03.716372000,18,1.329404,103.7862,248,2.12,193.9,,,,,,,,,,,,,,,,,,,,,,,,,,,,,,,,,,,,,,,,
0D00:00:03.896745000,19,1.329404,103.7862,248,1.62,193.8,,,,,,,,,,,,,,,,,,,,,,,,,,,,,,,,,,,,,,,,
0D00:00:03.916779000,19,1.329401,103.7862,257,1.62,193.8,,,,,,,,,,,,,,,,,,,,,,,,,,,,,,,,,,,,,,,,
0D00:00:04.216910000,19,1.329398,103.7862,267,1.8,194.5,,,,,,,,,,,,,,,,,,,,,,,,,,,,,,,,,,,,,,,,
0D00:00:04.316811000,19,1.329396,103.7862,272,1.28,190,,,,,,,,,,,,,,,,,,,,,,,,,,,,,,,,,,,,,,,,
0D00:00:04.517568000,19,1.329394,103.7862,273,1.36,197.7,,,,,,,,,,,,,,,,,,,,,,,,,,,,,,,,,,,,,,,,
0D00:00:04.717827000,19,1.329392,103.7862,269,1.28,191.4,,,,,,,,,,,,,,,,,,,,,,,,,,,,,,,,,,,,,,,,
0D00:00:04.917719000,19,1.329389,103.7862,263,1.15,186.7,,,,,,,,,,,,,,,,,,,,,,,,,,,,,,,,,,,,,,,,
0D00:00:05.218252000,19,1.329387,103.7862,255,1.25,185.4,,,,,,,,,,,,,,,,,,,,,,,,,,,,,,,,,,,,,,,,
0D00:00:05.318317000,19,1.329386,103.7862,248,1.19,188.7,,,,,,,,,,,,,,,,,,,,,,,,,,,,,,,,,,,,,,,,
0D00:00:05.518637000,19,1.329385,103.7862,242,0.69,198.2,,,,,,,,,,,,,,,,,,,,,,,,,,,,,,,,,,,,,,,,
0D00:00:05.718889000,19,1.329384,103.7862,239,0.88,226.4,,,,,,,,,,,,,,,,,,,,,,,,,,,,,,,,,,,,,,,,
0D00:00:05.909251000,19,1.329385,103.7862,236,0.93,254.1,,,,,,,,,,,,,,,,,,,,,,,,,,,,,,,,,,,,,,,,
0D00:00:06.219207000,19,1.329385,103.7862,234,0.77,268.6,,,,,,,,,,,,,,,,,,,,,,,,,,,,,,,,,,,,,,,,
0D00:00:06.319387000,19,1.329386,103.7862,232,0.84,294.1,,,,,,,,,,,,,,,,,,,,,,,,,,,,,,,,,,,,,,,,
0D00:00:06.519819000,19,1.329388,103.7862,232,1.17,306.1,,,,,,,,,,,,,,,,,,,,,,,,,,,,,,,,,,,,,,,,
0D00:00:06.719423000,19,1.32939,103.7862,230,1.25,321.5,,,,,,,,,,,,,,,,,,,,,,,,,,,,,,,,,,,,,,,,
0D00:00:06.919555000,19,1.329392,103.7862,229,1.56,335.8,,,,,,,,,,,,,,,,,,,,,,,,,,,,,,,,,,,,,,,,
0D00:00:07.220390000,19,1.329395,103.7862,229,1.08,347.2,,,,,,,,,,,,,,,,,,,,,,,,,,,,,,,,,,,,,,,,
0D00:00:07.320348000,19,1.329397,103.7862,227,1.39,8.7,,,,,,,,,,,,,,,,,,,,,,,,,,,,,,,,,,,,,,,,
0D00:00:07.520808000,19,1.3294,103.7862,227,1.71,20.7,,,,,,,,,,,,,,,,,,,,,,,,,,,,,,,,,,,,,,,,
0D00:00:07.720944000,19,1.329404,103.7862,227,1.97,23.8,,,,,,,,,,,,,,,,,,,,,,,,,,,,,,,,,,,,,,,,
0D00:00:07.921126000,19,1.329408,103.7862,226,2.41,26.4,,,,,,,,,,,,,,,,,,,,,,,,,,,,,,,,,,,,,,,,
0D00:00:08.221524000,19,1.329411,103.7862,223,2.31,26.8,,,,,,,,,,,,,,,,,,,,,,,,,,,,,,,,,,,,,,,,
0D00:00:08.321500000,19,1.329414,103.7862,221,2.26,25.8,,,,,,,,,,,,,,,,,,,,,,,,,,,,,,,,,,,,,,,,
0D00:00:08.511764000,19,1.329417,103.7862,220,1.68,22.2,,,,,,,,,,,,,,,,,,,,,,,,,,,,,,,,,,,,,,,,
0D00:00:08.721931000,19,1.329419,103.7862,218,1.51,9.1,,,,,,,,,,,,,,,,,,,,,,,,,,,,,,,,,,,,,,,,
0D00:00:08.922211000,19,1.329421,103.7862,216,1.25,343.2,,,,,,,,,,,,,,,,,,,,,,,,,,,,,,,,,,,,,,,,
0D00:00:09.222415000,19,1.329421,103.7862,217,0.89,330.6,,,,,,,,,,,,,,,,,,,,,,,,,,,,,,,,,,,,,,,,
0D00:00:09.322156000,19,1.329422,103.7862,219,1.08,306.4,,,,,,,,,,,,,,,,,,,,,,,,,,,,,,,,,,,,,,,,
0D00:00:09.512876000,19,1.329422,103.7862,220,0.66,303.7,,,,,,,,,,,,,,,,,,,,,,,,,,,,,,,,,,,,,,,,
0D00:00:09.712710000,19,1.329423,103.7862,221,0.36,297,,,,,,,,,,,,,,,,,,,,,,,,,,,,,,,,,,,,,,,,
0D00:00:09.913256000,19,1.329424,103.7862,222,0.94,316.4,,,,,,,,,,,,,,,,,,,,,,,,,,,,,,,,,,,,,,,,
0D00:00:10.223741000,19,1.329424,103.7862,223,0.48,317.3,,,,,,,,,,,,,,,,,,,,,,,,,,,,,,,,,,,,,,,,
0D00:00:10.313881000,19,1.329425,103.7862,222,0.39,317.3,,,,,,,,,,,,,,,,,,,,,,,,,,,,,,,,,,,,,,,,
0D00:00:10.513997000,19,1.329425,103.7862,221,0.09,317.3,,,,,,,,,,,,,,,,,,,,,,,,,,,,,,,,,,,,,,,,
0D00:00:10.714107000,19,1.329425,103.7862,222,0.45,5.4,,,,,,,,,,,,,,,,,,,,,,,,,,,,,,,,,,,,,,,,
0D00:00:10.914039000,19,1.329425,103.7862,221,0.13,5.4,,,,,,,,,,,,,,,,,,,,,,,,,,,,,,,,,,,,,,,,
0D00:00:11.084351000,8,1.329425,103.7862,221,0.05,5.4,,,,,,,,,,,,,,,,,,,,,,,,,,,,,,,,,,,,,,,,
0D00:00:11.204647000,8,1.329425,103.7862,220,0.05,5.4,,,,,,,,,,,,,,,,,,,,,,,,,,,,,,,,,,,,,,,,
0D00:00:11.305023000,8,1.329423,103.7862,220,1.28,110.4,,,,,,,,,,,,,,,,,,,,,,,,,,,,,,,,,,,,,,,,
0D00:00:11.504817000,8,1.329421,103.7862,221,1.28,122.1,,,,,,,,,,,,,,,,,,,,,,,,,,,,,,,,,,,,,,,,
0D00:00:11.705179000,8,1.32942,103.7862,222,1.19,136.2,,,,,,,,,,,,,,,,,,,,,,,,,,,,,,,,,,,,,,,,
0D00:00:11.905224000,8,1.329419,103.7862,221,0.69,138,,,,,,,,,,,,,,,,,,,,,,,,,,,,,,,,,,,,,,,,
0D00:00:12.205449000,8,1.329417,103.7862,222,0.63,138,,,,,,,,,,,,,,,,,,,,,,,,,,,,,,,,,,,,,,,,
0D00:00:12.305588000,8,1.329416,103.7862,222,0.77,137.2,,,,,,,,,,,,,,,,,,,,,,,,,,,,,,,,,,,,,,,,
0D00:00:12.505579000,8,1.329416,103.7862,222,0.85,131.4,,,,,,,,,,,,,,,,,,,,,,,,,,,,,,,,,,,,,,,,
0D00:00:12.705832000,8,1.329415,103.7862,222,0.47,131.4,,,,,,,,,,,,,,,,,,,,,,,,,,,,,,,,,,,,,,,,
0D00:00:12.905970000,8,1.329415,103.7862,223,0.38,131.4,,,,,,,,,,,,,,,,,,,,,,,,,,,,,,,,,,,,,,,,
0D00:00:13.206599000,8,1.329414,103.7862,222,0.38,131.4,,,,,,,,,,,,,,,,,,,,,,,,,,,,,,,,,,,,,,,,
0D00:00:13.306516000,8,1.329414,103.7862,222,0.13,131.4,,,,,,,,,,,,,,,,,,,,,,,,,,,,,,,,,,,,,,,,
0D00:00:13.506778000,8,1.329414,103.7862,223,0.09,131.4,,,,,,,,,,,,,,,,,,,,,,,,,,,,,,,,,,,,,,,,
0D00:00:13.697116000,8,1.329413,103.7862,223,0.22,131.4,,,,,,,,,,,,,,,,,,,,,,,,,,,,,,,,,,,,,,,,
0D00:00:13.907141000,8,1.329413,103.7862,223,0.32,128.3,,,,,,,,,,,,,,,,,,,,,,,,,,,,,,,,,,,,,,,,
0D00:00:14.207429000,8,1.329413,103.7862,223,0.19,128.3,,,,,,,,,,,,,,,,,,,,,,,,,,,,,,,,,,,,,,,,
0D00:00:14.297946000,8,1.329413,103.7862,222,0.1,128.3,,,,,,,,,,,,,,,,,,,,,,,,,,,,,,,,,,,,,,,,
0D00:00:14.508396000,8,1.329412,103.7862,221,0.21,128.3,,,,,,,,,,,,,,,,,,,,,,,,,,,,,,,,,,,,,,,,
0D00:00:14.709025000,8,1.329412,103.7862,220,0.45,106.3,,,,,,,,,,,,,,,,,,,,,,,,,,,,,,,,,,,,,,,,
0D00:00:14.908945000,8,1.329412,103.7862,219,0.14,106.3,,,,,,,,,,,,,,,,,,,,,,,,,,,,,,,,,,,,,,,,
0D00:00:15.218731000,8,1.329412,103.7862,218,0.42,106.3,,,,,,,,,,,,,,,,,,,,,,,,,,,,,,,,,,,,,,,,
0D00:00:15.309014000,8,1.329412,103.7862,218,0.23,106.3,,,,,,,,,,,,,,,,,,,,,,,,,,,,,,,,,,,,,,,,
0D00:00:15.508988000,8,1.329412,103.7862,218,0.25,106.3,,,,,,,,,,,,,,,,,,,,,,,,,,,,,,,,,,,,,,,,
0D00:00:42.755332000,8,1.329401,103.7863,151,0.09,131.7,30418,105,-168,-72,22,-44,1,6,78,0,0,0,0,-5,-3,1000,0,-3,-1,150,17.702,44.25,-131,1023,-118,184,24,270,375,7439,107,371,368,1219,44,,,,1,1
0D00:00:42.755332000,8,1.329401,103.7863,152,0.09,131.7,30418,105,-168,-72,22,-44,1,6,78,0,0,0,0,-5,-3,1000,0,-3,-1,150,17.702,44.25,-131,1023,-118,184,24,270,375,7439,107,371,368,1219,44,,,,1,1
0D00:00:42.755332000,8,1.329401,103.7863,153,0.12,131.7,30418,105,-168,-72,22,-44,1,6,78,0,0,0,0,-5,-3,1000,0,-3,-1,150,17.702,44.25,-131,1023,-118,184,24,270,375,7439,107,371,368,1219,44,,,,1,1
0D00:00:42.755332000,8,1.329401,103.7863,154,0.12,131.7,30418,105,-168,-72,22,-44,1,6,78,0,0,0,0,-5,-3,1000,0,-3,-1,150,17.702,44.25,-131,1023,-118,184,24,270,375,7439,107,371,368,1219,44,,,,1,1
0D00:00:42.755332000,8,1.329401,103.7863,156,0.07,131.7,30418,105,-168,-72,22,-44,1,6,78,0,0,0,0,-5,-3,1000,0,-3,-1,150,17.702,44.25,-131,1023,-118,184,24,270,375,7439,107,371,368,1219,44,,,,1,1
0D00:00:42.755332000,8,1.329401,103.7863,157,0.13,131.7,30418,105,-168,-72,22,-44,1,6,78,0,0,0,0,-5,-3,1000,0,-3,-1,150,17.702,44.25,-131,1023,-118,184,24,270,375,7439,107,371,368,1219,44,,,,1,1
0D00:00:42.755332000,8,1.329401,103.7863,158,0.13,131.7,30418,105,-168,-72,22,-44,1,6,78,0,0,0,0,-5,-3,1000,0,-3,-1,150,17.702,44.25,-131,1023,-118,184,24,270,375,7439,107,371,368,1219,44,,,,1,1
0D00:00:42.755332000,8,1.329402,103.7863,160,0.1,131.7,30418,105,-168,-72,22,-44,1,6,78,0,0,0,0,-5,-3,1000,0,-3,-1,150,17.702,44.25,-131,1023,-118,184,24,270,375,7439,107,371,368,1219,44,,,,1,1
0D00:00:42.755332000,8,1.329402,103.7863,161,0.06,131.7,30418,105,-168,-72,22,-44,1,6,78,0,0,0,0,-5,-3,1000,0,-3,-1,150,17.702,44.25,-131,1023,-118,184,24,270,375,7439,107,371,368,1219,44,,,,1,1
0D00:00:42.755332000,8,1.329402,103.7863,163,0.14,131.7,30418,105,-168,-72,22,-44,1,6,78,0,0,0,0,-5,-3,1000,0,-3,-1,150,17.702,44.25,-131,1023,-118,184,24,270,375,7439,107,371,368,1219,44,,,,1,1
0D00:00:42.755332000,8,1.329402,103.7863,164,0.2,131.7,30418,105,-168,-72,22,-44,1,6,78,0,0,0,0,-5,-3,1000,0,-3,-1,150,17.702,44.25,-131,1023,-118,184,24,270,375,7439,107,371,368,1219,44,,,,1,1
0D00:00:42.755332000,8,1.329402,103.7863,165,0.06,131.7,30418,105,-168,-72,22,-44,1,6,78,0,0,0,0,-5,-3,1000,0,-3,-1,150,17.702,44.25,-131,1023,-118,184,24,270,375,7439,107,371,368,1219,44,,,,1,1
0D00:00:42.755332000,8,1.329403,103.7863,166,0.03,131.7,30418,105,-168,-72,22,-44,1,6,78,0,0,0,0,-5,-3,1000,0,-3,-1,150,17.702,44.25,-131,1023,-118,184,24,270,375,7439,107,371,368,1219,44,,,,1,1
0D00:00:42.755332000,8,1.329403,103.7863,167,0.14,131.7,30418,105,-168,-72,22,-44,1,6,78,0,0,0,0,-5,-3,1000,0,-3,-1,150,17.702,44.25,-131,1023,-118,184,24,270,375,7439,107,371,368,1219,44,,,,1,1
0D00:00:42.755332000,8,1.329403,103.7863,168,0.1,131.7,30418,105,-168,-72,22,-44,1,6,78,0,0,0,0,-5,-3,1000,0,-3,-1,150,17.702,44.25,-131,1023,-118,184,24,270,375,7439,107,371,368,1219,44,,,,1,1
0D00:00:42.755332000,8,1.329403,103.7863,170,0.11,131.7,30418,105,-168,-72,22,-44,1,6,78,0,0,0,0,-5,-3,1000,0,-3,-1,150,17.702,44.25,-131,1023,-118,184,24,270,375,7439,107,371,368,1219,44,,,,1,1
0D00:00:42.755332000,8,1.329403,103.7863,171,0.04,131.7,30418,105,-168,-72,22,-44,1,6,78,0,0,0,0,-5,-3,1000,0,-3,-1,150,17.702,44.25,-131,1023,-118,184,24,270,375,7439,107,371,368,1219,44,,,,1,1
0D00:00:42.755332000,8,1.329403,103.7862,172,0.06,131.7,30418,105,-168,-72,22,-44,1,6,78,0,0,0,0,-5,-3,1000,0,-3,-1,150,17.702,44.25,-131,1023,-118,184,24,270,375,7439,107,371,368,1219,44,,,,1,1
0D00:00:42.755332000,8,1.329403,103.7862,174,0.05,131.7,30418,105,-168,-72,22,-44,1,6,78,0,0,0,0,-5,-3,1000,0,-3,-1,150,17.702,44.25,-131,1023,-118,184,24,270,375,7439,107,371,368,1219,44,,,,1,1
0D00:00:42.755332000,8,1.329403,103.7862,175,0.01,131.7,30418,105,-168,-72,22,-44,1,6,78,0,0,0,0,-5,-3,1000,0,-3,-1,150,17.702,44.25,-131,1023,-118,184,24,270,375,7439,107,371,368,1219,44,,,,1,1
0D00:00:42.755332000,8,1.329403,103.7862,177,0.1,131.7,30418,105,-168,-72,22,-44,1,6,78,0,0,0,0,-5,-3,1000,0,-3,-1,150,17.702,44.25,-131,1023,-118,184,24,270,375,7439,107,371,368,1219,44,,,,1,1
0D00:00:42.755332000,8,1.329403,103.7862,177,0.01,131.7,30418,105,-168,-72,22,-44,1,6,78,0,0,0,0,-5,-3,1000,0,-3,-1,150,17.702,44.25,-131,1023,-118,184,24,270,375,7439,107,371,368,1219,44,,,,1,1
0D00:00:42.755332000,8,1.329403,103.7862,178,0.09,131.7,30418,105,-168,-72,22,-44,1,6,78,0,0,0,0,-5,-3,1000,0,-3,-1,150,17.702,44.25,-131,1023,-118,184,24,270,375,7439,107,371,368,1219,44,,,,1,1
0D00:00:42.755332000,8,1.329403,103.7862,180,0.08,131.7,30418,105,-168,-72,22,-44,1,6,78,0,0,0,0,-5,-3,1000,0,-3,-1,150,17.702,44.25,-131,1023,-118,184,24,270,375,7439,107,371,368,1219,44,,,,1,1
0D00:00:42.755332000,8,1.329404,103.7862,180,0.15,131.7,30418,105,-168,-72,22,-44,1,6,78,0,0,0,0,-5,-3,1000,0,-3,-1,150,17.702,44.25,-131,1023,-118,184,24,270,375,7439,107,371,368,1219,44,,,,1,1
0D00:00:42.755332000,8,1.329404,103.7862,181,0.03,131.7,30418,105,-168,-72,22,-44,1,6,78,0,0,0,0,-5,-3,1000,0,-3,-1,150,17.702,44.25,-131,1023,-118,184,24,270,375,7439,107,371,368,1219,44,,,,1,1
0D00:00:42.755332000,8,1.329404,103.7862,182,0.02,131.7,30418,105,-168,-72,22,-44,1,6,78,0,0,0,0,-5,-3,1000,0,-3,-1,150,17.702,44.25,-131,1023,-118,184,24,270,375,7439,107,371,368,1219,44,,,,1,1
0D00:00:42.755332000,8,1.329404,103.7862,183,0.04,131.7,30418,105,-168,-72,22,-44,1,6,78,0,0,0,0,-5,-3,1000,0,-3,-1,150,17.702,44.25,-131,1023,-118,184,24,270,375,7439,107,371,368,1219,44,,,,1,1
0D00:00:42.755332000,8,1.329405,103.7862,185,0.06,131.7,30418,105,-168,-72,22,-44,1,6,78,0,0,0,0,-5,-3,1000,0,-3,-1,150,17.702,44.25,-131,1023,-118,184,24,270,375,7439,107,371,368,1219,44,,,,1,1
0D00:00:42.755332000,8,1.329405,103.7862,187,0.04,131.7,30418,105,-168,-72,22,-44,1,6,78,0,0,0,0,-5,-3,1000,0,-3,-1,150,17.702,44.25,-131,1023,-118,184,24,270,375,7439,107,371,368,1219,44,,,,1,1
0D00:00:42.755332000,8,1.329406,103.7862,188,0.04,131.7,30418,105,-168,-72,22,-44,1,6,78,0,0,0,0,-5,-3,1000,0,-3,-1,150,17.702,44.25,-131,1023,-118,184,24,270,375,7439,107,371,368,1219,44,,,,1,1
0D00:00:42.755332000,8,1.329406,103.7862,190,0.02,131.7,30418,105,-168,-72,22,-44,1,6,78,0,0,0,0,-5,-3,1000,0,-3,-1,150,17.702,44.25,-131,1023,-118,184,24,270,375,7439,107,371,368,1219,44,,,,1,1
0D00:00:42.755332000,8,1.329406,103.7862,192,0.03,131.7,30418,105,-168,-72,22,-44,1,6,78,0,0,0,0,-5,-3,1000,0,-3,-1,150,17.702,44.25,-131,1023,-118,184,24,270,375,7439,107,371,368,1219,44,,,,1,1
0D00:00:42.755332000,8,1.329406,103.7862,193,0.02,131.7,30418,105,-168,-72,22,-44,1,6,78,0,0,0,0,-5,-3,1000,0,-3,-1,150,17.702,44.25,-131,1023,-118,184,24,270,375,7439,107,371,368,1219,44,,,,1,1
0D00:00:42.755332000,8,1.329407,103.7862,194,0.03,131.7,30418,105,-168,-72,22,-44,1,6,78,0,0,0,0,-5,-3,1000,0,-3,-1,150,17.702,44.25,-131,1023,-118,184,24,270,375,7439,107,371,368,1219,44,,,,1,1
0D00:00:42.755332000,8,1.329406,103.7862,195,0.03,131.7,30418,105,-168,-72,22,-44,1,6,78,0,0,0,0,-5,-3,1000,0,-3,-1,150,17.702,44.25,-131,1023,-118,184,24,270,375,7439,107,371,368,1219,44,,,,1,1
0D00:00:42.755332000,8,1.329406,103.7862,197,0.05,131.7,30418,105,-168,-72,22,-44,1,6,78,0,0,0,0,-5,-3,1000,0,-3,-1,150,17.702,44.25,-131,1023,-118,184,24,270,375,7439,107,371,368,1219,44,,,,1,1
0D00:00:42.755332000,8,1.329406,103.7862,197,0.02,131.7,30418,105,-168,-72,22,-44,1,6,78,0,0,0,0,-5,-3,1000,0,-3,-1,150,17.702,44.25,-131,1023,-118,184,24,270,375,7439,107,371,368,1219,44,,,,1,1
0D00:00:42.755332000,8,1.329406,103.7862,199,0.01,131.7,30418,105,-168,-72,22,-44,1,6,78,0,0,0,0,-5,-3,1000,0,-3,-1,150,17.702,44.25,-131,1023,-118,184,24,270,375,7439,107,371,368,1219,44,,,,1,1
0D00:00:42.755332000,8,1.329406,103.7862,200,0.05,131.7,30418,105,-168,-72,22,-44,1,6,78,0,0,0,0,-5,-3,1000,0,-3,-1,150,17.702,44.25,-131,1023,-118,184,24,270,375,7439,107,371,368,1219,44,,,,1,1
0D00:00:42.755332000,8,1.329406,103.7862,201,0.06,131.7,30418,105,-168,-72,22,-44,1,6,78,0,0,0,0,-5,-3,1000,0,-3,-1,150,17.702,44.25,-131,1023,-118,184,24,270,375,7439,107,371,368,1219,44,,,,1,1
0D00:00:42.755332000,8,1.329406,103.7862,202,0.03,131.7,30418,105,-168,-72,22,-44,1,6,78,0,0,0,0,-5,-3,1000,0,-3,-1,150,17.702,44.25,-131,1023,-118,184,24,270,375,7439,107,371,368,1219,44,,,,1,1
0D00:00:42.755332000,8,1.329406,103.7862,202,0.16,131.7,30418,105,-168,-72,22,-44,1,6,78,0,0,0,0,-5,-3,1000,0,-3,-1,150,17.702,44.25,-131,1023,-118,184,24,270,375,7439,107,371,368,1219,44,,,,1,1
0D00:00:42.755332000,8,1.329406,103.7862,204,0.11,131.7,30418,105,-168,-72,22,-44,1,6,78,0,0,0,0,-5,-3,1000,0,-3,-1,150,17.702,44.25,-131,1023,-118,184,24,270,375,7439,107,371,368,1219,44,,,,1,1
0D00:00:42.755332000,8,1.329406,103.7862,206,0.1,131.7,30418,105,-168,-72,22,-44,1,6,78,0,0,0,0,-5,-3,1000,0,-3,-1,150,17.702,44.25,-131,1023,-118,184,24,270,375,7439,107,371,368,1219,44,,,,1,1
0D00:00:42.755332000,8,1.329406,103.7862,207,0.04,131.7,30418,105,-168,-72,22,-44,1,6,78,0,0,0,0,-5,-3,1000,0,-3,-1,150,17.702,44.25,-131,1023,-118,184,24,270,375,7439,107,371,368,1219,44,,,,1,1
0D00:00:42.755332000,8,1.329406,103.7862,207,0.04,131.7,30418,105,-168,-72,22,-44,1,6,78,0,0,0,0,-5,-3,1000,0,-3,-1,150,17.702,44.25,-131,1023,-118,184,24,270,375,7439,107,371,368,1219,44,,,,1,1
0D00:00:42.755332000,8,1.329406,103.7862,208,0.09,131.7,30418,105,-168,-72,22,-44,1,6,78,0,0,0,0,-5,-3,1000,0,-3,-1,150,17.702,44.25,-131,1023,-118,184,24,270,375,7439,107,371,368,1219,44,,,,1,1
0D00:00:42.755332000,8,1.329406,103.7862,209,0.03,131.7,30418,105,-168,-72,22,-44,1,6,78,0,0,0,0,-5,-3,1000,0,-3,-1,150,17.702,44.25,-131,1023,-118,184,24,270,375,7439,107,371,368,1219,44,,,,1,1
0D00:00:42.755332000,8,1.329406,103.7862,210,0.03,131.7,30418,105,-168,-72,22,-44,1,6,78,0,0,0,0,-5,-3,1000,0,-3,-1,150,17.702,44.25,-131,1023,-118,184,24,270,375,7439,107,371,368,1219,44,,,,1,1
0D00:00:42.755332000,8,1.329406,103.7862,211,0.02,131.7,30418,105,-168,-72,22,-44,1,6,78,0,0,0,0,-5,-3,1000,0,-3,-1,150,17.702,44.25,-131,1023,-118,184,24,270,375,7439,107,371,368,1219,44,,,,1,1
0D00:00:42.755332000,8,1.329406,103.7862,211,0.07,131.7,30418,105,-168,-72,22,-44,1,6,78,0,0,0,0,-5,-3,1000,0,-3,-1,150,17.702,44.25,-131,1023,-118,184,24,270,375,7439,107,371,368,1219,44,,,,1,1
0D00:00:42.755332000,8,1.329406,103.7862,212,0.04,131.7,30418,105,-168,-72,22,-44,1,6,78,0,0,0,0,-5,-3,1000,0,-3,-1,150,17.702,44.25,-131,1023,-118,184,24,270,375,7439,107,371,368,1219,44,,,,1,1
0D00:00:42.755332000,8,1.329406,103.7862,212,0.07,131.7,30418,105,-168,-72,22,-44,1,6,78,0,0,0,0,-5,-3,1000,0,-3,-1,150,17.702,44.25,-131,1023,-118,184,24,270,375,7439,107,371,368,1219,44,,,,1,1
0D00:00:42.755332000,8,1.329406,103.7862,213,0.04,131.7,30418,105,-168,-72,22,-44,1,6,78,0,0,0,0,-5,-3,1000,0,-3,-1,150,17.702,44.25,-131,1023,-118,184,24,270,375,7439,107,371,368,1219,44,,,,1,1
0D00:00:42.755332000,8,1.329406,103.7862,214,0.03,131.7,30418,105,-168,-72,22,-44,1,6,78,0,0,0,0,-5,-3,1000,0,-3,-1,150,17.702,44.25,-131,1023,-118,184,24,270,375,7439,107,371,368,1219,44,,,,1,1
0D00:00:42.755332000,8,1.329406,103.7862,215,0.01,131.7,30418,105,-168,-72,22,-44,1,6,78,0,0,0,0,-5,-3,1000,0,-3,-1,150,17.702,44.25,-131,1023,-118,184,24,270,375,7439,107,371,368,1219,44,,,,1,1
0D00:00:42.755332000,8,1.329406,103.7862,215,0.06,131.7,30418,105,-168,-72,22,-44,1,6,78,0,0,0,0,-5,-3,1000,0,-3,-1,150,17.702,44.25,-131,1023,-118,184,24,270,375,7439,107,371,368,1219,44,,,,1,1
0D00:00:42.755332000,8,1.329406,103.7862,216,0.16,131.7,30418,105,-168,-72,22,-44,1,6,78,0,0,0,0,-5,-3,1000,0,-3,-1,150,17.702,44.25,-131,1023,-118,184,24,270,375,7439,107,371,368,1219,44,,,,1,1
0D00:00:42.755332000,8,1.329406,103.7862,217,0.14,131.7,30418,105,-168,-72,22,-44,1,6,78,0,0,0,0,-5,-3,1000,0,-3,-1,150,17.702,44.25,-131,1023,-118,184,24,270,375,7439,107,371,368,1219,44,,,,1,1
0D00:00:42.755332000,8,1.329406,103.7862,217,0.04,131.7,30418,105,-168,-72,22,-44,1,6,78,0,0,0,0,-5,-3,1000,0,-3,-1,150,17.702,44.25,-131,1023,-118,184,24,270,375,7439,107,371,368,1219,44,,,,1,1
0D00:00:42.755332000,8,1.329406,103.7862,218,0.14,131.7,30418,105,-168,-72,22,-44,1,6,78,0,0,0,0,-5,-3,1000,0,-3,-1,150,17.702,44.25,-131,1023,-118,184,24,270,375,7439,107,371,368,1219,44,,,,1,1
0D00:00:42.755332000,8,1.329406,103.7862,218,0.01,131.7,30418,105,-168,-72,22,-44,1,6,78,0,0,0,0,-5,-3,1000,0,-3,-1,150,17.702,44.25,-131,1023,-118,184,24,270,375,7439,107,371,368,1219,44,,,,1,1
0D00:00:42.755332000,8,1.329406,103.7862,219,0.04,131.7,30418,105,-168,-72,22,-44,1,6,78,0,0,0,0,-5,-3,1000,0,-3,-1,150,17.702,44.25,-131,1023,-118,184,24,270,375,7439,107,371,368,1219,44,,,,1,1
0D00:00:42.755332000,8,1.329406,103.7862,219,0.02,131.7,30418,105,-168,-72,22,-44,1,6,78,0,0,0,0,-5,-3,1000,0,-3,-1,150,17.702,44.25,-131,1023,-118,184,24,270,375,7439,107,371,368,1219,44,,,,1,1
0D00:00:42.755332000,8,1.329406,103.7862,220,0.03,131.7,30418,105,-168,-72,22,-44,1,6,78,0,0,0,0,-5,-3,1000,0,-3,-1,150,17.702,44.25,-131,1023,-118,184,24,270,375,7439,107,371,368,1219,44,,,,1,1
0D00:00:42.755332000,8,1.329406,103.7862,220,0.04,131.7,30418,105,-168,-72,22,-44,1,6,78,0,0,0,0,-5,-3,1000,0,-3,-1,150,17.702,44.25,-131,1023,-118,184,24,270,375,7439,107,371,368,1219,44,,,,1,1
0D00:00:42.755332000,8,1.329406,103.7862,221,0.03,131.7,30418,105,-168,-72,22,-44,1,6,78,0,0,0,0,-5,-3,1000,0,-3,-1,150,17.702,44.25,-131,1023,-118,184,24,270,375,7439,107,371,368,1219,44,,,,1,1
0D00:00:42.755332000,8,1.329406,103.7862,221,0.18,131.7,30418,105,-168,-72,22,-44,1,6,78,0,0,0,0,-5,-3,1000,0,-3,-1,150,17.702,44.25,-131,1023,-118,184,24,270,375,7439,107,371,368,1219,44,,,,1,1
0D00:00:42.755332000,8,1.329406,103.7862,222,0.02,131.7,30418,105,-168,-72,22,-44,1,6,78,0,0,0,0,-5,-3,1000,0,-3,-1,150,17.702,44.25,-131,1023,-118,184,24,270,375,7439,107,371,368,1219,44,,,,1,1
0D00:00:42.755332000,8,1.329407,103.7862,223,0.02,131.7,30418,105,-168,-72,22,-44,1,6,78,0,0,0,0,-5,-3,1000,0,-3,-1,150,17.702,44.25,-131,1023,-118,184,24,270,375,7439,107,371,368,1219,44,,,,1,1
0D00:00:42.755332000,8,1.329407,103.7862,224,0.03,131.7,30418,105,-168,-72,22,-44,1,6,78,0,0,0,0,-5,-3,1000,0,-3,-1,150,17.702,44.25,-131,1023,-118,184,24,270,375,7439,107,371,368,1219,44,,,,1,1
0D00:00:42.755332000,8,1.329408,103.7862,229,0.19,131.7,30418,105,-168,-72,22,-44,1,6,78,0,0,0,0,-5,-3,1000,0,-3,-1,150,17.702,44.25,-131,1023,-118,184,24,270,375,7439,107,371,368,1219,44,,,,1,1
0D00:00:42.755332000,8,1.329408,103.7862,235,0.49,215.1,30418,105,-168,-72,22,-44,1,6,78,0,0,0,0,-5,-3,1000,0,-3,-1,150,17.702,44.25,-131,1023,-118,184,24,270,375,7439,107,371,368,1219,44,,,,1,1
0D00:00:42.755332000,8,1.329407,103.7862,248,0.64,239.1,30418,105,-168,-72,22,-44,1,6,78,0,0,0,0,-5,-3,1000,0,-3,-1,150,17.702,44.25,-131,1023,-118,184,24,270,375,7439,107,371,368,1219,44,,,,1,1
0D00:00:42.755332000,8,1.329404,103.7862,265,1.52,229.3,30418,105,-168,-72,22,-44,1,6,78,0,0,0,0,-5,-3,1000,0,-3,-1,150,17.702,44.25,-131,1023,-118,184,24,270,375,7439,107,371,368,1219,44,,,,1,1
0D00:00:42.755332000,8,1.329398,103.7862,284,2.77,159.8,30418,105,-168,-72,22,-44,1,6,78,0,0,0,0,-5,-3,1000,0,-3,-1,150,17.702,44.25,-131,1023,-118,184,24,270,375,7439,107,371,368,1219,44,,,,1,1
0D00:00:42.755332000,8,1.329388,103.7862,303,5.39,151.4,30418,105,-168,-72,22,-44,1,6,78,0,0,0,0,-5,-3,1000,0,-3,-1,150,17.702,44.25,-131,1023,-118,184,24,270,375,7439,107,371,368,1219,44,,,,1,1
0D00:00:42.755332000,8,1.329376,103.7863,322,8.03,141.2,30418,105,-168,-72,22,-44,1,6,78,0,0,0,0,-5,-3,1000,0,-3,-1,150,17.702,44.25,-131,1023,-118,184,24,270,375,7439,107,371,368,1219,44,,,,1,1
0D00:00:42.755332000,8,1.329363,103.7863,337,10.23,130.7,30418,105,-168,-72,22,-44,1,6,78,0,0,0,0,-5,-3,1000,0,-3,-1,150,17.702,44.25,-131,1023,-118,184,24,270,375,7439,107,371,368,1219,44,,,,1,1
0D00:00:42.755332000,8,1.32935,103.7863,349,13.03,123.2,30418,105,-168,-72,22,-44,1,6,78,0,0,0,0,-5,-3,1000,0,-3,-1,150,17.702,44.25,-131,1023,-118,184,24,270,375,7439,107,371,368,1219,44,,,,1,1
0D00:00:42.755332000,8,1.329339,103.7863,361,15.04,115.3,30418,105,-168,-72,22,-44,1,6,78,0,0,0,0,-5,-3,1000,0,-3,-1,150,17.702,44.25,-131,1023,-118,184,24,270,375,7439,107,371,368,1219,44,,,,1,1
0D00:00:42.755332000,8,1.32933,103.7864,369,17.23,109,30418,105,-168,-72,22,-44,1,6,78,0,0,0,0,-5,-3,1000,0,-3,-1,150,17.702,44.25,-131,1023,-118,184,24,270,375,7439,107,371,368,1219,44,,,,1,1
0D00:00:42.755332000,8,1.329322,103.7864,372,18.79,104.3,30418,105,-168,-72,22,-44,1,6,78,0,0,0,0,-5,-3,1000,0,-3,-1,150,17.702,44.25,-131,1023,-118,184,24,270,375,7439,107,371,368,1219,44,,,,1,1
0D00:00:42.755332000,8,1.329316,103.7864,372,22.18,99.9,30418,105,-168,-72,22,-44,1,6,78,0,0,0,0,-5,-3,1000,0,-3,-1,150,17.702,44.25,-131,1023,-118,184,24,270,375,7439,107,371,368,1219,44,,,,1,1
0D00:00:42.755332000,8,1.329311,103.7865,370,26.97,96.4,30418,105,-168,-72,22,-44,1,6,78,0,0,0,0,-5,-3,1000,0,-3,-1,150,17.702,44.25,-131,1023,-118,184,24,270,375,7439,107,371,368,1219,44,,,,1,1
0D00:00:42.755332000,8,1.329308,103.7866,368,32.21,93.4,30418,105,-168,-72,22,-44,1,6,78,0,0,0,0,-5,-3,1000,0,-3,-1,150,17.702,44.25,-131,1023,-118,184,24,270,375,7439,107,371,368,1219,44,,,,1,1
0D00:00:42.755332000,8,1.329306,103.7866,363,38.17,91.6,30418,105,-168,-72,22,-44,1,6,78,0,0,0,0,-5,-3,1000,0,-3,-1,150,17.702,44.25,-131,1023,-118,184,24,270,375,7439,107,371,368,1219,44,,,,1,1
0D00:00:42.755332000,8,1.329304,103.7867,356,42.96,90.9,30418,105,-168,-72,22,-44,1,6,78,0,0,0,0,-5,-3,1000,0,-3,-1,150,17.702,44.25,-131,1023,-118,184,24,270,375,7439,107,371,368,1219,44,,,,1,1
0D00:00:42.755332000,8,1.329303,103.7868,349,46.58,91.1,30418,105,-168,-72,22,-44,1,6,78,0,0,0,0,-5,-3,1000,0,-3,-1,150,17.702,44.25,-131,1023,-118,184,24,270,375,7439,107,371,368,1219,44,,,,1,1
0D00:00:42.755332000,8,1.329302,103.7869,344,48.97,90.7,30418,105,-168,-72,22,-44,1,6,78,0,0,0,0,-5,-3,1000,0,-3,-1,150,17.702,44.25,-131,1023,-118,184,24,270,375,7439,107,371,368,1219,44,,,,1,1
0D00:00:42.755332000,8,1.329303,103.787,341,50.52,90.1,30418,105,-168,-72,22,-44,1,6,78,0,0,0,0,-5,-3,1000,0,-3,-1,150,17.702,44.25,-131,1023,-118,184,24,270,375,7439,107,371,368,1219,44,,,,1,1
0D00:00:42.755332000,8,1.329305,103.7871,343,51.47,89,30418,105,-168,-72,22,-44,1,6,78,0,0,0,0,-5,-3,1000,0,-3,-1,150,17.702,44.25,-131,1023,-118,184,24,270,375,7439,107,371,368,1219,44,,,,1,1
0D00:00:42.755332000,8,1.329309,103.7872,348,52.26,88.2,30418,105,-168,-72,22,-44,1,6,78,0,0,0,0,-5,-3,1000,0,-3,-1,150,17.702,44.25,-131,1023,-118,184,24,270,375,7439,107,371,368,1219,44,,,,1,1
0D00:00:42.755332000,8,1.329313,103.7873,357,51.92,87.4,30418,105,-168,-72,22,-44,1,6,78,0,0,0,0,-5,-3,1000,0,-3,-1,150,17.702,44.25,-131,1023,-118,184,24,270,375,7439,107,371,368,1219,44,,,,1,1
0D00:00:42.755332000,8,1.329318,103.7873,371,51.33,87,30418,105,-168,-72,22,-44,1,6,78,0,0,0,0,-5,-3,1000,0,-3,-1,150,17.702,44.25,-131,1023,-118,184,24,270,375,7439,107,371,368,1219,44,,,,1,1
0D00:00:42.755332000,8,1.329322,103.7874,388,50.49,87.1,30418,105,-168,-72,22,-44,1,6,78,0,0,0,0,-5,-3,1000,0,-3,-1,150,17.702,44.25,-131,1023,-118,184,24,270,375,7439,107,371,368,1219,44,,,,1,1
0D00:00:42.755332000,8,1.329321,103.7875,410,49.17,87.9,30418,105,-168,-72,22,-44,1,6,78,0,0,0,0,-5,-3,1000,0,-3,-1,150,17.702,44.25,-131,1023,-118,184,24,270,375,7439,107,371,368,1219,44,,,,1,1
0D00:00:42.755332000,8,1.329313,103.7876,436,47.86,92.4,30418,105,-168,-72,22,-44,1,6,78,0,0,0,0,-5,-3,1000,0,-3,-1,150,17.702,44.25,-131,1023,-118,184,24,270,375,7439,107,371,368,1219,44,,,,1,1
0D00:00:42.755332000,8,1.329295,103.7877,459,45.98,98.6,30418,105,-168,-72,22,-44,1,6,78,0,0,0,0,-5,-3,1000,0,-3,-1,150,17.702,44.25,-131,1023,-118,184,24,270,375,7439,107,371,368,1219,44,,,,1,1
0D00:00:42.755332000,8,1.329266,103.7878,481,44.38,106.8,30418,105,-168,-72,22,-44,1,6,78,0,0,0,0,-5,-3,1000,0,-3,-1,150,17.702,44.25,-131,1023,-118,184,24,270,375,7439,107,371,368,1219,44,,,,1,1
0D00:00:42.755332000,8,1.329227,103.7878,501,43.25,115.5,30418,105,-168,-72,22,-44,1,6,78,0,0,0,0,-5,-3,1000,0,-3,-1,150,17.702,44.25,-131,1023,-118,184,24,270,375,7439,107,371,368,1219,44,,,,1,1
0D00:00:42.755332000,8,1.329177,103.7879,520,41.78,126.1,30418,105,-168,-72,22,-44,1,6,78,0,0,0,0,-5,-3,1000,0,-3,-1,150,17.702,44.25,-131,1023,-118,184,24,270,375,7439,107,371,368,1219,44,,,,1,1
0D00:00:42.755332000,8,1.329119,103.7879,540,40.01,138.5,30418,105,-168,-72,22,-44,1,6,78,0,0,0,0,-5,-3,1000,0,-3,-1,150,17.702,44.25,-131,1023,-118,184,24,270,375,7439,107,371,368,1219,44,,,,1,1
0D00:00:42.755332000,8,1.329058,103.7879,559,37.63,152.3,30418,105,-168,-72,22,-44,1,6,78,0,0,0,0,-5,-3,1000,0,-3,-1,150,17.702,44.25,-131,1023,-118,184,24,270,375,7439,107,371,368,1219,44,,,,1,1
0D00:00:42.755332000,8,1.328999,103.7879,580,35.09,165.7,30418,105,-168,-72,22,-44,1,6,78,0,0,0,0,-5,-3,1000,0,-3,-1,150,17.702,44.25,-131,1023,-118,184,24,270,375,7439,107,371,368,1219,44,,,,1,1
0D00:00:42.755332000,8,1.328944,103.7879,599,32.06,180.1,30418,105,-168,-72,22,-44,1,6,78,0,0,0,0,-5,-3,1000,0,-3,-1,150,17.702,44.25,-131,1023,-118,184,24,270,375,7439,107,371,368,1219,44,,,,1,1
0D00:00:42.755332000,8,1.328897,103.7879,620,29.55,195.7,30418,105,-168,-72,22,-44,1,6,78,0,0,0,0,-5,-3,1000,0,-3,-1,150,17.702,44.25,-131,1023,-118,184,24,270,375,7439,107,371,368,1219,44,,,,1,1
0D00:00:42.755332000,8,1.328858,103.7879,640,27.78,211,30418,105,-168,-72,22,-44,1,6,78,0,0,0,0,-5,-3,1000,0,-3,-1,150,17.702,44.25,-131,1023,-118,184,24,270,375,7439,107,371,368,1219,44,,,,1,1
0D00:00:42.755332000,8,1.328828,103.7879,662,27.27,225.9,30418,105,-168,-72,22,-44,1,6,78,0,0,0,0,-5,-3,1000,0,-3,-1,150,17.702,44.25,-131,1023,-118,184,24,270,375,7439,107,371,368,1219,44,,,,1,1
0D00:00:42.755332000,8,1.328804,103.7878,683,27.84,238.1,30418,105,-168,-72,22,-44,1,6,78,0,0,0,0,-5,-3,1000,0,-3,-1,150,17.702,44.25,-131,1023,-118,184,24,270,375,7439,107,371,368,1219,44,,,,1,1
0D00:00:42.755332000,7,1.328804,103.7878,683,30.12,247.4,30418,105,-168,-72,22,-44,1,6,78,0,0,0,0,-5,-3,1000,0,-3,-1,150,17.702,44.25,-131,1023,-118,184,24,270,375,7439,107,371,368,1219,44,,,,1,1
0D00:00:42.755332000,7,1.328785,103.7878,702,30.12,247.4,30418,105,-168,-72,22,-44,1,6,78,0,0,0,0,-5,-3,1000,0,-3,-1,150,17.702,44.25,-131,1023,-118,184,24,270,375,7439,107,371,368,1219,44,,,,1,1
0D00:00:42.755332000,8,1.328785,103.7878,702,32.62,253,30418,105,-168,-72,22,-44,1,6,78,0,0,0,0,-5,-3,1000,0,-3,-1,150,17.702,44.25,-131,1023,-118,184,24,270,375,7439,107,371,368,1219,44,,,,1,1
0D00:00:42.755332000,8,1.32877,103.7877,721,32.62,253,30418,105,-168,-72,22,-44,1,6,78,0,0,0,0,-5,-3,1000,0,-3,-1,150,17.702,44.25,-131,1023,-118,184,24,270,375,7439,107,371,368,1219,44,,,,1,1
0D00:00:42.755332000,8,1.328758,103.7876,739,34.82,257.5,30418,105,-168,-72,22,-44,1,6,78,0,0,0,0,-5,-3,1000,0,-3,-1,150,17.702,44.25,-131,1023,-118,184,24,270,375,7439,107,371,368,1219,44,,,,1,1
0D00:00:42.755332000,8,1.328749,103.7876,756,38.25,261.3,30418,105,-168,-72,22,-44,1,6,78,0,0,0,0,-5,-3,1000,0,-3,-1,150,17.702,44.25,-131,1023,-118,184,24,270,375,7439,107,371,368,1219,44,,,,1,1
0D00:00:42.755332000,8,1.328741,103.7875,772,41.96,263.9,30418,105,-168,-72,22,-44,1,6,78,0,0,0,0,-5,-3,1000,0,-3,-1,150,17.702,44.25,-131,1023,-118,184,24,270,375,7439,107,371,368,1219,44,,,,1,1
0D00:00:42.755332000,8,1.328735,103.7874,793,45.06,265.1,30418,105,-168,-72,22,-44,1,6,78,0,0,0,0,-5,-3,1000,0,-3,-1,150,17.702,44.25,-131,1023,-118,184,24,270,375,7439,107,371,368,1219,44,,,,1,1
0D00:00:42.755332000,8,1.32873,103.7873,813,47.29,266.3,30418,105,-168,-72,22,-44,1,6,78,0,0,0,0,-5,-3,1000,0,-3,-1,150,17.702,44.25,-131,1023,-118,184,24,270,375,7439,107,371,368,1219,44,,,,1,1
0D00:00:42.755332000,8,1.328725,103.7872,833,49.09,266.8,30418,105,-168,-72,22,-44,1,6,78,0,0,0,0,-5,-3,1000,0,-3,-1,150,17.702,44.25,-131,1023,-118,184,24,270,375,7439,107,371,368,1219,44,,,,1,1
0D00:00:42.755332000,8,1.328721,103.7871,849,50.45,267.2,30418,105,-168,-72,22,-44,1,6,78,0,0,0,0,-5,-3,1000,0,-3,-1,150,17.702,44.25,-131,1023,-118,184,24,270,375,7439,107,371,368,1219,44,,,,1,1
0D00:00:42.755332000,8,1.328718,103.787,862,51.63,267.9,30418,105,-168,-72,22,-44,1,6,78,0,0,0,0,-5,-3,1000,0,-3,-1,150,17.702,44.25,-131,1023,-118,184,24,270,375,7439,107,371,368,1219,44,,,,1,1
0D00:00:42.755332000,8,1.328716,103.7869,873,52.87,268.4,30418,105,-168,-72,22,-44,1,6,78,0,0,0,0,-5,-3,1000,0,-3,-1,150,17.702,44.25,-131,1023,-118,184,24,270,375,7439,107,371,368,1219,44,,,,1,1
0D00:00:42.755332000,8,1.328714,103.7868,881,53.74,268.9,30418,105,-168,-72,22,-44,1,6,78,0,0,0,0,-5,-3,1000,0,-3,-1,150,17.702,44.25,-131,1023,-118,184,24,270,375,7439,107,371,368,1219,44,,,,1,1
0D00:00:42.755332000,8,1.328714,103.7867,888,54.35,269.3,30418,105,-168,-72,22,-44,1,6,78,0,0,0,0,-5,-3,1000,0,-3,-1,150,17.702,44.25,-131,1023,-118,184,24,270,375,7439,107,371,368,1219,44,,,,1,1
0D00:00:42.755332000,8,1.328714,103.7866,893,54.54,269.9,30418,105,-168,-72,22,-44,1,6,78,0,0,0,0,-5,-3,1000,0,-3,-1,150,17.702,44.25,-131,1023,-118,184,24,270,375,7439,107,371,368,1219,44,,,,1,1
0D00:00:42.755332000,8,1.328716,103.7865,897,54.63,270.8,30418,105,-168,-72,22,-44,1,6,78,0,0,0,0,-5,-3,1000,0,-3,-1,150,17.702,44.25,-131,1023,-118,184,24,270,375,7439,107,371,368,1219,44,,,,1,1
0D00:00:42.755332000,8,1.328719,103.7864,901,54.43,271.5,30418,105,-168,-72,22,-44,1,6,78,0,0,0,0,-5,-3,1000,0,-3,-1,150,17.702,44.25,-131,1023,-118,184,24,270,375,7439,107,371,368,1219,44,,,,1,1
0D00:00:42.755332000,8,1.328723,103.7864,906,54.18,272,30418,105,-168,-72,22,-44,1,6,78,0,0,0,0,-5,-3,1000,0,-3,-1,150,17.702,44.25,-131,1023,-118,184,24,270,375,7439,107,371,368,1219,44,,,,1,1
0D00:00:42.755332000,8,1.328728,103.7863,914,54.02,272.4,30418,105,-168,-72,22,-44,1,6,78,0,0,0,0,-5,-3,1000,0,-3,-1,150,17.702,44.25,-131,1023,-118,184,24,270,375,7439,107,371,368,1219,44,,,,1,1
0D00:00:42.755332000,8,1.328733,103.7862,920,53.33,273,30418,105,-168,-72,22,-44,1,6,78,0,0,0,0,-5,-3,1000,0,-3,-1,150,17.702,44.25,-131,1023,-118,184,24,270,375,7439,107,371,368,1219,44,,,,1,1
0D00:00:42.755332000,8,1.328737,103.7861,927,52.33,272.8,30418,105,-168,-72,22,-44,1,6,78,0,0,0,0,-5,-3,1000,0,-3,-1,150,17.702,44.25,-131,1023,-118,184,24,270,375,7439,107,371,368,1219,44,,,,1,1
0D00:00:42.755332000,8,1.328741,103.786,934,50.81,272.9,30418,105,-168,-72,22,-44,1,6,78,0,0,0,0,-5,-3,1000,0,-3,-1,150,17.702,44.25,-131,1023,-118,184,24,270,375,7439,107,371,368,1219,44,,,,1,1
0D00:00:42.755332000,8,1.32874,103.7859,940,48.95,271.3,30418,105,-168,-72,22,-44,1,6,78,0,0,0,0,-5,-3,1000,0,-3,-1,150,17.702,44.25,-131,1023,-118,184,24,270,375,7439,107,371,368,1219,44,,,,1,1
0D00:01:34.906078000,8,1.328734,103.7858,943,46.76,268.2,267,0,1,-1,0,0,0,1,3,0,0,0,-1,1,-1,1000,-1,1,-1,0,18.251,0.1,165,1023,-1,-2,0,84,264,2030,117,107,120,107,0,,,,1,1
0D00:01:35.206584000,8,1.328721,103.7857,943,44.39,263.5,848,0,0,-2,0,0,0,0,-3,0,0,0,-1,1,-1,1000,-1,1,-1,0,18.154,1.45,165,1002,0,0,0,97,235,2001,109,109,107,117,0,,,,1,1
0D00:01:35.306708000,8,1.3287,103.7857,938,41.87,257.8,1042,0,0,3,0,0,0,3,0,0,0,0,-1,1,-1,1000,-1,1,-1,0,18.251,2.625,165,1002,-2,0,-2,58,247,2018,107,107,125,110,0,,,,1,1
0D00:01:35.507416000,8,1.328671,103.7856,933,39.87,250.4,1430,0,0,2,0,0,0,1,-3,0,0,0,-1,1,-1,1000,-1,1,-1,0,18.251,2.9,165,1023,0,1,-1,96,245,2027,108,119,108,111,0,,,,1,1
0D00:01:35.707674000,8,1.328634,103.7855,926,37.79,241.7,1818,0,0,-5,0,0,0,0,-5,0,0,0,-1,1,-1,1000,-1,1,-1,0,18.198,0.925,165,1023,0,1,1,101,293,2039,107,108,107,131,0,,,,1,1
0D00:01:35.907164000,8,1.328591,103.7855,919,36.01,232.6,2205,-1,1,-1,0,0,0,-3,2,0,0,0,-1,1,-1,1000,-1,1,-1,0,18.243,0,165,1023,1,-1,0,110,225,2016,129,109,108,108,0,,,,1,1
0D00:01:36.207719000,8,1.328543,103.7855,911,34.28,222.4,2819,-1,0,0,0,0,0,-2,0,0,0,0,-1,1,-1,1000,-1,1,-1,0,18.198,1.7,165,1012,1,0,-1,23,256,2011,116,116,108,108,0,,,,1,1
0D00:01:36.307920000,8,1.328491,103.7854,902,32.72,211.5,3013,-2,2,-1,0,0,0,-5,5,0,0,0,-1,1,-1,1000,-1,1,-1,0,18.207,0.775,165,1012,2,-2,0,97,237,2023,144,108,108,108,0,,,,1,1
0D00:01:36.508479000,8,1.328437,103.7854,891,31.14,199.8,3401,0,0,3,0,0,0,4,-5,0,0,0,-1,1,-1,1000,-1,1,-1,0,18.172,0.5,165,1023,-1,1,-2,87,249,2026,107,116,112,123,0,,,,1,1
0D00:01:36.708946000,8,1.328385,103.7854,881,29.35,186.5,3789,-2,1,-6,0,0,0,-7,4,0,0,0,-1,1,-1,1000,-1,1,-1,0,18.198,0.25,165,1023,2,-1,2,98,237,2019,151,107,107,107,0,,,,1,1
0D00:01:36.899009000,8,1.328337,103.7854,872,28.02,171.7,4167,0,0,-1,0,0,0,-1,-3,0,0,0,-1,1,-1,1000,-1,1,-1,0,18.225,1.7,165,1023,0,1,0,91,248,2024,107,118,107,115,1,,,,1,1
0D00:01:37.208743000,8,1.328296,103.7855,862,27.17,155.9,4758,1,1,-2,0,0,0,4,3,0,0,0,-1,1,-1,1000,-1,1,-1,0,18.207,0,165,1012,-2,-1,0,93,269,2015,110,108,125,115,1,,,,1,1
0D00:01:37.308929000,8,1.328262,103.7855,853,27.2,140.1,4952,1,0,4,0,0,0,6,-2,0,0,0,-1,1,-1,1000,-1,1,-1,0,18.251,0.5,165,1012,-2,0,-2,95,242,2016,108,108,128,120,1,,,,1,1
0D00:01:37.509557000,8,1.328235,103.7855,846,28.35,126.8,5340,0,2,-1,0,0,0,-2,6,0,0,0,-1,1,-1,1000,-1,1,-1,0,18.189,2.5,165,1023,0,-2,0,96,242,2012,136,107,115,107,1,,,,1,1
0D00:01:37.709310000,8,1.328213,103.7856,837,30.21,115.2,5727,0,0,-1,0,0,0,0,-5,0,0,0,-1,1,-1,1000,-1,1,-1,0,18.172,0.775,165,1023,0,2,0,90,248,2020,107,118,107,122,1,,,,1,1
0D00:01:37.908846000,8,1.328194,103.7857,830,32.57,109.2,6146,0,1,2,0,0,0,-2,5,0,0,0,-1,1,-1,1000,-1,1,-1,0,18.189,4.35,165,1023,0,-1,-1,95,243,2012,123,107,121,107,1,,,,1,1
0D00:01:38.209521000,8,1.328178,103.7857,825,35.16,106.1,6728,-1,2,1,0,0,0,-5,6,0,0,0,-1,1,-1,1000,-1,1,-1,0,18.243,0,165,1023,1,-2,-1,109,244,2020,138,108,116,108,1,,,,1,1
0D00:01:38.309830000,8,1.328166,103.7858,819,36.8,102.1,6922,1,0,-3,0,0,0,4,1,0,0,0,-1,1,-1,1000,-1,1,-1,0,18.216,0,165,1023,-2,0,1,73,255,2009,110,108,117,122,1,,,,1,1
0D00:01:38.510325000,8,1.328158,103.7859,809,38.1,97.7,7310,-1,0,0,0,0,0,-2,-1,0,0,0,-1,1,-1,1000,-1,1,-1,0,18.216,1.55,165,1023,1,0,-1,99,235,2022,115,119,108,108,1,,,,1,1
0D00:01:38.709933000,8,1.328153,103.7859,797,39.96,94.5,7697,0,0,-1,0,0,0,4,-4,0,0,0,-1,1,-1,1000,-1,1,-1,0,18.189,0,165,1023,-1,1,0,87,251,2013,107,107,107,130,1,,,,1,1
0D00:01:38.910150000,8,1.32815,103.786,784,42.12,92.8,8085,1,0,0,0,0,0,6,-2,0,0,0,-1,1,-1,1000,-1,1,-1,0,18.216,0.5,165,1023,-2,1,-1,96,253,2011,108,108,121,127,1,,,,1,1
0D00:01:39.211026000,8,1.328147,103.7861,770,44.23,92,8667,0,0,4,0,0,0,4,-4,0,0,0,-1,1,-1,1000,-1,1,-1,0,18.198,0,165,1023,-1,1,-2,73,242,2011,107,116,118,120,1,,,,1,1
0D00:01:39.311097000,8,1.328145,103.7862,757,46.24,91.5,8861,-2,1,-8,0,0,0,-7,2,0,0,0,-1,1,-1,1000,-1,1,-1,0,18.216,2.625,165,1023,2,-1,2,96,238,2014,154,108,108,108,1,,,,1,1
0D00:01:39.501423000,8,1.328143,103.7863,744,48.32,91.2,9239,-1,1,-6,0,0,0,-5,3,0,0,0,-1,1,-1,1000,-1,1,-1,0,18.207,0,183,1023,1,-1,2,102,242,2016,144,107,107,107,1,,,,1,1
0D00:01:39.710970000,8,1.328142,103.7864,735,49.61,90.9,9668,0,0,1,0,0,0,6,-3,0,0,0,-1,1,-1,1000,-1,1,-1,0,18.376,1.175,187,1023,-1,1,-1,95,244,2014,107,107,117,127,1,,,,1,1
0D00:01:39.911629000,8,1.328141,103.7864,726,50.5,90.6,10056,-1,2,-6,0,0,0,-5,7,0,0,0,-1,1,-1,1000,-1,1,-1,0,18.216,1.55,187,1023,2,-2,2,102,236,2026,157,108,108,108,1,,,,1,1
0D00:01:40.212146000,8,1.32814,103.7865,719,51.39,90.2,10638,0,0,-4,0,0,0,4,1,0,0,0,-1,1,-1,1000,-1,1,-1,0,18.181,0,187,1023,-2,0,1,96,249,2014,109,107,113,125,1,,,,1,1
0D00:01:40.313432000,8,1.32814,103.7866,712,51.68,90.1,10833,0,0,2,0,0,0,0,-2,0,0,0,-1,1,-1,1000,-1,1,-1,0,18.216,0.775,187,1023,0,0,-1,22,257,2013,108,122,108,108,2,,,,1,1
0D00:01:40.511999000,8,1.32814,103.7867,707,51.92,90.4,11219,0,0,-2,0,0,0,5,-4,0,0,0,-1,1,-1,1000,-1,1,-1,0,18.189,0.5,187,1023,-1,1,0,63,247,2017,107,107,107,135,2,,,,1,1
0D00:01:40.713231000,8,1.32814,103.7868,705,50.71,90.1,11608,1,0,1,0,0,0,6,-3,0,0,0,-1,1,-1,1000,-1,1,-1,0,18.198,0,187,1012,-2,1,-1,127,256,2029,108,108,120,127,2,,,,1,1
0D00:01:40.912690000,8,1.328144,103.7869,703,48.54,89.1,11995,1,0,-1,0,0,0,5,0,0,0,0,-1,1,-1,1000,-1,1,-1,0,18.03,0,187,1012,-2,0,0,70,235,2009,107,107,120,122,2,,,,1,1
0D00:01:41.212904000,8,1.328155,103.787,703,45.52,85.2,12609,0,0,0,0,0,0,5,-5,0,0,0,-1,1,-1,1000,-1,1,-1,0,18.198,0.5,187,1023,-2,1,-1,49,238,2009,108,108,111,133,2,,,,1,1
0D00:01:41.313339000,8,1.328171,103.787,704,42.64,80,12803,-1,0,0,0,0,0,-4,0,0,0,0,-1,1,-1,1000,-1,1,-1,0,18.207,0.775,187,1023,1,0,0,97,237,2014,125,117,108,108,2,,,,1,1
0D00:01:41.512953000,8,1.328193,103.7871,705,39.79,74.4,13190,0,0,-2,0,0,0,-1,-3,0,0,0,-1,1,-1,1000,-1,1,-1,0,18.172,0,187,1023,0,1,0,89,243,2022,110,115,107,115,2,,,,1,1
0D00:01:41.713369000,8,1.32822,103.7872,703,37.15,68.2,13578,1,0,2,0,0,0,6,0,0,0,0,-1,1,-1,1000,-1,1,-1,0,18.189,1.025,187,1023,-2,0,-2,98,249,2016,108,108,129,118,2,,,,1,1
0D00:01:41.913688000,8,1.32825,103.7872,697,34.23,63.1,13966,-1,1,-3,0,0,0,-3,6,0,0,0,-1,1,-1,1000,-1,1,-1,0,17.977,0.375,187,1023,1,-1,1,98,245,2017,143,107,107,107,2,,,,1,1
0D00:01:42.204231000,8,1.328282,103.7873,690,31.83,57.4,14538,0,0,2,0,0,0,2,-4,0,0,0,-1,1,-1,1000,-1,1,-1,0,18.189,2.625,187,1023,-1,1,-1,92,243,2021,107,116,109,120,2,,,,1,1
0D00:01:42.304328000,8,1.328317,103.7873,681,29.7,51.3,14732,0,1,-3,0,0,0,-4,4,0,0,0,-1,1,-1,1000,-1,1,-1,0,18.225,2.625,187,1023,0,-1,1,104,246,2004,138,107,107,107,2,,,,1,1
0D00:01:42.504681000,8,1.328353,103.7873,670,27.73,44.5,15120,-1,1,1,0,0,0,-4,5,0,0,0,-1,1,-1,1000,-1,1,-1,0,18.207,1.025,187,1023,1,-1,-1,100,245,2013,132,108,114,108,2,,,,1,1
0D00:01:42.715416000,8,1.328391,103.7874,657,25.92,37.4,15518,-1,1,-1,0,0,0,-6,4,0,0,0,-1,1,-1,1000,-1,1,-1,0,18.207,0.1,187,1023,1,-1,0,96,238,2011,138,110,108,108,2,,,,1,1
0D00:01:42.915045000,8,1.32843,103.7874,642,24.6,29.8,15937,-1,1,-9,0,0,0,-5,1,0,0,0,-1,1,-1,1000,-1,1,-1,0,18.172,0.1,187,1023,1,-1,3,95,240,2013,148,107,107,107,2,,,,1,1
0D00:01:43.216236000,8,1.32847,103.7874,625,23.67,22.8,16520,0,0,-4,0,0,0,0,-3,0,0,0,-1,1,-1,1000,-1,1,-1,0,18.216,0,187,1023,0,1,1,80,233,2016,112,107,107,122,2,,,,1,1
0D00:01:43.306251000,8,1.32851,103.7874,607,23.2,16.3,16704,0,0,-3,0,0,0,4,0,0,0,0,-1,1,-1,1000,-1,1,-1,0,18.074,0.1,187,1023,-2,0,1,98,248,2019,108,108,116,125,2,,,,1,1
0D00:01:43.505970000,8,1.328551,103.7874,589,23,9.6,17091,0,1,-2,0,0,0,-2,4,0,0,0,-1,1,-1,1000,-1,1,-1,0,18.181,0,187,1012,0,-1,0,99,242,2015,132,107,108,107,2,,,,1,1
0D00:01:43.706323000,8,1.328592,103.7874,571,22.52,2.7,17479,-2,0,-7,0,0,0,-5,0,0,0,0,-1,1,-1,1000,-1,1,-1,0,18.189,0,187,1012,2,0,2,103,230,2019,144,108,108,108,2,,,,1,1
0D00:01:43.906675000,8,1.328631,103.7874,554,22.39,356.1,17867,-1,1,-1,0,0,0,-5,4,0,0,0,-1,1,-1,1000,-1,1,-1,0,18.181,0,187,1023,1,-1,0,64,253,2022,136,107,107,107,2,,,,1,1
0D00:01:44.216639000,8,1.32867,103.7874,536,22.19,349.5,18458,-1,0,-5,0,0,0,-3,-1,0,0,0,-1,1,-1,1000,-1,1,-1,0,18.234,0.5,187,1023,1,0,1,94,238,2020,128,108,108,112,3,,,,1,1
0D00:01:44.316879000,8,1.328707,103.7874,518,22.06,342.6,18652,0,0,-1,0,0,0,7,-2,0,0,0,-1,1,-1,1000,-1,1,-1,0,18.207,3.15,187,1023,-2,1,0,100,244,2018,107,107,117,130,3,,,,1,1
0D00:01:44.507317000,8,1.328742,103.7874,500,21.93,335.6,19030,-1,1,0,0,0,0,-5,1,0,0,0,-1,1,-1,1000,-1,1,-1,0,18.207,0.775,187,1023,1,-1,-1,113,234,2016,127,116,107,107,3,,,,1,1
0D00:01:44.707866000,8,1.328774,103.7873,483,21.77,328.4,19418,0,0,-3,0,0,0,6,0,0,0,0,-1,1,-1,1000,-1,1,-1,0,18.198,0.375,187,1012,-2,0,1,77,229,2021,107,107,117,130,3,,,,1,1
0D00:01:44.907334000,8,1.328801,103.7873,464,21.83,320.6,19805,0,0,-1,0,0,0,4,-4,0,0,0,-1,1,-1,1000,-1,1,-1,0,18.225,0,187,1012,-1,1,0,104,242,2014,107,107,107,130,3,,,,1,1
0D00:01:45.207880000,8,1.328821,103.7873,446,21.24,310.7,20419,1,0,1,0,0,0,6,-4,0,0,0,-1,1,-1,1000,-1,1,-1,0,18.189,1.55,187,1023,-2,1,-1,92,251,2021,108,108,119,132,3,,,,1,1
0D00:01:45.308089000,8,1.328828,103.7872,428,20.49,292.7,20613,0,0,-2,0,0,0,2,1,0,0,0,-1,1,-1,1000,-1,1,-1,0,18.216,0.5,187,1023,-1,0,0,97,247,2017,112,107,112,115,3,,,,1,1
0D00:01:45.508539000,8,1.328827,103.7872,413,20.52,271.3,21001,0,0,1,0,0,0,4,-5,0,0,0,-1,1,-1,1000,-1,1,-1,0,18.251,0.5,187,1012,-1,1,-1,62,259,2023,107,112,109,125,3,,,,1,1
0D00:01:45.708245000,8,1.32882,103.7872,399,19.94,263.5,21388,-1,1,-2,0,0,0,-5,2,0,0,0,-1,1,-1,1000,-1,1,-1,0,18.198,1.025,187,1012,2,-1,0,97,235,2020,138,108,107,107,3,,,,1,1
0D00:01:45.908941000,8,1.32881,103.7871,387,19.7,256,21776,0,0,-3,0,0,0,4,1,0,0,0,-1,1,-1,1000,-1,1,-1,0,18.207,0,187,1023,-1,0,1,69,256,2014,108,107,114,122,3,,,,1,1
0D00:01:46.209529000,8,1.328796,103.7871,378,20.18,250.1,22358,0,0,-1,0,0,0,0,-1,0,0,0,-1,1,-1,1000,-1,1,-1,0,18.198,1.3,187,1023,0,0,0,96,241,2017,112,110,107,111,3,,,,1,1
0D00:01:46.308789000,8,1.328781,103.7871,371,22.26,247.6,22551,1,0,3,0,0,0,8,-1,0,0,0,-1,1,-1,1000,-1,1,-1,0,18.198,0,187,1023,-3,1,-2,91,238,2003,108,108,133,125,3,,,,1,1
0D00:01:46.509164000,8,1.328767,103.787,367,23.39,249.3,22939,0,0,0,0,0,0,0,1,0,0,0,-1,1,-1,1000,-1,1,-1,0,18.189,2.625,187,1023,-1,0,-1,98,241,2010,111,107,112,107,3,,,,1,1
0D00:01:46.709695000,8,1.328756,103.787,368,24.55,253,23327,-1,0,0,0,0,0,-3,0,0,0,0,-1,1,-1,1000,-1,1,-1,0,18.207,1.45,187,1023,1,0,0,115,231,2027,120,114,107,107,3,,,,1,1
0D00:01:46.909932000,8,1.328751,103.7869,371,24.91,259.4,23747,0,0,-1,0,0,0,7,-1,0,0,0,-1,1,-1,1000,-1,1,-1,0,18.198,0.5,187,1023,-2,0,0,107,224,2008,107,107,119,129,3,,,,1,1
0D00:01:47.210090000,8,1.328751,103.7869,373,24.56,266.6,24329,0,0,-2,0,0,0,6,-2,0,0,0,-1,1,-1,1000,-1,1,-1,0,18.216,0.925,187,1023,-1,1,0,91,247,2010,108,108,113,130,3,,,,1,1
0D00:01:47.309607000,8,1.328756,103.7868,377,23.68,273.1,24522,-1,1,0,0,0,0,-4,5,0,0,0,-1,1,-1,1000,-1,1,-1,0,18.189,0.375,187,1023,1,-2,0,100,239,2004,136,107,108,107,3,,,,1,1
0D00:01:47.510165000,8,1.328764,103.7868,381,22.88,279.9,24910,1,0,-3,0,0,0,5,-3,0,0,0,-1,1,-1,1000,-1,1,-1,0,18.163,0.625,187,1023,-2,1,1,92,253,2002,107,107,108,136,3,,,,1,1
0D00:01:47.710592000,8,1.328776,103.7868,383,22.36,285.1,25298,0,0,2,0,0,0,6,-4,0,0,0,-1,1,-1,1000,-1,1,-1,0,18.243,0.625,187,1023,-2,1,-2,92,251,2012,107,107,120,127,3,,,,1,1
0D00:01:47.910636000,8,1.328791,103.7867,385,22.22,290.4,25686,0,0,-1,0,0,0,1,1,0,0,0,-1,1,-1,1000,-1,1,-1,0,18.189,1.025,187,1023,-1,0,0,100,245,2005,113,108,114,108,3,,,,1,1
0D00:01:48.211460000,8,1.328809,103.7867,385,22.14,295,26268,0,1,0,0,0,0,2,4,0,0,0,-1,1,-1,1000,-1,1,-1,0,18.198,0.1,187,982,-1,-1,-1,77,248,2009,110,107,126,107,3,,,,1,1
0D00:01:48.311552000,8,1.328828,103.7867,382,21.44,299.2,26462,0,0,5,0,0,0,3,-5,0,0,0,-1,1,-1,1000,-1,1,-1,0,18.216,0.775,187,982,-1,1,-2,90,246,2013,107,123,115,115,3,,,,1,1
0D00:01:48.511235000,8,1.32885,103.7866,379,20.39,304.1,26881,0,0,-1,0,0,0,6,-1,0,0,0,-1,1,-1,1000,-1,1,-1,0,18.198,0,187,971,-1,0,0,95,248,2002,107,107,117,126,4,,,,1,1
0D00:01:48.710968000,8,1.328873,103.7866,373,19.64,308.9,27268,1,0,5,0,0,0,7,-1,0,0,0,0,1,-1,1000,0,1,-1,0,18.154,2.225,187,1012,-2,0,-2,95,252,2013,107,107,135,120,4,,,,1,1
0D00:01:48.912196000,8,1.328897,103.7866,365,19.31,312.8,27657,0,0,15,0,0,0,-1,-3,0,0,0,0,1,12,1000,0,1,6,0,18.198,0.25,165,1023,0,1,1,89,246,2015,108,150,129,108,4,,,,1,1
0D00:01:49.212923000,8,1.328924,103.7866,359,19.36,317.3,28239,0,-1,7,0,0,14,-4,-1,0,0,0,0,0,12,1025,0,0,6,28,18.11,1.85,165,1023,0,1,4,110,247,2012,119,219,191,117,4,,,,1,1
0D00:01:49.312340000,8,1.328954,103.7865,352,20.17,322.1,28432,-1,0,-2,-1,0,38,-1,-1,0,0,0,0,0,25,1086,0,0,14,87,18.136,3.3,165,1023,2,0,14,108,252,1982,210,365,335,194,4,,,,1,1
0D00:01:49.502934000,8,1.328986,103.7865,344,20.53,327.8,28810,1,2,-14,-8,1,55,-2,0,0,0,0,0,1,18,1168,0,1,9,169,18.039,15.75,186,1023,-2,-2,15,55,262,2024,377,530,507,331,4,,,,1,1
0D00:01:49.702682000,8,1.329017,103.7865,336,19.31,338,29197,1,-4,1,-4,0,18,7,5,0,0,0,0,22,29,1266,0,14,16,270,17.773,59.625,225,1023,-1,18,15,-72,48,3341,584,661,684,596,5,,,,1,1
0D00:01:49.903248000,8,1.329042,103.7865,318,16.21,348,29585,-6,-4,3,8,1,2,0,-6,0,1,0,0,69,49,1321,0,44,27,324,17.551,37.475,285,1023,7,49,25,-89,167,4360,699,759,736,745,5,,,,1,1
0D00:01:50.213604000,8,1.32906,103.7865,304,13.11,348.7,30208,-2,-6,17,1,-4,10,7,-1,0,0,0,-3,95,83,1375,-2,61,46,372,17.303,12.175,395,1023,1,68,40,5,310,5873,731,899,876,809,6,,,,1,1
0D00:01:50.313970000,8,1.329071,103.7865,292,9.01,325.5,30402,-2,-5,-3,8,9,3,-3,-14,0,0,0,-23,100,72,1338,-15,64,39,336,17.392,47.425,452,1023,-12,71,41,352,198,4849,731,776,742,787,5,,,,1,1
0D00:01:50.513730000,8,1.329077,103.7865,283,8.79,300.8,30789,3,4,-16,4,1,11,7,9,0,0,0,-40,101,67,1307,-25,65,37,306,17.454,4.35,542,1023,-29,60,42,269,315,3582,712,630,756,710,5,,,,1,1
0D00:01:50.703349000,8,1.329079,103.7865,274,10.11,281.3,31134,5,0,-19,4,2,13,10,7,0,0,0,-51,91,72,1333,-32,58,39,333,17.312,35.9,642,1012,-38,59,46,482,312,3835,742,677,804,789,5,,,,1,1
0D00:01:50.903913000,8,1.329079,103.7864,269,11.02,274.4,31554,7,2,-11,7,6,5,1,0,0,0,0,-55,92,3,1303,-35,59,2,303,17.578,43.575,811,1012,-43,56,6,490,514,3207,692,629,737,721,6,,,,1,1
0D00:01:51.213825000,8,1.329079,103.7864,268,12.68,267.2,32145,5,5,-10,15,2,13,-6,-2,0,0,0,-51,20,-3,1300,-32,13,-2,300,17.454,15.225,1119,1023,-38,6,2,433,1230,2976,665,654,737,700,6,,,,1,1
0D00:01:51.304056000,8,1.32908,103.7864,267,13.71,269.3,32329,-3,-1,0,17,5,11,-10,-4,0,0,0,-38,19,-3,1313,-24,12,-2,313,17.445,17.225,1215,1023,-21,14,-2,430,1083,3012,677,733,746,701,6,,,,1,1
0D00:01:51.504976000,8,1.329086,103.7864,264,13.81,279.1,32717,8,7,0,17,6,12,0,-2,4,3,0,-18,52,-3,1286,-11,33,-2,285,17.595,16.275,1476,1023,-21,25,-2,365,1037,2383,602,596,783,663,6,,,,1,1
0D00:01:51.704442000,8,1.329096,103.7863,263,13.07,291,33104,-1,0,2,15,4,14,2,-2,0,-1,0,-7,77,-3,1279,-4,49,-2,280,17.56,29.4,1687,1023,-3,48,-3,377,1123,1921,582,649,724,646,7,,,,1,1
0D00:01:51.905610000,8,1.32911,103.7863,261,12.14,303.9,33492,5,8,-6,15,4,14,6,7,0,0,0,-3,1,-1,1412,-2,1,-1,415,17.055,71.15,1894,1023,-9,-9,2,385,1067,3701,878,825,1033,910,7,,,,1,1
0D00:01:52.215815000,8,1.329128,103.7863,262,11.94,318,34115,-6,-9,-22,17,0,15,-5,-8,0,0,0,-4,0,3,1525,-3,0,2,527,16.541,82.55,2156,1023,4,11,10,-128,1219,4952,1094,1141,1086,1195,8,,,,1,1
0D00:01:52.306324000,8,1.329149,103.7863,263,12.98,328.7,34267,1,0,27,22,5,7,-22,-10,0,0,0,-7,0,5,1561,-4,0,3,563,16.018,145.775,2206,1023,-6,0,-7,-269,1250,5294,1104,1286,1271,1139,8,,,,1,1
0D00:01:52.505130000,8,1.329172,103.7863,266,13.4,337.8,34653,-12,5,0,15,-3,3,-7,22,0,0,0,-4,0,0,1684,-3,0,0,687,15.229,218.95,2268,1023,12,-6,0,-707,1137,5847,1492,1405,1491,1367,7,,,,1,1
0D00:01:52.706139000,8,1.329197,103.7863,269,14.15,345.2,35073,5,2,19,16,0,5,-23,-6,0,1,0,-3,-1,-1,1684,-2,-1,-1,684,15.246,147.5,2275,1023,-8,-3,-7,-1013,616,4749,1372,1503,1480,1380,7,,,,1,1
0D00:01:52.906926000,8,1.329224,103.7863,275,14.64,353.8,35461,-6,3,-8,7,-3,1,-17,-1,0,0,0,-3,0,-1,1684,-2,0,-1,684,15.282,68.9,2175,982,5,-4,3,-1254,-50,3644,1487,1458,1376,1415,7,,,,1,1
0D00:01:53.217251000,8,1.329251,103.7863,278,15,0.3,36052,-12,10,-23,15,-8,-2,-39,10,0,0,0,-3,-20,0,1678,-2,-13,0,678,15.628,161.95,1856,951,12,-25,8,-2722,326,5815,1601,1420,1299,1368,8,,,,1,1
0D00:01:53.307319000,8,1.329278,103.7863,285,14.94,7.5,36236,-7,-2,-8,14,-9,-3,-2,-11,-1,0,0,-16,-5,-1,1676,-10,-3,-1,676,14.777,200.8,1797,941,-1,-1,2,-2964,419,2592,1386,1438,1339,1510,9,,,,1,1
0D00:01:53.507731000,8,1.329305,103.7863,289,15.22,14,36623,33,2,39,19,-12,-4,133,-7,0,-6,0,-5,-33,0,1676,-3,-21,0,676,15.016,154.25,1585,941,-40,-24,-14,-2781,1188,2774,822,1109,1899,1842,9,,,,1,1
0D00:01:53.706864000,8,1.329332,103.7863,294,15.61,17,37009,5,2,-16,19,-14,0,-11,-11,0,0,0,0,-58,-1,1661,0,-37,-1,660,15.211,162.475,1408,961,-6,-39,5,-3884,869,3005,1337,1373,1324,1515,9,,,,1,1
0D00:01:53.907887000,8,1.329357,103.7863,300,15.94,19.9,37397,2,-6,-27,14,-13,0,14,-5,0,0,0,0,-16,0,1648,0,-10,0,647,15.424,177.975,1314,971,-2,-3,9,-4316,600,-1191,1299,1279,1311,1561,9,,,,1,1
0D00:01:54.208230000,8,1.329378,103.7863,300,14.68,27.9,37978,-4,1,0,9,-13,0,4,11,0,-7,0,0,-12,-1,1616,0,-8,-1,616,15.698,126.825,1248,1023,5,-10,0,-3746,99,3456,1262,1297,1302,1344,8,,,,1,1
0D00:01:54.307707000,8,1.329392,103.7864,297,13.58,42,38171,5,-7,10,5,-12,3,30,-11,0,0,0,3,-32,-1,1610,2,-20,-1,610,15.964,146.7,1243,1023,-5,-12,-4,-3888,-111,-1791,1081,1301,1348,1431,8,,,,1,1
0D00:01:54.508018000,8,1.3294,103.7864,294,11.76,59.6,38558,-6,-1,5,3,-12,3,-17,-14,7,0,0,52,-10,-29,1591,33,-6,-16,591,15.867,61.35,1328,1023,40,-5,-18,-4308,-762,2791,1192,1375,1176,1268,8,,,,1,1
0D00:01:54.708711000,8,1.329402,103.7864,289,9.25,73.5,38978,-6,-1,-25,-29,-6,17,-7,-23,0,0,0,78,0,-42,1585,50,0,-23,584,15.769,97.8,1461,1023,57,2,-14,-3223,-3969,1632,1284,1399,1044,1234,9,,,,1,1
0D00:01:54.908333000,8,1.329401,103.7864,289,6.16,80.3,39365,7,0,-3,-47,-3,12,15,-7,0,0,0,73,20,-43,1581,47,13,-23,581,15.778,151.875,1433,1023,38,13,-22,-2528,-5595,1756,1242,1338,1172,1184,8,,,,1,1
0D00:01:55.208496000,8,1.329399,103.7864,286,2.98,85.5,39946,0,-4,16,-55,-3,6,0,13,0,-5,0,73,13,-47,1580,46,8,-26,580,16,54.45,1305,1023,46,13,-31,-917,-6647,2807,1304,1417,1157,1050,9,,,,1,1
0D00:01:55.309106000,8,1.329398,103.7864,285,1.21,100.5,40140,-4,0,-6,-58,-2,4,-2,3,0,0,0,79,1,-55,1578,50,1,-30,578,15.707,94.625,1276,1023,56,1,-28,-513,-6764,3107,1386,1373,1076,1076,9,,,,1,1
0D00:01:55.509200000,8,1.329398,103.7864,284,2.9,248.2,40527,-1,-7,-30,-60,-1,0,-43,2,0,0,0,112,0,-65,1578,73,0,-35,578,15.636,55.775,1223,1002,74,8,-25,-398,-7929,3799,1528,1422,893,1069,9,,,,1,1
0D00:01:55.708837000,8,1.329398,103.7864,283,4.16,266.6,40914,0,-3,15,-48,-8,-4,-23,7,0,0,0,129,0,-76,1574,85,0,-42,574,15.583,103.5,1243,1002,84,4,-47,-192,-8494,4150,1356,1424,1066,1037,8,,,,1,1
0D00:01:55.909835000,8,1.3294,103.7864,282,5.18,274.6,41302,-4,-7,-2,-38,-7,-12,-3,-24,0,0,0,139,0,-82,1564,92,0,-45,563,15.503,135.3,1460,992,98,8,-44,226,-8784,4342,1255,1369,962,1213,8,,,,1,1
0D00:01:56.210044000,8,1.329403,103.7864,282,6.64,279.8,41883,0,1,16,-14,-11,-32,25,-8,0,0,0,135,0,-76,1546,89,0,-42,546,15.37,64.125,1953,1002,90,-1,-47,663,-8032,5010,1136,1148,1109,1270,9,,,,1,1
0D00:01:56.309529000,8,1.329407,103.7863,283,8.29,284.4,42076,-2,-1,3,-15,-5,-36,-1,-12,0,0,0,135,0,-63,1533,89,0,-34,532,15.69,117.025,2071,1002,92,1,-35,736,-7642,5221,1220,1151,971,1218,9,,,,1,1
0D00:01:56.509759000,8,1.329415,103.7863,284,8.72,291.8,42463,3,-3,48,-25,5,-30,32,-16,0,0,0,112,0,-57,1517,73,0,-31,516,15.628,118.075,2365,1023,69,4,-48,1185,-7133,6341,1005,1160,1139,1124,9,,,,1,1
0D00:01:56.709887000,8,1.329426,103.7863,288,7.95,297.8,42882,10,1,10,-23,11,-33,13,9,0,0,0,83,0,-50,1513,53,0,-27,513,15.743,113.175,2813,1023,41,-2,-31,1120,-6234,5426,1208,994,1099,1104,9,,,,1,1
0D00:01:56.910555000,8,1.329437,103.7863,286,8.3,330,43270,3,-3,-31,-20,1,-26,1,1,0,0,0,50,0,-47,1510,32,0,-26,510,15.84,97.4,3118,1023,28,4,-15,1033,-5386,5485,1274,999,920,1191,8,,,,1,1
0D00:01:57.210391000,8,1.329442,103.7863,282,5.66,333.5,43851,2,-4,-15,-13,5,-12,-24,0,0,0,0,-9,30,-4,1497,-6,19,-2,497,15.92,108.925,3629,1023,-8,24,3,523,-3757,5266,1228,1086,922,1048,8,,,,1,1
0D00:01:57.310830000,8,1.329441,103.7863,279,2.33,342.5,44045,1,4,-6,-23,1,-10,-9,17,0,0,0,-13,32,-4,1496,-8,20,-2,496,15.831,142.725,3767,1023,-10,15,0,716,-3558,4532,1239,1046,1011,982,8,,,,1,1
0D00:01:57.510565000,8,1.329435,103.7863,277,3.93,99,44432,1,-1,35,-17,3,-3,-6,-18,0,0,0,-7,37,-3,1493,-4,23,-2,493,16.124,35.375,3894,1023,-6,26,-14,322,-2548,3840,1002,1229,1044,978,8,,,,1,1
0D00:01:57.701191000,8,1.329425,103.7863,275,5.13,127.6,44810,4,2,-5,-13,3,-1,6,10,0,0,0,-4,1,-1,1502,-3,1,-1,504,15.973,48.225,3991,1023,-8,-2,1,163,-2123,3120,1145,1035,1102,1059,7,,,,1,1
0D00:01:57.911913000,8,1.329411,103.7863,272,6.76,153.9,45208,-10,-5,-27,-11,3,3,-12,-4,0,0,0,-3,33,0,1590,-2,21,0,592,15.477,68.625,4094,1023,10,27,10,226,-1834,4228,1377,1297,1099,1247,7,,,,1,1
0D00:01:58.211160000,8,1.329396,103.7863,270,7.89,175,45788,3,0,-10,-8,-1,4,10,12,0,2,0,1,-41,7,1635,1,-26,4,636,15.353,142.575,4367,1023,-3,-25,7,-919,-1370,4659,1374,1280,1371,1338,7,,,,1,1
0D00:01:58.311932000,8,1.329382,103.7863,269,8.7,193.7,45982,1,1,-16,-4,0,6,21,6,0,3,0,1,-2,8,1657,1,-1,4,658,15.113,129.875,4484,1023,-1,-2,10,-1390,-1165,3706,1391,1285,1431,1423,7,,,,1,1
0D00:01:58.512690000,8,1.329371,103.7863,269,8.29,211.6,46402,-3,-12,-21,-4,-2,2,12,-2,0,0,0,0,0,5,1684,0,0,3,685,14.874,56.85,4769,1023,4,14,10,-1504,-984,3229,1428,1419,1359,1534,7,,,,1,1
0D00:01:58.712322000,8,1.329365,103.7863,269,6.56,217.3,46789,-2,-7,3,-1,0,5,-6,-9,0,0,0,0,1,0,1684,0,1,0,684,15.034,172.675,5005,1023,3,9,-1,-1839,-674,-111,1390,1527,1388,1430,7,,,,1,1
0D00:01:58.912885000,8,1.329361,103.7863,267,5.88,231.7,47177,13,-5,11,0,-1,8,45,-17,0,0,0,7,42,0,1684,5,26,0,684,15.051,183.025,5168,1023,-10,33,-4,-1411,-794,2248,1180,1399,1566,1590,7,,,,1,1
0D00:01:59.212803000,8,1.329362,103.7863,269,5.01,243.8,47758,0,-1,-4,1,1,4,-6,9,0,0,0,3,17,0,1683,2,11,0,683,15.113,139.425,5299,1023,1,12,2,-207,-671,982,1464,1422,1444,1396,7,,,,1,1
0D00:01:59.303237000,8,1.329368,103.7863,273,5.42,282.8,47942,1,-4,-25,2,3,3,-17,-7,0,0,0,1,16,0,1683,1,10,0,683,15.016,107.075,5339,1023,-1,16,9,-157,-478,556,1499,1434,1320,1474,7,,,,1,1
0D00:01:59.502363000,8,1.329375,103.7863,275,5.91,296.4,48328,9,3,-9,3,0,5,13,-6,0,0,0,1,11,0,1682,1,7,0,682,15.007,66.4,5430,1023,-10,4,3,-479,-492,1055,1361,1366,1476,1516,7,,,,1,1
0D00:01:59.703356000,8,1.329385,103.7863,277,6.29,311.5,48716,-5,-6,-22,5,0,6,-26,-18,0,0,0,1,0,0,1682,1,0,0,682,15.14,158.75,5536,1023,7,7,8,-441,-325,810,1476,1516,1265,1463,6,,,,1,1
0D00:01:59.903756000,8,1.329396,103.7863,279,7.09,320,49104,0,-2,8,-1,0,9,5,-1,0,0,0,1,-6,0,1675,1,-4,0,675,15.113,131.725,5629,1023,1,0,-3,-1042,-885,-123,1353,1462,1458,1394,7,,,,1,1
0D00:02:00.213810000,8,1.329408,103.7863,279,7.11,325.9,49695,0,-3,-14,0,-2,9,-22,-7,0,0,0,1,-7,-1,1648,1,-4,-1,648,15.282,96.475,5760,1023,0,0,4,-1540,-926,560,1397,1439,1264,1354,7,,,,1,1
0D00:02:00.304169000,8,1.329419,103.7863,277,6.38,336.7,49879,2,3,-4,-2,0,6,26,23,0,0,0,1,-7,-1,1644,1,-4,-1,643,15.308,40.925,5789,1023,-2,-8,1,-1698,-981,-533,1346,1235,1487,1349,7,,,,1,1
0D00:02:00.503865000,8,1.329428,103.7863,274,5.95,353.9,50266,-4,-1,28,0,-2,7,-5,-4,0,0,0,1,-1,-1,1634,1,-1,-1,634,15.406,94.725,5857,1023,6,1,-10,-1928,-808,-2680,1258,1470,1377,1240,8,,,,1,1
0D00:02:00.703987000,8,1.329433,103.7863,271,5.08,4.6,50653,-3,0,0,0,-4,5,5,11,0,-1,0,0,-15,-1,1627,0,-9,-1,626,15.433,100.975,5929,1023,4,-9,-1,-1830,-678,-1707,1317,1323,1351,1298,8,,,,1,1
0D00:02:00.904392000,8,1.329436,103.7863,272,2.35,12.9,51073,-1,5,-10,4,-5,3,-14,5,0,0,0,0,-25,-1,1601,0,-16,-1,600,15.69,126.425,5997,1023,2,-22,3,-2230,-490,102,1331,1271,1242,1242,8,,,,1,1
0D00:02:01.214509000,8,1.32944,103.7863,273,1.81,357.4,51664,1,-2,-8,2,-9,4,0,-5,0,0,0,-5,-18,-1,1528,-3,-11,-1,527,15.885,65.325,6076,1023,-5,-8,2,-2934,-680,-1267,1087,1154,1084,1191,7,,,,1,1
0D00:02:01.304730000,8,1.329445,103.7863,275,3.11,336.5,51848,-2,0,-12,3,-10,4,-7,-1,0,0,0,-20,-14,-1,1510,-12,-9,-1,509,15.973,47.55,6099,1023,-10,-8,4,-3002,-419,-135,1100,1122,1029,1124,7,,,,1,1
0D00:04:02.678736000,9,1.329399,103.7862,221,0.07,217.5,135824,3,3,1,0,5,72,5,0,0,0,0,-92,-39,42,1233,-59,-25,23,234,15.973,24.775,4941,1023,-63,-28,22,-2649,3193,1264,390,688,774,390,148,,,,1,1
0D00:04:02.713622000,9,1.3294,103.7862,222,0.07,217.5,135890,-1,0,-9,1,7,67,-6,-15,0,0,0,-92,-39,42,1234,-59,-25,23,234,16.009,19.475,4941,1023,-57,-24,26,-2516,3097,1359,424,730,661,430,148,,,,1,1
0D00:04:02.913177000,9,1.3294,103.7862,222,0.01,217.5,136277,1,-3,-3,9,3,23,2,3,0,0,0,-93,-39,50,1249,-60,-25,27,250,15.991,5.8,5172,1023,-62,-21,28,-2319,3028,1916,523,597,678,567,149,,,,1,1
0D00:04:03.223577000,9,1.3294,103.7862,223,0.03,217.5,136900,1,6,-5,10,-4,-10,-5,9,0,0,0,-82,-37,63,1293,-52,-23,34,293,16.044,6.075,4919,1023,-55,-31,36,-1845,2420,2897,724,594,688,699,150,,,,1,1
0D00:04:03.313549000,9,1.3294,103.7862,223,0.05,217.5,137052,2,-3,1,10,-4,-15,9,-4,0,0,0,-77,-33,63,1303,-49,-21,34,304,16.168,34.3,4881,1023,-51,-17,34,-1790,2678,3159,650,640,690,806,149,,,,1,1
