loopIteration, time (us), axisP[0], axisP[1], axisP[2], axisI[0], axisI[1], axisI[2], axisD[0], axisD[1], axisD[2], rcCommand[0], rcCommand[1], rcCommand[2], rcCommand[3], vbatLatest (V), rssi, gyroADC[0], gyroADC[1], gyroADC[2], accSmooth[0], accSmooth[1], accSmooth[2], motor[0], motor[1], motor[2], motor[3], flightModeFlags (flags), stateFlags (flags), failsafePhase (flags), rxSignalReceived, rxFlightChannelsValid
  0, 36347215,   0,   0,  -1,   0,   0,   0,   0,   0,   0,   0,   0,   0, 1000, 1.852, 1012,  -1,   0,   0, -372, -157, 4132, 116, 117, 121, 116, 0, 0, IDLE, 0, 0
  8, 36351273,   0,   0,   0,   0,   0,   0,   0,   0,   0,   0,   0,   0, 1000, 1.852, 1012,   0,   0,   0, -373, -160, 4132, 119, 119, 116, 116, ANGLE_MODE, GPS_FIX_HOME|GPS_FIX|SMALL_ANGLE, IDLE, 1, 1
 16, 36355349,   0,   0,   0,   0,   0,   0,  -1,  -1,   0,   0,   0,   0, 1000, 1.852, 1012,   0,   0,   0, -377, -159, 4129, 118, 123, 116, 117, ANGLE_MODE, GPS_FIX_HOME|GPS_FIX|SMALL_ANGLE, IDLE, 1, 1
 24, 36359414,   0,   0,   0,   0,   0,   0,   0,   0,   0,   0,   0,   0, 1000, 1.852, 1012,   0,   0,   0, -377, -154, 4128, 118, 121, 116, 116, ANGLE_MODE, GPS_FIX_HOME|GPS_FIX|SMALL_ANGLE, IDLE, 1, 1
 32, 36363480,   0,   0,   0,   0,   0,   0,   0,   0,   0,   0,   0,   0, 1000, 1.852, 1012,   0,   0,   0, -382, -156, 4126, 118, 118, 116, 116, ANGLE_MODE, GPS_FIX_HOME|GPS_FIX|SMALL_ANGLE, IDLE, 1, 1
 40, 36367538,   0,   0,   0,   0,   0,   0,   1,   0,   0,   0,   0,   0, 1000, 1.852, 1012,   0,   0,   0, -390, -163, 4126, 116, 118, 118, 121, ANGLE_MODE, GPS_FIX_HOME|GPS_FIX|SMALL_ANGLE, IDLE, 1, 1
 48, 36371620,   0,   0,   0,   0,   0,   0,   0,   0,   0,   0,   0,   0, 1000, 1.852, 1012,   0,   0,   0, -393, -167, 4125, 116, 118, 117, 116, ANGLE_MODE, GPS_FIX_HOME|GPS_FIX|SMALL_ANGLE, IDLE, 1, 1
 56, 36375698,   0,   0,   1,   0,   0,   0,  -1,   1,   0,   0,   0,   0, 1000, 1.852, 1012,   0,   0,   0, -394, -172, 4124, 124, 116, 116, 116, ANGLE_MODE, GPS_FIX_HOME|GPS_FIX|SMALL_ANGLE, IDLE, 1, 1
 64, 36379756,   0,   0,   1,   0,   0,   0,   0,   0,   0,   0,   0,   0, 1000, 1.852, 1012,   0,   0,  -1, -398, -172, 4122, 122, 117, 116, 118, ANGLE_MODE, GPS_FIX_HOME|GPS_FIX|SMALL_ANGLE, IDLE, 1, 1
 72, 36383832,   0,   0,   0,   0,   0,   0,   0,   0,   0,   0,   0,   0, 1000, 1.852, 1012,   0,   0,   0, -400, -169, 4120, 121, 119, 116, 116, ANGLE_MODE, GPS_FIX_HOME|GPS_FIX|SMALL_ANGLE, IDLE, 1, 1
 80, 36387893,   0,   0,   0,   0,   0,   0,   0,   0,   0,   0,   0,   0, 1000, 1.852, 1012,   0,   0,   0, -402, -169, 4120, 118, 118, 116, 116, ANGLE_MODE, GPS_FIX_HOME|GPS_FIX|SMALL_ANGLE, IDLE, 1, 1
256, 36477726,   0,   0,   0,   0,   0,   0,  -1,  -1,   0,   0,   0,   0, 1000, 1.852, 1023,   0,   0,   0, -412, -167, 4123, 126, 129, 115, 122, ANGLE_MODE, GPS_FIX_HOME|GPS_FIX|SMALL_ANGLE, IDLE, 1, 1
264, 36481790,   0,   0,   0,   0,   0,   0,   2,   0,   0,   0,   0,   0, 1000, 1.852, 1023,   0,   0,   0, -414, -167, 4121, 117, 116, 123, 126, ANGLE_MODE, GPS_FIX_HOME|GPS_FIX|SMALL_ANGLE, IDLE, 1, 1
272, 36486096,   0,   0,   0,   0,   0,   0,   2,   0,   0,   0,   0,   0, 1000, 1.852, 1023,  -1,   0,   0, -413, -179, 4123, 116, 117, 127, 125, ANGLE_MODE, GPS_FIX_HOME|GPS_FIX|SMALL_ANGLE, IDLE, 1, 1
280, 36490165,   0,   0,  -1,   0,   0,   0,   0,   1,   0,   0,   0,   0, 1000, 1.852, 1023,  -1,   0,   0, -411, -186, 4121, 118, 118, 124, 117, ANGLE_MODE, GPS_FIX_HOME|GPS_FIX|SMALL_ANGLE, IDLE, 1, 1
288, 36494243,   0,   0,   0,   0,   0,   0,  -2,   0,   0,   0,   0,   0, 1000, 1.852, 1023,   0,   0,   0, -395, -183, 4118, 126, 131, 118, 116, ANGLE_MODE, GPS_FIX_HOME|GPS_FIX|SMALL_ANGLE, IDLE, 1, 1
296, 36498319,  -1,   0,   0,   0,   0,   0,  -2,   0,   0,   0,   0,   0, 1000, 1.852, 1023,   1,   0,   0, -378, -179, 4117, 131, 135, 115, 119, ANGLE_MODE, GPS_FIX_HOME|GPS_FIX|SMALL_ANGLE, IDLE, 1, 1
304, 36502386,   0,   0,   0,   0,   0,   0,   1,   0,   0,   0,   0,   0, 1000, 1.852, 1023,   0,   0,   0, -370, -180, 4115, 115, 122, 120, 124, ANGLE_MODE, GPS_FIX_HOME|GPS_FIX|SMALL_ANGLE, IDLE, 1, 1
312, 36506445,   0,   0,   0,   0,   0,   0,   3,   0,   0,   0,   0,   0, 1000, 1.852, 1023,  -1,   0,   0, -365, -191, 4116, 117, 117, 133, 129, ANGLE_MODE, GPS_FIX_HOME|GPS_FIX|SMALL_ANGLE, IDLE, 1, 1
320, 36510510,   0,   0,   0,   0,   0,   0,   1,   1,   0,   0,   0,   0, 1000, 1.852, 1023,  -1,   0,   0, -360, -206, 4119, 122, 115, 128, 122, ANGLE_MODE, GPS_FIX_HOME|GPS_FIX|SMALL_ANGLE, IDLE, 1, 1
328, 36514575,   0,   0,   0,   0,   0,   0,  -1,   0,   0,   0,   0,   0, 1000, 1.852, 1023,   0,   0,   0, -359, -206, 4117, 125, 121, 118, 116, ANGLE_MODE, GPS_FIX_HOME|GPS_FIX|SMALL_ANGLE, IDLE, 1, 1
336, 36518642,  -1,   0,   0,   0,   0,   0,  -3,   0,   0,   0,   0,   0, 1000, 1.852, 1023,   1,   0,   0, -365, -190, 4117, 137, 137, 115, 118, ANGLE_MODE, GPS_FIX_HOME|GPS_FIX|SMALL_ANGLE, IDLE, 1, 1
344, 36522705,  -1,   0,   0,   0,   0,   0,  -1,  -1,   0,   0,   0,   0, 1000, 1.852, 1023,   1,   0,   0, -372, -176, 4116, 126, 131, 115, 120, ANGLE_MODE, GPS_FIX_HOME|GPS_FIX|SMALL_ANGLE, IDLE, 1, 1
352, 36526762,   0,   0,   0,   0,   0,   0,   3,   0,   0,   0,   0,   0, 1000, 1.852, 1023,  -1,   0,   0, -380, -179, 4120, 116, 116, 130, 131, ANGLE_MODE, GPS_FIX_HOME|GPS_FIX|SMALL_ANGLE, IDLE, 1, 1
360, 36530836,   0,   0,  -1,   0,   0,   0,   3,   1,   0,   0,   0,   0, 1000, 1.852, 1023,  -1,   0,   1, -383, -195, 4127, 118, 120, 141, 128, ANGLE_MODE, GPS_FIX_HOME|GPS_FIX|SMALL_ANGLE, IDLE, 1, 1
368, 36534917,   0,   0,   0,   0,   0,   0,  -1,   0,   0,   0,   0,   0, 1000, 1.852, 1023,  -1,   0,   0, -384, -201, 4127, 124, 123, 123, 115, ANGLE_MODE, GPS_FIX_HOME|GPS_FIX|SMALL_ANGLE, IDLE, 1, 1
376, 36538975,  -1,   0,   0,   0,   0,   0,  -3,  -1,   0,   0,   0,   0, 1000, 1.852, 1023,   1,   0,   0, -386, -190, 4126, 134, 141, 116, 120, ANGLE_MODE, GPS_FIX_HOME|GPS_FIX|SMALL_ANGLE, IDLE, 1, 1
384, 36543053,  -1,   0,   0,   0,   0,   0,  -2,  -1,   0,   0,   0,   0, 1000, 1.852, 1023,   1,   0,   0, -394, -174, 4122, 134, 141, 115, 123, ANGLE_MODE, GPS_FIX_HOME|GPS_FIX|SMALL_ANGLE, IDLE, 1, 1
392, 36547116,   0,   0,   0,   0,   0,   0,   2,   0,   0,   0,   0,   0, 1000, 1.852, 1023,   0,   0,   0, -402, -168, 4121, 116, 116, 124, 126, ANGLE_MODE, GPS_FIX_HOME|GPS_FIX|SMALL_ANGLE, IDLE, 1, 1
400, 36551174,   0,   0,   0,   0,   0,   0,   4,   1,   0,   0,   0,   0, 1000, 1.852, 1023,  -1,   0,   0, -401, -182, 4123, 122, 115, 143, 137, ANGLE_MODE, GPS_FIX_HOME|GPS_FIX|SMALL_ANGLE, IDLE, 1, 1
408, 36555287,   0,   0,   0,   0,   0,   0,   0,   0,   0,   0,   0,   0, 1000, 1.852, 1023,  -1,   0,   0, -400, -193, 4124, 119, 117, 124, 117, ANGLE_MODE, GPS_FIX_HOME|GPS_FIX|SMALL_ANGLE, IDLE, 1, 1
416, 36559356,   0,   0,   0,   0,   0,   0,  -3,   0,   0,   0,   0,   0, 1000, 1.852, 1023,   0,   0,   0, -397, -179, 4124, 132, 139, 118, 117, ANGLE_MODE, GPS_FIX_HOME|GPS_FIX|SMALL_ANGLE, IDLE, 1, 1
424, 36563422,  -1,   0,   0,   0,   0,   0,  -3,  -1,   0,   0,   0,   0, 1000, 1.852, 1023,   1,   0,   0, -401, -159, 4122, 137, 145, 117, 120, ANGLE_MODE, GPS_FIX_HOME|GPS_FIX|SMALL_ANGLE, IDLE, 1, 1
432, 36567481,  -1,   0,   0,   0,   0,   0,   0,   0,   0,   0,   0,   0, 1000, 1.852, 1023,   0,   0,   0, -406, -150, 4120, 119, 121, 115, 121, ANGLE_MODE, GPS_FIX_HOME|GPS_FIX|SMALL_ANGLE, IDLE, 1, 1
440, 36571542,   0,   0,   0,   0,   0,   0,   5,   0,   0,   0,   0,   0, 1000, 1.852, 1023,  -1,   0,   0, -405, -163, 4123, 118, 115, 142, 139, ANGLE_MODE, GPS_FIX_HOME|GPS_FIX|SMALL_ANGLE, IDLE, 1, 1
448, 36575599,   0,   0,   0,   0,   0,   0,   2,   1,   0,   0,   0,   0, 1000, 1.852, 1023,  -1,   0,   0, -401, -185, 4123, 124, 116, 135, 125, ANGLE_MODE, GPS_FIX_HOME|GPS_FIX|SMALL_ANGLE, IDLE, 1, 1
456, 36579658,   0,   0,  -1,   0,   0,   0,  -3,   0,   0,   0,   0,   0, 1000, 1.852, 1023,   0,   0,   0, -398, -185, 4122, 130, 134, 120, 115, ANGLE_MODE, GPS_FIX_HOME|GPS_FIX|SMALL_ANGLE, IDLE, 1, 1
464, 36583729,  -1,   0,  -1,   0,   0,   0,  -4,  -2,   0,   0,   0,   0, 1000, 1.852, 1023,   1,   0,   0, -403, -165, 4119, 139, 153, 118, 124, ANGLE_MODE, GPS_FIX_HOME|GPS_FIX|SMALL_ANGLE, IDLE, 1, 1
472, 36588072,  -1,   0,   0,   0,   0,   0,  -1,   0,   0,   0,   0,   0, 1000, 1.852, 1023,   1,   1,   0, -409, -151, 4115, 130, 133, 115, 122, ANGLE_MODE, GPS_FIX_HOME|GPS_FIX|SMALL_ANGLE, IDLE, 1, 1
480, 36592148,   0,   0,   0,   0,   0,   0,   5,   1,   0,   0,   0,   0, 1000, 1.852, 1023,  -1,   0,   0, -405, -161, 4118, 122, 116, 144, 137, ANGLE_MODE, GPS_FIX_HOME|GPS_FIX|SMALL_ANGLE, IDLE, 1, 1
488, 36596237,   0,   0,   0,   0,   0,   0,   4,   1,   0,   0,   0,   0, 1000, 1.852, 1023,  -1,   0,   0, -404, -189, 4121, 120, 117, 145, 135, ANGLE_MODE, GPS_FIX_HOME|GPS_FIX|SMALL_ANGLE, IDLE, 1, 1
496, 36600295,   0,   0,  -1,   0,   0,   0,  -2,   0,   0,   0,   0,   0, 1000, 1.852, 1023,   0,   0,   1, -402, -200, 4122, 126, 131, 122, 115, ANGLE_MODE, GPS_FIX_HOME|GPS_FIX|SMALL_ANGLE, IDLE, 1, 1
504, 36604354,  -1,   0,  -1,   0,   0,   0,  -5,  -1,   0,   0,   0,   0, 1000, 1.852, 1023,   1,   0,   0, -405, -182, 4119, 144, 156, 118, 121, ANGLE_MODE, GPS_FIX_HOME|GPS_FIX|SMALL_ANGLE, IDLE, 1, 1
512, 36608431,  -1,   0,   0,   0,   0,   0,  -2,  -1,   0,   0,   0,   0, 1000, 1.852, 1023,   1,   1,   0, -413, -158, 4115, 134, 140, 115, 127, ANGLE_MODE, GPS_FIX_HOME|GPS_FIX|SMALL_ANGLE, IDLE, 1, 1
520, 36612486,   0,   0,   1,   0,   0,   0,   5,   1,   0,   0,   0,   0, 1000, 1.852, 1023,  -1,   0,   0, -413, -160, 4116, 122, 115, 137, 139, ANGLE_MODE, GPS_FIX_HOME|GPS_FIX|SMALL_ANGLE, IDLE, 1, 1
528, 36616559,   0,   0,   0,   0,   0,   0,   4,   2,   0,   0,   0,   0, 1000, 1.852, 1023,  -1,  -1,   0, -410, -188, 4121, 125, 117, 149, 136, ANGLE_MODE, GPS_FIX_HOME|GPS_FIX|SMALL_ANGLE, IDLE, 1, 1
536, 36620630,   0,   0,  -2,   0,   0,   0,   0,   0,   0,   0,   0,   0, 1000, 1.852, 1023,  -1,   0,   1, -404, -204, 4123, 120, 128, 128, 115, ANGLE_MODE, GPS_FIX_HOME|GPS_FIX|SMALL_ANGLE, IDLE, 1, 1
544, 36624722,  -1,   0,  -1,   0,   0,   0,  -5,  -2,   0,   0,   0,   0, 1000, 1.852, 1023,   1,   0,   1, -412, -184, 4121, 141, 161, 119, 125, ANGLE_MODE, GPS_FIX_HOME|GPS_FIX|SMALL_ANGLE, IDLE, 1, 1
552, 36628780,  -1,  -1,   1,   0,   0,   0,  -3,  -1,   0,   0,   0,   0, 1000, 1.843, 1023,   1,   1,   0, -419, -159, 4118, 141, 148, 115, 130, ANGLE_MODE, GPS_FIX_HOME|GPS_FIX|SMALL_ANGLE, IDLE, 1, 1
560, 36632847,   0,   0,   2,   0,   0,   0,   5,   1,   0,   0,   0,   0, 1000, 1.843, 1023,   0,   0,  -1, -417, -167, 4120, 128, 115, 138, 141, ANGLE_MODE, GPS_FIX_HOME|GPS_FIX|SMALL_ANGLE, IDLE, 1, 1
568, 36636915,   0,   0,   0,   0,   0,   0,   5,   1,   0,   0,   0,   0, 1000, 1.843, 1023,  -1,  -1,   0, -419, -195, 4122, 123, 116, 148, 139, ANGLE_MODE, GPS_FIX_HOME|GPS_FIX|SMALL_ANGLE, IDLE, 1, 1
576, 36640988,   0,   0,  -3,   0,   0,   0,   0,   0,   0,   0,   0,   0, 1000, 1.843, 1023,  -1,   0,   1, -419, -201, 4122, 116, 129, 127, 117, ANGLE_MODE, GPS_FIX_HOME|GPS_FIX|SMALL_ANGLE, IDLE, 1, 1
584, 36645043,  -1,   0,  -1,   0,   0,   0,  -6,  -1,   0,   0,   0,   0, 1000, 1.843, 1023,   1,   0,   0, -429, -178, 4117, 144, 160, 118, 123, ANGLE_MODE, GPS_FIX_HOME|GPS_FIX|SMALL_ANGLE, IDLE, 1, 1
592, 36649113,  -1,   0,   2,   0,   0,   0,  -2,  -1,   0,   0,   0,   0, 1000, 1.852, 1023,   1,   0,  -1, -430, -153, 4112, 142, 138, 115, 131, ANGLE_MODE, GPS_FIX_HOME|GPS_FIX|SMALL_ANGLE, IDLE, 1, 1
600, 36653187,   0,   0,   4,   0,   0,   0,   4,   1,   0,   0,   0,   0, 1000, 1.852, 1023,   0,   0,  -1, -426, -160, 4113, 133, 115, 133, 147, ANGLE_MODE, GPS_FIX_HOME|GPS_FIX|SMALL_ANGLE, IDLE, 1, 1
608, 36657252,   0,   0,  -1,   0,   0,   0,   4,   2,   0,   0,   0,   0, 1000, 1.852, 1023,  -1,  -1,   1, -419, -186, 4117, 120, 119, 145, 131, ANGLE_MODE, GPS_FIX_HOME|GPS_FIX|SMALL_ANGLE, IDLE, 1, 1
616, 36661325,   0,   0,  -5,   0,   0,   0,   0,   0,   0,   0,   0,   0, 1000, 1.852, 1023,  -1,   0,   2, -415, -197, 4120, 115, 139, 139, 117, ANGLE_MODE, GPS_FIX_HOME|GPS_FIX|SMALL_ANGLE, IDLE, 1, 1
624, 36665390,  -1,  -1,  -3,   0,   0,   0,  -4,  -2,   0,   0,   0,   0, 1000, 1.852, 1023,   0,   1,   1, -423, -179, 4117, 130, 160, 122, 126, ANGLE_MODE, GPS_FIX_HOME|GPS_FIX|SMALL_ANGLE, IDLE, 1, 1
632, 36669445,  -1,   0,   2,   0,   0,   0,  -2,   0,   0,   0,   0,   0, 1000, 1.852, 1023,   1,   0,  -1, -417, -156, 4115, 140, 134, 115, 129, ANGLE_MODE, GPS_FIX_HOME|GPS_FIX|SMALL_ANGLE, IDLE, 1, 1
640, 36673530,   0,   0,   4,   0,   0,   0,   3,   1,   0,   0,   0,   0, 1000, 1.852, 1023,   0,   0,  -2, -413, -160, 4115, 136, 115, 129, 141, ANGLE_MODE, GPS_FIX_HOME|GPS_FIX|SMALL_ANGLE, IDLE, 1, 1
648, 36677886,   0,   0,  -1,   0,   0,   0,   3,   1,   0,   0,   0,   0, 1000, 1.852, 1023,  -1,   0,   1, -408, -184, 4118, 118, 121, 140, 128, ANGLE_MODE, GPS_FIX_HOME|GPS_FIX|SMALL_ANGLE, IDLE, 1, 1
656, 36681945,   0,   0,  -4,   0,   0,   0,   0,   0,   0,   0,   0,   0, 1000, 1.852, 1023,  -1,   0,   2, -406, -196, 4121, 116, 137, 134, 118, ANGLE_MODE, GPS_FIX_HOME|GPS_FIX|SMALL_ANGLE, IDLE, 1, 1
664, 36685996,   0,   0,   0,   0,   0,   0,  -3,  -1,   0,   0,   0,   0, 1000, 1.852, 1023,   0,   0,   0, -416, -181, 4120, 132, 144, 117, 124, ANGLE_MODE, GPS_FIX_HOME|GPS_FIX|SMALL_ANGLE, IDLE, 1, 1
672, 36690079,  -1,   0,   4,   0,   0,   0,  -1,   0,   0,   0,   0,   0, 1000, 1.852, 1023,   0,   0,  -2, -414, -164, 4119, 145, 125, 116, 134, ANGLE_MODE, GPS_FIX_HOME|GPS_FIX|SMALL_ANGLE, IDLE, 1, 1
680, 36694147,   0,   0,   2,   0,   0,   0,   1,   0,   0,   0,   0,   0, 1000, 1.852, 1023,   0,   0,  -1, -410, -167, 4117, 127, 115, 122, 131, ANGLE_MODE, GPS_FIX_HOME|GPS_FIX|SMALL_ANGLE, IDLE, 1, 1
688, 36698206,   0,   0,  -2,   0,   0,   0,   1,   1,   0,   0,   0,   0, 1000, 1.852, 1023,  -1,   0,   1, -404, -184, 4121, 118, 125, 138, 121, ANGLE_MODE, GPS_FIX_HOME|GPS_FIX|SMALL_ANGLE, IDLE, 1, 1
696, 36702299,   0,   0,  -3,   0,   0,   0,   0,   0,   0,   0,   0,   0, 1000, 1.852, 1023,  -1,   0,   1, -401, -202, 4121, 115, 131, 131, 121, ANGLE_MODE, GPS_FIX_HOME|GPS_FIX|SMALL_ANGLE, IDLE, 1, 1
704, 36706503,   0,   0,   0,   0,   0,   0,  -1,  -1,   0,   0,   0,   0, 1000, 1.852, 1023,   0,   0,   0, -400, -200, 4118, 124, 131, 115, 126, ANGLE_MODE, GPS_FIX_HOME|GPS_FIX|SMALL_ANGLE, IDLE, 1, 1
712, 36710564,  -1,   0,   4,   0,   0,   0,  -2,   0,   0,   0,   0,   0, 1000, 1.852, 1023,   0,   0,  -2, -391, -198, 4114, 149, 127, 117, 132, ANGLE_MODE, GPS_FIX_HOME|GPS_FIX|SMALL_ANGLE, IDLE, 1, 1
720, 36714604,   0,   0,   0,   0,   0,   0,   0,   0,   0,   0,   0,   0, 1000, 1.852, 1023,   0,   0,   0, -389, -206, 4114, 121, 116, 120, 117, ANGLE_MODE, GPS_FIX_HOME|GPS_FIX|SMALL_ANGLE, IDLE, 1, 1
728, 36718664,   0,   0,  -4,   0,   0,   0,   2,   0,   0,   0,   0,   0, 1000, 1.852, 1023,  -1,   0,   1, -386, -221, 4116, 116, 132, 142, 122, ANGLE_MODE, GPS_FIX_HOME|GPS_FIX|SMALL_ANGLE, IDLE, 1, 1
736, 36722725,   0,   0,  -3,   0,   0,   0,   0,  -1,   0,   0,   0,   0, 1000, 1.852, 1023,  -1,   0,   1, -391, -218, 4115, 115, 135, 131, 126, ANGLE_MODE, GPS_FIX_HOME|GPS_FIX|SMALL_ANGLE, IDLE, 1, 1
744, 36726794,   0,   0,   2,   0,   0,   0,   0,   0,   0,   0,   0,   0, 1000, 1.852, 1023,   0,   0,  -1, -393, -205, 4114, 129, 121, 115, 125, ANGLE_MODE, GPS_FIX_HOME|GPS_FIX|SMALL_ANGLE, IDLE, 1, 1
752, 36730905,  -1,   0,   5,   0,   0,   0,  -2,   1,   0,   0,   0,   0, 1000, 1.852, 1023,   0,   0,  -2, -392, -196, 4111, 154, 127, 118, 134, ANGLE_MODE, GPS_FIX_HOME|GPS_FIX|SMALL_ANGLE, IDLE, 1, 1
760, 36734959,   0,   0,   0,   0,   0,   0,   0,   0,   0,   0,   0,   0, 1000, 1.852, 1023,   0,   0,   0, -395, -197, 4110, 122, 117, 118, 116, ANGLE_MODE, GPS_FIX_HOME|GPS_FIX|SMALL_ANGLE, IDLE, 1, 1
768, 36739104,   0,   0,  -3,   0,   0,   0,   1,   0,   0,   0,   0,   0, 1000, 1.852, 1023,   0,   0,   1, -397, -202, 4114, 116, 133, 137, 124, ANGLE_MODE, GPS_FIX_HOME|GPS_FIX|SMALL_ANGLE, IDLE, 1, 1
776, 36743177,   0,   0,  -1,   0,   0,   0,   0,  -1,   0,   0,   0,   0, 1000, 1.852, 1023,  -1,   0,   1, -404, -196, 4115, 116, 128, 126, 123, ANGLE_MODE, GPS_FIX_HOME|GPS_FIX|SMALL_ANGLE, IDLE, 1, 1
784, 36747249,   0,   0,   3,   0,   0,   0,   0,   0,   0,   0,   0,   0, 1000, 1.852, 1023,   0,   0,  -1, -403, -187, 4115, 138, 120, 118, 131, ANGLE_MODE, GPS_FIX_HOME|GPS_FIX|SMALL_ANGLE, IDLE, 1, 1
792, 36751316,  -1,   0,   3,   0,   0,   0,  -2,   0,   0,   0,   0,   0, 1000, 1.852, 1023,   0,   0,  -1, -402, -182, 4114, 144, 129, 118, 128, ANGLE_MODE, GPS_FIX_HOME|GPS_FIX|SMALL_ANGLE, IDLE, 1, 1
800, 36755395,   0,   0,  -2,   0,   0,   0,   0,   0,   0,   0,   0,   0, 1000, 1.852, 1023,   0,   0,   1, -403, -187, 4117, 117, 132, 126, 122, ANGLE_MODE, GPS_FIX_HOME|GPS_FIX|SMALL_ANGLE, IDLE, 1, 1
808, 36759460,   0,   0,  -3,   0,   0,   0,   1,   0,   0,   0,   0,   0, 1000, 1.852, 1023,   0,   0,   1, -400, -189, 4119, 116, 132, 133, 122, ANGLE_MODE, GPS_FIX_HOME|GPS_FIX|SMALL_ANGLE, IDLE, 1, 1
816, 36763517,   0,   0,   0,   0,   0,   0,   0,   0,   0,   0,   0,   0, 1000, 1.852, 1023,  -1,   0,   0, -405, -182, 4121, 116, 122, 120, 124, ANGLE_MODE, GPS_FIX_HOME|GPS_FIX|SMALL_ANGLE, IDLE, 1, 1
824, 36767577,   0,   0,   3,   0,   0,   0,   0,   0,   0,   0,   0,   0, 1000, 1.852, 1023,   0,   0,  -1, -404, -178, 4122, 136, 121, 117, 130, ANGLE_MODE, GPS_FIX_HOME|GPS_FIX|SMALL_ANGLE, IDLE, 1, 1
832, 36771652,   0,   0,   2,   0,   0,   0,  -1,   0,   0,   0,   0,   0, 1000, 1.852, 1023,   0,   0,  -1, -404, -178, 4121, 138, 125, 118, 124, ANGLE_MODE, GPS_FIX_HOME|GPS_FIX|SMALL_ANGLE, IDLE, 1, 1
840, 36775990,   0,   0,  -2,   0,   0,   0,   0,   0,   0,   0,   0,   0, 1000, 1.852, 1023,   0,   0,   1, -403, -185, 4124, 117, 126, 126, 117, ANGLE_MODE, GPS_FIX_HOME|GPS_FIX|SMALL_ANGLE, IDLE, 1, 1
848, 36780064,   0,   0,  -3,   0,   0,   0,   1,   0,   0,   0,   0,   0, 1000, 1.852, 1023,   0,   0,   1, -404, -197, 4124, 116, 133, 135, 122, ANGLE_MODE, GPS_FIX_HOME|GPS_FIX|SMALL_ANGLE, IDLE, 1, 1
856, 36784119,   0,   0,   0,   0,   0,   0,   0,   0,   0,   0,   0,   0, 1000, 1.852, 1023,   0,   0,   0, -402, -202, 4122, 120, 119, 116, 121, ANGLE_MODE, GPS_FIX_HOME|GPS_FIX|SMALL_ANGLE, IDLE, 1, 1
864, 36788298,   0,   0,   4,   0,   0,   0,  -1,   0,   0,   0,   0,   0, 1000, 1.852, 1023,   0,   0,  -2, -398, -208, 4122, 143, 124, 117, 134, ANGLE_MODE, GPS_FIX_HOME|GPS_FIX|SMALL_ANGLE, IDLE, 1, 1
872, 36792389,   0,   0,   1,   0,   0,   0,  -1,   0,   0,   0,   0,   0, 1000, 1.852, 1023,   0,   0,   0, -398, -216, 4121, 131, 125, 117, 121, ANGLE_MODE, GPS_FIX_HOME|GPS_FIX|SMALL_ANGLE, IDLE, 1, 1
880, 36796447,   0,   0,  -4,   0,   0,   0,   0,   0,   0,   0,   0,  -1, 1000, 1.852, 1023,   0,   0,   1, -399, -219, 4122, 116, 138, 134, 123, ANGLE_MODE, GPS_FIX_HOME|GPS_FIX|SMALL_ANGLE, IDLE, 1, 1
888, 36800509,   0,   0,  -4,   0,   0,   0,   0,   0,   0,   0,   0,  -1, 1000, 1.852, 1023,   0,   0,   1, -401, -211, 4121, 116, 138, 134, 124, ANGLE_MODE, GPS_FIX_HOME|GPS_FIX|SMALL_ANGLE, IDLE, 1, 1
896, 36804730,   0,   0,   0,   0,   0,   0,   0,   0,   0,   0,   0,  -1, 1000, 1.852, 1023,   0,   0,   0, -399, -205, 4121, 117, 120, 120, 116, ANGLE_MODE, GPS_FIX_HOME|GPS_FIX|SMALL_ANGLE, IDLE, 1, 1
904, 36808793,   0,   0,   2,   0,   0,   0,  -1,   0,   0,   0,   0,  -1, 1000, 1.852, 1023,   0,   0,  -1, -397, -203, 4121, 136, 127, 116, 127, ANGLE_MODE, GPS_FIX_HOME|GPS_FIX|SMALL_ANGLE, IDLE, 1, 1
912, 36812861,  -1,   0,   0,   0,   0,   0,  -1,   0,   0,   0,   0,  -1, 1000, 1.852, 1023,   1,   0,  -1, -399, -205, 4122, 127, 126, 117, 117, ANGLE_MODE, GPS_FIX_HOME|GPS_FIX|SMALL_ANGLE, IDLE, 1, 1
920, 36816941,   0,   0,  -4,   0,   0,   0,   0,   0,   0,   0,   0,  -1, 1000, 1.852, 1023,   0,   0,   1, -401, -200, 4122, 116, 137, 135, 120, ANGLE_MODE, GPS_FIX_HOME|GPS_FIX|SMALL_ANGLE, IDLE, 1, 1
928, 36821079,   0,   0,  -3,   0,   0,   0,   1,   0,   0,   0,   0,  -1, 1000, 1.852, 1023,   0,   0,   1, -402, -192, 4123, 116, 133, 132, 124, ANGLE_MODE, GPS_FIX_HOME|GPS_FIX|SMALL_ANGLE, IDLE, 1, 1
936, 36825140,   0,   0,   1,   0,   0,   0,   0,   0,   0,   0,   0,  -1, 1000, 1.852, 1023,   0,   0,  -1, -401, -191, 4124, 122, 117, 118, 125, ANGLE_MODE, GPS_FIX_HOME|GPS_FIX|SMALL_ANGLE, IDLE, 1, 1
944, 36829199,   0,   0,   1,   0,   0,   0,  -1,   0,   0,   0,   0,  -1, 1000, 1.852, 1023,   0,   0,  -1, -401, -192, 4122, 133, 127, 116, 122, ANGLE_MODE, GPS_FIX_HOME|GPS_FIX|SMALL_ANGLE, IDLE, 1, 1
952, 36833267,  -1,   0,  -2,   0,   0,   0,  -1,   0,   0,   0,   0,  -1, 1000, 1.852, 1023,   1,   0,   0, -403, -189, 4123, 128, 138, 125, 117, ANGLE_MODE, GPS_FIX_HOME|GPS_FIX|SMALL_ANGLE, IDLE, 1, 1
960, 36837345,   0,   0,  -4,   0,   0,   0,   1,   0,   0,   0,   0,  -1, 1000, 1.852, 1023,   0,   0,   1, -404, -180, 4122, 116, 138, 137, 124, ANGLE_MODE, GPS_FIX_HOME|GPS_FIX|SMALL_ANGLE, IDLE, 1, 1
968, 36841417,   0,   0,  -3,   0,   0,   0,   2,   0,   0,   0,   0,  -1, 1000, 1.852, 1023,  -1,   0,   1, -404, -177, 4122, 116, 132, 136, 126, ANGLE_MODE, GPS_FIX_HOME|GPS_FIX|SMALL_ANGLE, IDLE, 1, 1
976, 36845473,   0,   0,  -3,   0,   0,   0,   0,   0,   0,   0,   0,  -3, 1000, 1.852, 1023,   0,   0,   0, -397, -179, 4121, 118, 133, 131, 117, ANGLE_MODE, GPS_FIX_HOME|GPS_FIX|SMALL_ANGLE, IDLE, 1, 1
984, 36849536,   0,   0,  -1,   0,   0,   0,  -1,   0,   0,   0,   0,  -3, 1000, 1.852, 1023,   0,   0,  -1, -399, -178, 4120, 127, 135, 124, 116, ANGLE_MODE, GPS_FIX_HOME|GPS_FIX|SMALL_ANGLE, IDLE, 1, 1
992, 36853613,  -1,   0,  -3,   0,   0,   0,  -2,   0,   0,   0,   0,  -3, 1000, 1.852, 1023,   1,   0,  -1, -405, -170, 4119, 128, 146, 126, 119, ANGLE_MODE, GPS_FIX_HOME|GPS_FIX|SMALL_ANGLE, IDLE, 1, 1
1000, 36857687,   0,   0,  -6,   0,   0,   0,   1,   0,   0,   0,   0,  -4, 1000, 1.852, 1023,   0,   0,   0, -407, -165, 4118, 116, 144, 147, 123, ANGLE_MODE, GPS_FIX_HOME|GPS_FIX|SMALL_ANGLE, IDLE, 1, 1
1008, 36861761,   0,   0,  -4,   0,   0,   0,   3,   1,   0,   0,   0,  -4, 1000, 1.852, 1023,  -1,   0,  -1, -406, -167, 4118, 119, 133, 153, 130, ANGLE_MODE, GPS_FIX_HOME|GPS_FIX|SMALL_ANGLE, IDLE, 1, 1
1016, 36865815,   0,   0,  -2,   0,   0,   0,   0,   0,   0,   0,   0,  -4, 1000, 1.852, 1023,  -1,   0,  -1, -403, -175, 4118, 119, 128, 128, 116, ANGLE_MODE, GPS_FIX_HOME|GPS_FIX|SMALL_ANGLE, IDLE, 1, 1
1024, 36870232,   0,   0,  -3,   0,   0,   0,  -2,   0,   0,   0,   0,  -4, 1000, 1.852, 1023,   0,   0,  -1, -398, -176, 4117, 129, 148, 128, 117, ANGLE_MODE, GPS_FIX_HOME|GPS_FIX|SMALL_ANGLE, IDLE, 1, 1
1032, 36874293,  -1,   0,  -6,   0,   0,   0,  -2,   0,   0,   0,   0,  -4, 1000, 1.852, 1023,   1,   0,   0, -393, -174, 4115, 129, 162, 139, 119, ANGLE_MODE, GPS_FIX_HOME|GPS_FIX|SMALL_ANGLE, IDLE, 1, 1
1040, 36878362,   0,   0,  -7,   0,   0,   0,   3,   0,   0,   0,   0,  -4, 1000, 1.852, 1023,  -1,   0,   0, -388, -171, 4112, 115, 146, 154, 129, ANGLE_MODE, GPS_FIX_HOME|GPS_FIX|SMALL_ANGLE, IDLE, 1, 1
1048, 36882430,   0,   0,  -5,   0,   0,   0,   4,   1,   0,   0,   0,  -4, 1000, 1.852, 1023,  -1,   0,   0, -383, -182, 4113, 117, 133, 158, 134, ANGLE_MODE, GPS_FIX_HOME|GPS_FIX|SMALL_ANGLE, IDLE, 1, 1
1056, 36886488,   0,   0,  -3,   0,   0,   0,   0,   0,   0,   0,   0,  -4, 1000, 1.852, 1023,  -1,   0,  -1, -378, -197, 4114, 120, 132, 130, 115, ANGLE_MODE, GPS_FIX_HOME|GPS_FIX|SMALL_ANGLE, IDLE, 1, 1
1064, 36890558,  -1,   0,  -3,   0,   0,   0,  -3,  -1,   0,   0,   0,  -3, 1000, 1.852, 1023,   0,   0,   0, -382, -192, 4114, 132, 152, 127, 118, ANGLE_MODE, GPS_FIX_HOME|GPS_FIX|SMALL_ANGLE, IDLE, 1, 1
1072, 36894629,  -1,   0,  -6,   0,   0,   0,  -2,  -1,   0,   0,   0,  -3, 1000, 1.852, 1023,   1,   1,   1, -390, -174, 4113, 127, 161, 137, 120, ANGLE_MODE, GPS_FIX_HOME|GPS_FIX|SMALL_ANGLE, IDLE, 1, 1
1080, 36898720,   0,   0,  -5,   0,   0,   0,   4,   1,   0,   0,   0,  -3, 1000, 1.852, 1023,  -1,   0,   0, -389, -171, 4113, 118, 134, 156, 131, ANGLE_MODE, GPS_FIX_HOME|GPS_FIX|SMALL_ANGLE, IDLE, 1, 1
1088, 36902784,   1,   0,  -3,   0,   0,   0,   4,   1,   0,   0,   0,  -3, 1000, 1.852, 1023,  -2,   0,   0, -385, -184, 4115, 120, 126, 157, 133, ANGLE_MODE, GPS_FIX_HOME|GPS_FIX|SMALL_ANGLE, IDLE, 1, 1
1096, 36906833,   0,   0,  -5,   0,   0,   0,  -2,   0,   0,   0,   0,  -3, 1000, 1.852, 1023,  -1,   0,   0, -387, -195, 4116, 124, 149, 137, 117, ANGLE_MODE, GPS_FIX_HOME|GPS_FIX|SMALL_ANGLE, IDLE, 1, 1
1104, 36910941,  -1,   0,  -6,   0,   0,   0,  -4,  -1,   0,   0,   0,  -3, 1000, 1.852, 1023,   1,   0,   1, -396, -185, 4115, 134, 171, 137, 121, ANGLE_MODE, GPS_FIX_HOME|GPS_FIX|SMALL_ANGLE, IDLE, 1, 1
1112, 36915002,   0,   0,  -5,   0,   0,   0,   0,   0,   0,   0,   0,  -3, 1000, 1.852, 1023,   0,   0,   0, -403, -173, 4115, 119, 147, 134, 119, ANGLE_MODE, GPS_FIX_HOME|GPS_FIX|SMALL_ANGLE, IDLE, 1, 1
1120, 36919066,   0,   0,  -3,   0,   0,   0,   5,   2,   0,   0,   0,  -3, 1000, 1.852, 1023,  -1,  -1,   0, -397, -173, 4115, 120, 126, 158, 133, ANGLE_MODE, GPS_FIX_HOME|GPS_FIX|SMALL_ANGLE, IDLE, 1, 1
1128, 36923123,   0,   0,  -2,   0,   0,   0,   1,   0,   0,   0,   0,  -1, 1000, 1.852, 1023,  -1,   0,   0, -394, -186, 4116, 117, 123, 136, 124, ANGLE_MODE, GPS_FIX_HOME|GPS_FIX|SMALL_ANGLE, IDLE, 1, 1
1136, 36927170,   0,   0,  -4,   0,   0,   0,  -4,  -2,   0,   0,   0,  -1, 1000, 1.852, 1023,   0,   0,   1, -399, -195, 4119, 129, 160, 129, 121, ANGLE_MODE, GPS_FIX_HOME|GPS_FIX|SMALL_ANGLE, IDLE, 1, 1
1144, 36931247,  -1,  -1,  -3,   0,   0,   0,  -3,  -1,   0,   0,   0,  -1, 1000, 1.852, 1023,   1,   1,   1, -409, -182, 4119, 127, 152, 122, 121, ANGLE_MODE, GPS_FIX_HOME|GPS_FIX|SMALL_ANGLE, IDLE, 1, 1
1152, 36935295,   0,   0,   0,   0,   0,   0,   2,   1,   0,   0,   0,  -1, 1000, 1.852, 1023,   0,   0,   0, -406, -172, 4118, 121, 116, 130, 123, ANGLE_MODE, GPS_FIX_HOME|GPS_FIX|SMALL_ANGLE, IDLE, 1, 1
1160, 36939355,   0,   0,  -1,   0,   0,   0,   3,   2,   0,   0,   0,  -1, 1000, 1.852, 1023,  -1,  -1,   0, -389, -183, 4119, 123, 118, 147, 131, ANGLE_MODE, GPS_FIX_HOME|GPS_FIX|SMALL_ANGLE, IDLE, 1, 1
1168, 36943413,   0,   0,  -6,   0,   0,   0,  -1,  -1,   0,   0,   0,  -1, 1000, 1.852, 1023,   0,   0,   2, -376, -199, 4126, 122, 154, 140, 118, ANGLE_MODE, GPS_FIX_HOME|GPS_FIX|SMALL_ANGLE, IDLE, 1, 1
1176, 36947477,  -1,   0,  -6,   0,   0,   0,  -3,  -2,   0,   0,   0,  -1, 1000, 1.852, 1023,   0,   1,   2, -377, -197, 4129, 127, 166, 133, 123, ANGLE_MODE, GPS_FIX_HOME|GPS_FIX|SMALL_ANGLE, IDLE, 1, 1
1184, 36951535,   0,   0,   0,   0,   0,   0,   1,   0,   0,   0,   0,  -1, 1000, 1.852, 1023,   0,   0,   0, -378, -189, 4130, 115, 120, 123, 121, ANGLE_MODE, GPS_FIX_HOME|GPS_FIX|SMALL_ANGLE, IDLE, 1, 1
1192, 36955632,   0,   0,   1,   0,   0,   0,   3,   2,   0,   0,   0,  -1, 1000, 1.852, 1023,  -1,   0,  -1, -365, -195, 4128, 131, 115, 141, 132, ANGLE_MODE, GPS_FIX_HOME|GPS_FIX|SMALL_ANGLE, IDLE, 1, 1
1200, 36959692,   0,   0,  -4,   0,   0,   0,  -1,   0,   0,   0,   0,  -1, 1000, 1.852, 1023,   0,   0,   1, -362, -199, 4126, 126, 141, 133, 115, ANGLE_MODE, GPS_FIX_HOME|GPS_FIX|SMALL_ANGLE, IDLE, 1, 1
1208, 36964007,  -1,   0,  -6,   0,   0,   0,  -3,  -2,   0,   0,   0,  -1, 1000, 1.852, 1023,   1,   1,   2, -372, -198, 4127, 129, 169, 133, 123, ANGLE_MODE, GPS_FIX_HOME|GPS_FIX|SMALL_ANGLE, IDLE, 1, 1
1216, 36968058,   0,  -1,  -1,   0,   0,   0,   2,  -1,   0,   0,   0,  -1, 1000, 1.852, 1023,  -1,   1,   0, -384, -194, 4127, 115, 129, 127, 132, ANGLE_MODE, GPS_FIX_HOME|GPS_FIX|SMALL_ANGLE, IDLE, 1, 1
1224, 36972144,   0,   0,   1,   0,   0,   0,   3,   3,   0,   0,   0,  -1, 1000, 1.852, 1023,  -1,   0,  -1, -381, -195, 4125, 131, 115, 141, 136, ANGLE_MODE, GPS_FIX_HOME|GPS_FIX|SMALL_ANGLE, IDLE, 1, 1
1232, 36976235,  -1,   0,   1,   0,   0,   0,  -3,   1,   0,   0,   0,   0, 1000, 1.852, 1023,   0,   0,   0, -376, -203, 4121, 140, 131, 119, 118, ANGLE_MODE, GPS_FIX_HOME|GPS_FIX|SMALL_ANGLE, IDLE, 1, 1
1240, 36980303,  -1,   0,  -5,   0,   0,   0,  -4,  -2,   0,   0,   0,   0, 1000, 1.852, 1023,   1,   0,   2, -387, -196, 4118, 135, 170, 131, 122, ANGLE_MODE, GPS_FIX_HOME|GPS_FIX|SMALL_ANGLE, IDLE, 1, 1
1248, 36984375,   0,  -1,   4,   0,   0,   0,   1,  -2,   0,   0,   0,   5, 1000, 1.852, 1023,   0,   1,   1, -399, -188, 4119, 133, 129, 116, 148, ANGLE_MODE, GPS_FIX_HOME|GPS_FIX|SMALL_ANGLE, IDLE, 1, 1
1256, 36988428,   0,   0,   9,   0,   0,   0,   6,   2,   0,   0,   0,   5, 1000, 1.852, 1023,  -1,   0,   0, -402, -191, 4119, 155, 115, 146, 177, ANGLE_MODE, GPS_FIX_HOME|GPS_FIX|SMALL_ANGLE, IDLE, 1, 1
1264, 36992494,   0,   0,   5,   0,   0,   0,   0,   2,   0,   0,   0,   5, 1000, 1.852, 1023,   0,  -1,   1, -396, -201, 4117, 148, 116, 127, 136, ANGLE_MODE, GPS_FIX_HOME|GPS_FIX|SMALL_ANGLE, IDLE, 1, 1
1272, 36996577,  -2,   0,   0,   0,   0,   0,  -6,  -1,   0,   0,   0,   7, 1000, 1.852, 1023,   1,   0,   4, -398, -201, 4113, 149, 160, 117, 121, ANGLE_MODE, GPS_FIX_HOME|GPS_FIX|SMALL_ANGLE, IDLE, 1, 1
1280, 37000637,  -1,  -1,   0,   0,   0,   0,  -1,  -2,   0,   0,   0,   7, 1000, 1.852, 1023,   1,   1,   4, -404, -183, 4114, 131, 145, 115, 131, ANGLE_MODE, GPS_FIX_HOME|GPS_FIX|SMALL_ANGLE, IDLE, 1, 1
1288, 37004697,   0,   0,  20,   0,   0,   0,   6,   0,   0,   0,   0,  16, 1000, 1.852, 1023,  -1,   0,   1, -406, -173, 4115, 197, 117, 141, 227, ANGLE_MODE, GPS_FIX_HOME|GPS_FIX|SMALL_ANGLE, IDLE, 1, 1
1296, 37008744,   1,   0,  16,   0,   0,   0,   5,   2,   0,   0,   0,  16, 1000, 1.843, 1023,  -2,   0,   3, -397, -188, 4111, 186, 115, 146, 205, ANGLE_MODE, GPS_FIX_HOME|GPS_FIX|SMALL_ANGLE, IDLE, 1, 1
1304, 37012810,   0,   0,   0,   0,   0,   0,  -4,   0,   0,   0,   0,  16, 1000, 1.843, 1023,   0,   0,   9, -389, -200, 4107, 138, 134, 117, 116, ANGLE_MODE, GPS_FIX_HOME|GPS_FIX|SMALL_ANGLE, IDLE, 1, 1
1312, 37016893,  -1,   0,  -1,   0,   0,   0,  -4,  -1,   0,   0,   0,  17, 1000, 1.843, 1023,   1,   0,  10, -386, -186, 4106, 136, 151, 119, 119, ANGLE_MODE, GPS_FIX_HOME|GPS_FIX|SMALL_ANGLE, IDLE, 1, 1
1320, 37020962,   0,  -1,   8,   0,   0,   0,   2,  -3,   0,   0,   0,  17, 1000, 1.843, 1023,  -1,   1,   6, -387, -173, 4104, 143, 133, 120, 174, ANGLE_MODE, GPS_FIX_HOME|GPS_FIX|SMALL_ANGLE, IDLE, 1, 1
1328, 37025061,   1,  -1,  29,   0,   0,   0,   5,   0,   0,   0,   0,  26, 1000, 1.843, 1023,  -2,   1,   4, -385, -176, 4105, 231, 121, 136, 266, ANGLE_MODE, GPS_FIX_HOME|GPS_FIX|SMALL_ANGLE, IDLE, 1, 1
1336, 37029126,   0,  -1,  18,   0,   0,   0,  -1,   1,   0,   0,   0,  26, 1000, 1.834, 1023,  -1,   1,   8, -378, -190, 4106, 199, 123, 115, 192, ANGLE_MODE, GPS_FIX_HOME|GPS_FIX|SMALL_ANGLE, IDLE, 1, 1
1344, 37033198,   0,  -1,   1,   0,   0,   0,  -3,   1,   0,   0,   0,  26, 1000, 1.834, 1023,   0,   1,  14, -368, -191, 4112, 139, 132, 115, 122, ANGLE_MODE, GPS_FIX_HOME|GPS_FIX|SMALL_ANGLE, IDLE, 1, 1
1352, 37037305,   0,  -2,  12,   0,   0,   0,   2,  -1,   0,   0,   0,  27, 1000, 1.834, 1023,  -1,   2,  10, -370, -188, 4114, 157, 126, 122, 187, ANGLE_MODE, GPS_FIX_HOME|GPS_FIX|SMALL_ANGLE, IDLE, 1, 1
1360, 37041371,   2,  -3,  24,   0,   0,   0,   6,  -5,   0,   0,   0,  27, 1000, 1.834, 1023,  -3,   3,   6, -381, -183, 4115, 199, 133, 132, 266, ANGLE_MODE, GPS_FIX_HOME|GPS_FIX|SMALL_ANGLE, IDLE, 1, 1
1368, 37045454,   0,  -2,  20,   0,   0,   0,  -3,   0,   0,   0,   0,  27, 1000, 1.834, 1023,  -1,   2,   8, -379, -183, 4117, 206, 137, 115, 204, ANGLE_MODE, GPS_FIX_HOME|GPS_FIX|SMALL_ANGLE, IDLE, 1, 1
1376, 37049505,  -1,  -1,  11,   0,   0,   0,  -7,   5,   0,   0,   0,   7, 1000, 1.843, 1023,   1,   1,  11, -363, -187, 4121, 205, 144, 124, 151, ANGLE_MODE, GPS_FIX_HOME|GPS_FIX|SMALL_ANGLE, IDLE, 1, 1
1384, 37053816,   0,  -2, -14,   0,   0,   0,   3,   1,   0,   0,   0,   7, 1000, 1.843, 1023,  -1,   1,   9, -365, -195, 4118, 115, 174, 185, 132, ANGLE_MODE, GPS_FIX_HOME|GPS_FIX|SMALL_ANGLE, IDLE, 1, 1
1392, 37057869,   1,  -3,  -5,   0,   0,   0,   7,  -6,   0,   0,   0,  -1, 1000, 1.843, 1023,  -2,   3,   1, -392, -198, 4115, 115, 169, 164, 183, ANGLE_MODE, GPS_FIX_HOME|GPS_FIX|SMALL_ANGLE, IDLE, 1, 1
1400, 37061930,  -1,  -1,   5,   0,   0,   0,  -5,   1,   0,   0,   0,  -1, 1000, 1.843, 1023,   0,   2,  -2, -407, -194, 4116, 162, 145, 115, 137, ANGLE_MODE, GPS_FIX_HOME|GPS_FIX|SMALL_ANGLE, IDLE, 1, 1
1408, 37066003,  -3,   0,   7,   0,   0,   0,  -8,   8,   0,   0,   0,  -1, 1000, 1.852, 1023,   2,   0,  -3, -402, -196, 4115, 210, 148, 133, 130, ANGLE_MODE, GPS_FIX_HOME|GPS_FIX|SMALL_ANGLE, IDLE, 1, 1
1416, 37070066,  -3,   0,   6,   0,   0,   0,  -3,   1,   0,   0,   0,  -1, 1000, 1.852, 1023,   3,   0,  -3, -422, -198, 4111, 173, 143, 118, 138, ANGLE_MODE, GPS_FIX_HOME|GPS_FIX|SMALL_ANGLE, IDLE, 1, 1
1424, 37074128,  -4,  -1,   9,   0,   0,   0,  -1,  -4,   0,   0,   0,  -1, 1000, 1.852, 1023,   4,   1,  -4, -452, -189, 4109, 168, 150, 115, 167, ANGLE_MODE, GPS_FIX_HOME|GPS_FIX|SMALL_ANGLE, IDLE, 1, 1
1432, 37078212,  -2,   0,  15,   0,   0,   0,   2,   4,   0,   0,   0,  -1, 1000, 1.852, 1023,   2,  -1,  -6, -466, -176, 4112, 198, 116, 133, 178, ANGLE_MODE, GPS_FIX_HOME|GPS_FIX|SMALL_ANGLE, IDLE, 1, 1
1440, 37082280,  -2,   1,  10,   0,   0,   0,   2,   5,   0,   0,   0,  -1, 1000, 1.852, 1023,   2,  -2,  -4, -467, -185, 4110, 191, 116, 144, 159, ANGLE_MODE, GPS_FIX_HOME|GPS_FIX|SMALL_ANGLE, IDLE, 1, 1
1448, 37086333,  -4,   1,   1,   0,   0,   0,  -5,   0,   0,   0,   0,  -1, 1000, 1.843, 1023,   4,  -2,  -1, -480, -197, 4108, 168, 154, 119, 119, ANGLE_MODE, GPS_FIX_HOME|GPS_FIX|SMALL_ANGLE, IDLE, 1, 1
1456, 37090408,  -5,   1,   4,   0,   0,   0,  -5,  -1,   0,   0,   0,  -1, 1000, 1.843, 1023,   5,  -2,  -2, -487, -208, 4107, 175, 160, 115, 133, ANGLE_MODE, GPS_FIX_HOME|GPS_FIX|SMALL_ANGLE, IDLE, 1, 1
1464, 37094473,  -3,   1,  15,   0,   0,   0,   5,   2,   0,   0,   0,  -1, 1000, 1.843, 1023,   3,  -3,  -6, -478, -218, 4106, 191, 115, 138, 182, ANGLE_MODE, GPS_FIX_HOME|GPS_FIX|SMALL_ANGLE, IDLE, 1, 1
1472, 37098538,  -1,   1,  15,   0,   0,   0,   7,   0,   0,   0,   0,  -1, 1000, 1.843, 1023,   1,  -2,  -6, -474, -234, 4109, 179, 115, 140, 194, ANGLE_MODE, GPS_FIX_HOME|GPS_FIX|SMALL_ANGLE, IDLE, 1, 1
1480, 37102614,  -4,   1,   5,   0,   0,   0,  -4,  -1,   0,   0,   0,  -1, 1000, 1.843, 1023,   4,  -2,  -2, -467, -240, 4108, 175, 153, 115, 138, ANGLE_MODE, GPS_FIX_HOME|GPS_FIX|SMALL_ANGLE, IDLE, 1, 1
1488, 37106666,  -4,   1,   3,   0,   0,   0,  -5,   0,   0,   0,   0,  -1, 1000, 1.852, 1023,   4,  -2,  -2, -453, -223, 4108, 178, 153, 120, 126, ANGLE_MODE, GPS_FIX_HOME|GPS_FIX|SMALL_ANGLE, IDLE, 1, 1
1496, 37110753,  -1,   0,  12,   0,   0,   0,   8,  -1,   0,   0,   0,  -1, 1000, 1.852, 1023,   1,  -1,  -5, -438, -216, 4112, 165, 118, 141, 197, ANGLE_MODE, GPS_FIX_HOME|GPS_FIX|SMALL_ANGLE, IDLE, 1, 1
1504, 37114812,   0,   0,  15,   0,   0,   0,   9,  -3,   0,   0,   0,  -1, 1000, 1.852, 1023,  -1,   0,  -6, -422, -211, 4116, 168, 124, 146, 224, ANGLE_MODE, GPS_FIX_HOME|GPS_FIX|SMALL_ANGLE, IDLE, 1, 1
1512, 37118951,  -2,   0,   3,   0,   0,   0,  -5,   0,   0,   0,   0,  -1, 1000, 1.852, 1023,   2,   0,  -2, -402, -197, 4118, 161, 150, 115, 133, ANGLE_MODE, GPS_FIX_HOME|GPS_FIX|SMALL_ANGLE, IDLE, 1, 1
1520, 37123082,  -2,   0,   0,   0,   0,   0,  -5,   1,   0,   0,   0,  -1, 1000, 1.852, 1023,   2,  -1,   0, -375, -176, 4117, 154, 150, 123, 115, ANGLE_MODE, GPS_FIX_HOME|GPS_FIX|SMALL_ANGLE, IDLE, 1, 1
1528, 37127133,   0,  -1,   7,   0,   0,   0,   9,  -3,   0,   0,   0,  -1, 1000, 1.852, 1023,  -2,   1,  -3, -369, -163, 4118, 135, 126, 146, 198, ANGLE_MODE, GPS_FIX_HOME|GPS_FIX|SMALL_ANGLE, IDLE, 1, 1
1536, 37131195,   1,  -2,  12,   0,   0,   0,   7,  -4,   0,   0,   0,  -1, 1000, 1.852, 1023,  -2,   1,  -5, -365, -159, 4123, 154, 128, 140, 216, ANGLE_MODE, GPS_FIX_HOME|GPS_FIX|SMALL_ANGLE, IDLE, 1, 1
1544, 37135252,  -1,   0,   3,   0,   0,   0,  -7,   3,   0,   0,   0,  -1, 1000, 1.852, 1023,   1,   0,  -2, -351, -150, 4122, 172, 144, 122, 125, ANGLE_MODE, GPS_FIX_HOME|GPS_FIX|SMALL_ANGLE, IDLE, 1, 1
1552, 37139338,   0,   0,  -2,   0,   0,   0,  -4,   3,   0,   0,   0,  -1, 1000, 1.852, 1023,   0,   0,   0, -343, -142, 4124, 144, 140, 133, 115, ANGLE_MODE, GPS_FIX_HOME|GPS_FIX|SMALL_ANGLE, IDLE, 1, 1
1560, 37143406,   0,  -1,   4,   0,   0,   0,   6,  -4,   0,   0,   0,   0, 1000, 1.852, 1023,  -2,   1,  -1, -362, -139, 4120, 124, 133, 135, 178, ANGLE_MODE, GPS_FIX_HOME|GPS_FIX|SMALL_ANGLE, IDLE, 1, 1
1568, 37147721,   0,  -1,   9,   0,   0,   0,   2,   0,   0,   0,   0,   0, 1000, 1.843, 1023,  -2,   1,  -3, -382, -135, 4125, 149, 120, 127, 174, ANGLE_MODE, GPS_FIX_HOME|GPS_FIX|SMALL_ANGLE, IDLE, 1, 1
1576, 37151797,   0,   0,   5,   0,   0,   0,  -3,   6,   0,   0,   0,  -1, 1000, 1.843, 1023,  -1,  -1,  -2, -376, -134, 4120, 172, 122, 138, 130, ANGLE_MODE, GPS_FIX_HOME|GPS_FIX|SMALL_ANGLE, IDLE, 1, 1
1584, 37155851,   0,   0,  -2,   0,   0,   0,  -1,   1,   0,   0,   0,  -1, 1000, 1.843, 1023,   0,  -1,   0, -393, -144, 4118, 128, 130, 130, 115, ANGLE_MODE, GPS_FIX_HOME|GPS_FIX|SMALL_ANGLE, IDLE, 1, 1
1592, 37159916,   0,   0,   0,   0,   0,   0,   0,  -4,   0,   0,   0,  -1, 1000, 1.843, 1023,  -1,   0,   0, -417, -150, 4115, 115, 139, 122, 139, ANGLE_MODE, GPS_FIX_HOME|GPS_FIX|SMALL_ANGLE, IDLE, 1, 1
1600, 37163987,   0,   0,   3,   0,   0,   0,   1,   1,   0,   0,   0,  -1, 1000, 1.843, 1023,  -1,  -1,  -2, -427, -137, 4116, 135, 115, 127, 135, ANGLE_MODE, GPS_FIX_HOME|GPS_FIX|SMALL_ANGLE, IDLE, 1, 1
1608, 37168039,   0,   1,   5,   0,   0,   0,   0,   4,   0,   0,   0,  -1, 1000, 1.852, 1023,  -1,  -2,  -3, -417, -141, 4113, 163, 115, 143, 141, ANGLE_MODE, GPS_FIX_HOME|GPS_FIX|SMALL_ANGLE, IDLE, 1, 1
1616, 37172098,   0,   0,   0,   0,   0,   0,   0,   0,   0,   0,   0,  -1, 1000, 1.852, 1023,  -1,  -1,   0, -422, -155, 4108, 117, 120, 118, 116, ANGLE_MODE, GPS_FIX_HOME|GPS_FIX|SMALL_ANGLE, IDLE, 1, 1
1624, 37176187,   0,   0,  -4,   0,   0,   0,  -1,  -4,   0,   0,   0,  -1, 1000, 1.852, 1023,   0,   0,   1, -437, -175, 4109, 119, 155, 128, 130, ANGLE_MODE, GPS_FIX_HOME|GPS_FIX|SMALL_ANGLE, IDLE, 1, 1
1632, 37180285,   0,   0,   0,   0,   0,   0,   0,   0,   0,   0,   0,  -1, 1000, 1.852, 1023,  -1,  -1,  -1, -437, -183, 4108, 122, 115, 123, 121, ANGLE_MODE, GPS_FIX_HOME|GPS_FIX|SMALL_ANGLE, IDLE, 1, 1
1640, 37184348,   1,   0,   5,   0,   0,   0,   4,   2,   0,   0,   0,  -1, 1000, 1.852, 1023,  -2,  -1,  -2, -433, -199, 4108, 145, 115, 145, 152, ANGLE_MODE, GPS_FIX_HOME|GPS_FIX|SMALL_ANGLE, IDLE, 1, 1
1648, 37188395,   1,   0,   2,   0,   0,   0,   0,  -3,   0,   0,   0,  -1, 1000, 1.852, 1023,  -2,   0,  -1, -435, -218, 4105, 122, 124, 119, 143, ANGLE_MODE, GPS_FIX_HOME|GPS_FIX|SMALL_ANGLE, IDLE, 1, 1
1656, 37192475,   0,   0,  -4,   0,   0,   0,  -4,  -2,   0,   0,   0,  -1, 1000, 1.852, 1023,   0,   0,   1, -438, -221, 4111, 127, 156, 126, 121, ANGLE_MODE, GPS_FIX_HOME|GPS_FIX|SMALL_ANGLE, IDLE, 1, 1
1664, 37196551,   0,   0,  -3,   0,   0,   0,  -2,   1,   0,   0,   0,  -1, 1000, 1.852, 1023,  -1,   0,   1, -426, -207, 4113, 128, 138, 133, 115, ANGLE_MODE, GPS_FIX_HOME|GPS_FIX|SMALL_ANGLE, IDLE, 1, 1
1672, 37200605,   1,   0,   1,   0,   0,   0,   6,   1,   0,   0,   0,  -1, 1000, 1.852, 1023,  -3,   0,  -1, -417, -205, 4113, 127, 115, 153, 151, ANGLE_MODE, GPS_FIX_HOME|GPS_FIX|SMALL_ANGLE, IDLE, 1, 1
1680, 37204703,   1,   0, -11,   0,   0,   0,   2,  -2,   0,   0,   0, -10, 1000, 1.852, 1023,  -2,   0,  -1, -413, -217, 4113, 115, 169, 171, 138, ANGLE_MODE, GPS_FIX_HOME|GPS_FIX|SMALL_ANGLE, IDLE, 1, 1
1688, 37208761,   0,   0, -15,   0,   0,   0,  -4,   0,   0,   0,   0, -10, 1000, 1.843, 1023,  -1,   0,   0, -411, -214, 4119, 132, 197, 175, 117, ANGLE_MODE, GPS_FIX_HOME|GPS_FIX|SMALL_ANGLE, IDLE, 1, 1
1696, 37212833,  -1,   0, -13,   0,   0,   0,  -5,   1,   0,   0,   0, -10, 1000, 1.843, 1023,   0,   0,  -1, -409, -195, 4120, 141, 191, 171, 115, ANGLE_MODE, GPS_FIX_HOME|GPS_FIX|SMALL_ANGLE, IDLE, 1, 1
1704, 37216891,   0,   0,  -6,   0,   0,   0,   2,   0,   0,   0,   0, -12, 1000, 1.843, 1023,  -1,   0,  -4, -413, -186, 4120, 116, 142, 155, 126, ANGLE_MODE, GPS_FIX_HOME|GPS_FIX|SMALL_ANGLE, IDLE, 1, 1
1712, 37220962,   1,   0,  -2,   0,   0,   0,   5,   0,   0,   0,   0, -12, 1000, 1.843, 1023,  -2,   0,  -6, -413, -194, 4118, 115, 127, 150, 145, ANGLE_MODE, GPS_FIX_HOME|GPS_FIX|SMALL_ANGLE, IDLE, 1, 1
1720, 37225021,   0,   0,  -6,   0,   0,   0,  -1,   0,   0,   0,   0, -12, 1000, 1.843, 1023,  -1,  -1,  -4, -414, -201, 4122, 123, 147, 145, 115, ANGLE_MODE, GPS_FIX_HOME|GPS_FIX|SMALL_ANGLE, IDLE, 1, 1
1728, 37229084,  -1,   0, -14,   0,   0,   0,  -6,   0,   0,   0,   0, -12, 1000, 1.852, 1023,   1,  -1,  -1, -420, -194, 4122, 151, 206, 176, 115, ANGLE_MODE, GPS_FIX_HOME|GPS_FIX|SMALL_ANGLE, IDLE, 1, 1
1736, 37233179,   0,   0, -11,   0,   0,   0,   0,   0,   0,   0,   0, -13, 1000, 1.852, 1023,   0,  -1,  -3, -423, -177, 4118, 120, 167, 162, 116, ANGLE_MODE, GPS_FIX_HOME|GPS_FIX|SMALL_ANGLE, IDLE, 1, 1
1744, 37237247,   1,   0,  -4,   0,   0,   0,   6,   0,   0,   0,   0, -13, 1000, 1.852, 1023,  -2,  -1,  -6, -418, -175, 4115, 116, 132, 165, 147, ANGLE_MODE, GPS_FIX_HOME|GPS_FIX|SMALL_ANGLE, IDLE, 1, 1
1752, 37241309,   0,   0,  -9,   0,   0,   0,   1,   0,   0,   0,   0, -13, 1000, 1.852, 1023,  -1,  -1,  -4, -411, -183, 4116, 117, 152, 164, 122, ANGLE_MODE, GPS_FIX_HOME|GPS_FIX|SMALL_ANGLE, IDLE, 1, 1
1760, 37245631,  -1,   0, -21,   0,   0,   0,  -6,  -1,   0,   0,   0, -15, 1000, 1.852, 1023,   1,   0,  -1, -418, -180, 4118, 144, 236, 200, 118, ANGLE_MODE, GPS_FIX_HOME|GPS_FIX|SMALL_ANGLE, IDLE, 1, 1
1768, 37249703,   0,   0, -15,   0,   0,   0,   0,   0,   0,   0,   0, -15, 1000, 1.843, 1023,   0,   0,  -3, -413, -168, 4117, 118, 183, 175, 117, ANGLE_MODE, GPS_FIX_HOME|GPS_FIX|SMALL_ANGLE, IDLE, 1, 1
1776, 37253762,   1,   0,  -3,   0,   0,   0,   7,   1,   0,   0,   0, -15, 1000, 1.843, 1023,  -3,  -1,  -7, -402, -171, 4121, 119, 126, 172, 151, ANGLE_MODE, GPS_FIX_HOME|GPS_FIX|SMALL_ANGLE, IDLE, 1, 1
1784, 37257826,   0,   0, -11,   0,   0,   0,   0,   0,   0,   0,   0, -15, 1000, 1.843, 1023,  -2,  -1,  -4, -393, -173, 4122, 115, 160, 167, 123, ANGLE_MODE, GPS_FIX_HOME|GPS_FIX|SMALL_ANGLE, IDLE, 1, 1
1792, 37261891,  -1,  -1, -21,   0,   0,   0,  -8,  -3,   0,   0,   0, -15, 1000, 1.843, 1023,   1,   1,  -1, -408, -170, 4122, 146, 251, 192, 125, ANGLE_MODE, GPS_FIX_HOME|GPS_FIX|SMALL_ANGLE, IDLE, 1, 1
1800, 37265943,   0,   0,   0,   0,   0,   0,   0,   0,   0,   0,   0,  -5, 1000, 1.843, 1023,   0,   0,  -3, -403, -161, 4122, 121, 122, 115, 120, ANGLE_MODE, GPS_FIX_HOME|GPS_FIX|SMALL_ANGLE, IDLE, 1, 1
1808, 37270003,   2,   0,  13,   0,   0,   0,  10,   5,   0,   0,   0,   0, 1000, 1.852, 1023,  -3,  -2,  -5, -384, -165, 4128, 183, 115, 178, 208, ANGLE_MODE, GPS_FIX_HOME|GPS_FIX|SMALL_ANGLE, IDLE, 1, 1
1816, 37274065,   1,   0,  -3,   0,   0,   0,   0,   0,   0,   0,   0,   0, 1000, 1.852, 1023,  -2,  -1,   1, -377, -168, 4124, 116, 127, 135, 122, ANGLE_MODE, GPS_FIX_HOME|GPS_FIX|SMALL_ANGLE, IDLE, 1, 1
1824, 37278126,   0,  -1, -15,   0,   0,   0,  -7,  -7,   0,   0,   0,   0, 1000, 1.852, 1023,   0,   1,   5, -404, -173, 4121, 131, 229, 162, 136, ANGLE_MODE, GPS_FIX_HOME|GPS_FIX|SMALL_ANGLE, IDLE, 1, 1
1832, 37282211,   1,   0,  -9,   0,   0,   0,   3,   1,   0,   0,   0,   0, 1000, 1.852, 1023,  -2,   0,   3, -404, -174, 4125, 119, 152, 178, 133, ANGLE_MODE, GPS_FIX_HOME|GPS_FIX|SMALL_ANGLE, IDLE, 1, 1
1840, 37286354,   2,   1,  -7,   0,   0,   0,   6,   8,   0,   0,   0,   0, 1000, 1.852, 1023,  -3,  -3,   3, -372, -171, 4127, 140, 131, 209, 139, ANGLE_MODE, GPS_FIX_HOME|GPS_FIX|SMALL_ANGLE, IDLE, 1, 1
1848, 37290416,   0,   0, -12,   0,   0,   0,  -6,  -1,   0,   0,   0,   0, 1000, 1.852, 1023,  -1,  -1,   4, -389, -175, 4120, 136, 192, 164, 118, ANGLE_MODE, GPS_FIX_HOME|GPS_FIX|SMALL_ANGLE, IDLE, 1, 1
1856, 37294487,   0,  -1, -11,   0,   0,   0,  -4,  -9,   0,   0,   0,   0, 1000, 1.852, 1023,  -1,   1,   4, -420, -185, 4112, 124, 217, 155, 153, ANGLE_MODE, GPS_FIX_HOME|GPS_FIX|SMALL_ANGLE, IDLE, 1, 1
1864, 37298544,   2,   0,  -3,   0,   0,   0,   8,   4,   0,   0,   0,   0, 1000, 1.852, 1023,  -3,  -1,   1, -408, -194, 4125, 125, 123, 183, 150, ANGLE_MODE, GPS_FIX_HOME|GPS_FIX|SMALL_ANGLE, IDLE, 1, 1
1872, 37302636,   0,   2,  -8,   0,   0,   0,   0,   8,   0,   0,   0,   0, 1000, 1.852, 1023,  -2,  -3,   3, -382, -192, 4128, 157, 150, 192, 116, ANGLE_MODE, GPS_FIX_HOME|GPS_FIX|SMALL_ANGLE, IDLE, 1, 1
1880, 37306671,  -1,   0, -12,   0,   0,   0,  -8,  -4,   0,   0,   0,   0, 1000, 1.852, 1023,   1,   0,   4, -401, -186, 4117, 146, 215, 154, 126, ANGLE_MODE, GPS_FIX_HOME|GPS_FIX|SMALL_ANGLE, IDLE, 1, 1
1888, 37310753,   0,  -1,  -5,   0,   0,   0,   2,  -9,   0,   0,   0,   0, 1000, 1.852, 1023,  -2,   1,   2, -419, -191, 4112, 115, 175, 144, 165, ANGLE_MODE, GPS_FIX_HOME|GPS_FIX|SMALL_ANGLE, IDLE, 1, 1
1896, 37314806,   2,   0,  -2,   0,   0,   0,   8,   5,   0,   0,   0,   0, 1000, 1.852, 1023,  -3,  -1,   1, -399, -199, 4128, 135, 120, 186, 153, ANGLE_MODE, GPS_FIX_HOME|GPS_FIX|SMALL_ANGLE, IDLE, 1, 1
1904, 37318869,   0,   0, -10,   0,   0,   0,  -5,   5,   0,   0,   0,   0, 1000, 1.852, 1023,   0,  -2,   4, -382, -195, 4131, 152, 170, 170, 115, ANGLE_MODE, GPS_FIX_HOME|GPS_FIX|SMALL_ANGLE, IDLE, 1, 1
1912, 37322929,  -1,  -1,  -9,   0,   0,   0,  -7,  -6,   0,   0,   0,  -1, 1000, 1.852, 1023,   1,   1,   3, -399, -190, 4124, 134, 205, 141, 131, ANGLE_MODE, GPS_FIX_HOME|GPS_FIX|SMALL_ANGLE, IDLE, 1, 1
1920, 37326980,   1,  -1,  -1,   0,   0,   0,   6,  -2,   0,   0,   0,  -1, 1000, 1.843, 1023,  -2,   1,   0, -390, -193, 4133, 115, 135, 152, 163, ANGLE_MODE, GPS_FIX_HOME|GPS_FIX|SMALL_ANGLE, IDLE, 1, 1
1928, 37331043,   1,   0,  -2,   0,   0,   0,   4,   5,   0,   0,   0,  -1, 1000, 1.843, 1023,  -2,  -1,   0, -368, -193, 4146, 134, 120, 165, 134, ANGLE_MODE, GPS_FIX_HOME|GPS_FIX|SMALL_ANGLE, IDLE, 1, 1
1936, 37335354,  -1,  -1,  -9,   0,   0,   0,  -8,  -1,   0,   0,   0,  -1, 1000, 1.843, 1023,   1,   1,   3, -381, -187, 4139, 152, 201, 149, 120, ANGLE_MODE, GPS_FIX_HOME|GPS_FIX|SMALL_ANGLE, IDLE, 1, 1
1944, 37339440,  -1,  -1,  -6,   0,   0,   0,  -3,  -4,   0,   0,   0,  -1, 1000, 1.843, 1023,   1,   1,   2, -393, -186, 4132, 126, 175, 129, 129, ANGLE_MODE, GPS_FIX_HOME|GPS_FIX|SMALL_ANGLE, IDLE, 1, 1
1952, 37343511,   0,   0,   2,   0,   0,   0,   7,   3,   0,   0,   0,  -1, 1000, 1.843, 1023,  -2,   0,  -1, -373, -191, 4137, 135, 115, 161, 154, ANGLE_MODE, GPS_FIX_HOME|GPS_FIX|SMALL_ANGLE, IDLE, 1, 1
1960, 37347585,   0,   0,  -3,   0,   0,   0,   0,   2,   0,   0,   0,  -1, 1000, 1.852, 1023,   0,   0,   1, -367, -192, 4140, 125, 128, 139, 116, ANGLE_MODE, GPS_FIX_HOME|GPS_FIX|SMALL_ANGLE, IDLE, 1, 1
1968, 37351679,  -2,  -2,  -6,   0,   0,   0,  -7,  -6,   0,   0,   0,   0, 1000, 1.852, 1023,   2,   2,   2, -398, -194, 4127, 143, 207, 128, 140, ANGLE_MODE, GPS_FIX_HOME|GPS_FIX|SMALL_ANGLE, IDLE, 1, 1
1976, 37355730,  -1,  -1,  -1,   0,   0,   0,   0,   0,   0,   0,   0,   0, 1000, 1.852, 1023,   1,   1,   1, -402, -196, 4125, 118, 132, 121, 119, ANGLE_MODE, GPS_FIX_HOME|GPS_FIX|SMALL_ANGLE, IDLE, 1, 1
1984, 37359794,   0,   1,   1,   0,   0,   0,   5,   8,   0,   0,   0,   0, 1000, 1.852, 1023,  -1,  -2,  -1, -369, -197, 4128, 158, 115, 171, 141, ANGLE_MODE, GPS_FIX_HOME|GPS_FIX|SMALL_ANGLE, IDLE, 1, 1
1992, 37363855,  -1,   0,   7,   0,   0,   0,  -3,   0,   0,   0,   0,   7, 1000, 1.852, 1023,   1,   0,   1, -374, -197, 4127, 163, 138, 115, 149, ANGLE_MODE, GPS_FIX_HOME|GPS_FIX|SMALL_ANGLE, IDLE, 1, 1
2000, 37367914,  -2,  -3,   6,   0,   0,   0,  -5, -10,   0,   0,   0,   7, 1000, 1.852, 1023,   2,   2,   2, -408, -200, 4112, 159, 189, 115, 184, ANGLE_MODE, GPS_FIX_HOME|GPS_FIX|SMALL_ANGLE, IDLE, 1, 1
2008, 37372051,   0,   0,   9,   0,   0,   0,   5,   3,   0,   0,   0,   8, 1000, 1.852, 1023,   0,   0,   1, -408, -203, 4118, 160, 115, 140, 170, ANGLE_MODE, GPS_FIX_HOME|GPS_FIX|SMALL_ANGLE, IDLE, 1, 1
2016, 37376120,   0,   1,   4,   0,   0,   0,   2,  10,   0,   0,   0,   8, 1000, 1.852, 1023,   0,  -2,   3, -369, -202, 4123, 178, 115, 165, 137, ANGLE_MODE, GPS_FIX_HOME|GPS_FIX|SMALL_ANGLE, IDLE, 1, 1
2024, 37380200,  -2,  -1,  14,   0,   0,   0,  -5,  -3,   0,   0,   0,  18, 1000, 1.852, 1023,   2,   1,   5, -375, -197, 4119, 198, 156, 115, 183, ANGLE_MODE, GPS_FIX_HOME|GPS_FIX|SMALL_ANGLE, IDLE, 1, 1
2032, 37384263,  -1,  -3,  23,   0,   0,   0,   0, -12,   0,   0,   0,  26, 1000, 1.852, 1023,   1,   3,   6, -403, -198, 4108, 212, 181, 115, 273, ANGLE_MODE, GPS_FIX_HOME|GPS_FIX|SMALL_ANGLE, IDLE, 1, 1
2040, 37388316,   0,  -1,  17,   0,   0,   0,   7,   3,   0,   0,   0,  26, 1000, 1.843, 1023,  -1,   1,   8, -398, -201, 4122, 189, 115, 151, 214, ANGLE_MODE, GPS_FIX_HOME|GPS_FIX|SMALL_ANGLE, IDLE, 1, 1
2048, 37392392,   0,   1,   5,   0,   0,   0,   0,   9,   0,   0,   0,  27, 1000, 1.843, 1023,  -1,  -2,  13, -361, -205, 4129, 180, 115, 159, 141, ANGLE_MODE, GPS_FIX_HOME|GPS_FIX|SMALL_ANGLE, IDLE, 1, 1
2056, 37396458,  -1,  -1,   4,   0,   0,   0,  -5,  -1,   0,   0,   0,  27, 1000, 1.843, 1023,   1,   1,  13, -357, -199, 4123, 155, 149, 115, 138, ANGLE_MODE, GPS_FIX_HOME|GPS_FIX|SMALL_ANGLE, IDLE, 1, 1
2064, 37400529,   0,  -3,  11,   0,   0,   0,   0, -12,   0,   0,   0,  27, 1000, 1.843, 1023,   0,   3,  11, -381, -193, 4110, 165, 183, 115, 224, ANGLE_MODE, GPS_FIX_HOME|GPS_FIX|SMALL_ANGLE, IDLE, 1, 1
2072, 37404626,   0,  -2,  17,   0,   0,   0,   5,   0,   0,   0,   0,  27, 1000, 1.843, 1023,  -1,   2,   8, -381, -194, 4122, 181, 120, 134, 215, ANGLE_MODE, GPS_FIX_HOME|GPS_FIX|SMALL_ANGLE, IDLE, 1, 1
2080, 37408702,   0,   0,  14,   0,   0,   0,   0,   8,   0,   0,   0,  27, 1000, 1.843, 1023,   0,   0,   9, -355, -198, 4130, 208, 117, 144, 174, ANGLE_MODE, GPS_FIX_HOME|GPS_FIX|SMALL_ANGLE, IDLE, 1, 1
2088, 37412799,   0,  -2,  14,   0,   0,   0,  -2,   0,   0,   0,   0,  27, 1000, 1.843, 1023,   0,   2,   9, -360, -205, 4117, 184, 135, 115, 181, ANGLE_MODE, GPS_FIX_HOME|GPS_FIX|SMALL_ANGLE, IDLE, 1, 1
2096, 37416862,   0,  -4,  18,   0,   0,   0,   1,  -8,   0,   0,   0,  27, 1000, 1.843, 1023,  -1,   3,   8, -387, -209, 4107, 188, 163, 119, 245, ANGLE_MODE, GPS_FIX_HOME|GPS_FIX|SMALL_ANGLE, IDLE, 1, 1
2104, 37420924,   0,  -2,  21,   0,   0,   0,   0,   1,   0,   0,   0,  27, 1000, 1.843, 1023,  -1,   2,   7, -402, -197, 4112, 201, 119, 117, 210, ANGLE_MODE, GPS_FIX_HOME|GPS_FIX|SMALL_ANGLE, IDLE, 1, 1
2112, 37425243,  -1,   0,  21,   0,   0,   0,  -2,   7,   0,   0,   0,  27, 1000, 1.843, 1023,   1,   0,   7, -412, -188, 4117, 232, 122, 133, 193, ANGLE_MODE, GPS_FIX_HOME|GPS_FIX|SMALL_ANGLE, IDLE, 1, 1
2120, 37429298,  -2,  -2,  16,   0,   0,   0,  -5,  -2,   0,   0,   0,  27, 1000, 1.843, 1023,   2,   2,   9, -441, -186, 4100, 208, 160, 115, 195, ANGLE_MODE, GPS_FIX_HOME|GPS_FIX|SMALL_ANGLE, IDLE, 1, 1
2128, 37433366,  -2,  -3,  19,   0,   0,   0,  -1,  -5,   0,   0,   0,  26, 1000, 1.843, 1023,   2,   3,   7, -467, -174, 4097, 200, 161, 115, 221, ANGLE_MODE, GPS_FIX_HOME|GPS_FIX|SMALL_ANGLE, IDLE, 1, 1
2136, 37437430,   0,  -1,  15,   0,   0,   0,   5,   3,   0,   0,   0,  17, 1000, 1.843, 1023,   0,   1,   4, -452, -177, 4102, 182, 115, 139, 194, ANGLE_MODE, GPS_FIX_HOME|GPS_FIX|SMALL_ANGLE, IDLE, 1, 1
2144, 37441488,   0,  -1,  16,   0,   0,   0,   4,   4,   0,   0,   0,  17, 1000, 1.843, 1023,   0,   1,   3, -446, -186, 4109, 188, 115, 135, 193, ANGLE_MODE, GPS_FIX_HOME|GPS_FIX|SMALL_ANGLE, IDLE, 1, 1
2152, 37445541,  -3,  -3,  12,   0,   0,   0,  -8,  -4,   0,   0,   0,  17, 1000, 1.843, 1023,   3,   3,   5, -456, -186, 4101, 197, 180, 115, 182, ANGLE_MODE, GPS_FIX_HOME|GPS_FIX|SMALL_ANGLE, IDLE, 1, 1
2160, 37449607,  -3,  -2,  22,   0,   0,   0,  -5,   0,   0,   0,   0,  17, 1000, 1.843, 1023,   3,   2,   1, -457, -175, 4099, 234, 160, 115, 213, ANGLE_MODE, GPS_FIX_HOME|GPS_FIX|SMALL_ANGLE, IDLE, 1, 1
2168, 37453744,   0,  -1,  34,   0,   0,   0,   8,   3,   0,   0,   0,  17, 1000, 1.843, 1023,   0,   1,  -3, -445, -174, 4104, 257, 115, 147, 279, ANGLE_MODE, GPS_FIX_HOME|GPS_FIX|SMALL_ANGLE, IDLE, 1, 1
2176, 37457796,  -1,  -1,  13,   0,   0,   0,   2,   1,   0,   0,   0,  10, 1000, 1.843, 1023,   1,   1,   1, -436, -186, 4109, 172, 115, 122, 177, ANGLE_MODE, GPS_FIX_HOME|GPS_FIX|SMALL_ANGLE, IDLE, 1, 1
2184, 37461856,  -4,  -1,   3,   0,   0,   0,  -8,  -1,   0,   0,   0,  10, 1000, 1.843, 1023,   4,   1,   4, -441, -187, 4110, 175, 173, 115, 136, ANGLE_MODE, GPS_FIX_HOME|GPS_FIX|SMALL_ANGLE, IDLE, 1, 1
2192, 37465917,  -3,  -2,   3,   0,   0,   0,  -1,   0,   0,   0,   0,   1, 1000, 1.843, 1023,   3,   2,  -1, -452, -172, 4108, 142, 142, 115, 133, ANGLE_MODE, GPS_FIX_HOME|GPS_FIX|SMALL_ANGLE, IDLE, 1, 1
2200, 37469968,  -1,  -1,  16,   0,   0,   0,   6,   0,   0,   0,   0,   1, 1000, 1.852, 1023,   1,   1,  -5, -450, -164, 4108, 179, 116, 131, 198, ANGLE_MODE, GPS_FIX_HOME|GPS_FIX|SMALL_ANGLE, IDLE, 1, 1
2208, 37474027,  -2,   0,  19,   0,   0,   0,   0,   4,   0,   0,   0,   1, 1000, 1.852, 1023,   2,   0,  -6, -438, -174, 4110, 217, 122, 124, 189, ANGLE_MODE, GPS_FIX_HOME|GPS_FIX|SMALL_ANGLE, IDLE, 1, 1
2216, 37478098,  -3,   0,  14,   0,   0,   0,  -4,   1,   0,   0,   0,   0, 1005, 1.852, 1023,   3,   0,  -5, -444, -182, 4104, 211, 145, 118, 173, ANGLE_MODE, GPS_FIX_HOME|GPS_FIX|SMALL_ANGLE, IDLE, 1, 1
2224, 37482171,  -4,  -1,  11,   0,   0,   0,  -2,  -3,   0,   0,   0,   0, 1005, 1.852, 1023,   4,   0,  -4, -461, -175, 4107, 184, 153, 115, 176, ANGLE_MODE, GPS_FIX_HOME|GPS_FIX|SMALL_ANGLE, IDLE, 1, 1
2232, 37486247,  -3,   0,  16,   0,   0,   0,   1,   1,   0,   0,   0,   0, 1007, 1.852, 1023,   2,  -1,  -6, -462, -160, 4112, 197, 119, 119, 183, ANGLE_MODE, GPS_FIX_HOME|GPS_FIX|SMALL_ANGLE, IDLE, 1, 1
2240, 37490357,  -1,   1,  20,   0,   0,   1,   4,   5,   0,   0,   0,   0, 1007, 1.852, 1023,   1,  -2,  -7, -459, -159, 4110, 223, 115, 147, 205, ANGLE_MODE, GPS_FIX_HOME|GPS_FIX|SMALL_ANGLE, IDLE, 1, 1
2248, 37494421,  -4,   1,   9,   0,   0,   1,  -3,   0,   0,   0,   0,   0, 1007, 1.852, 1023,   4,  -2,  -3, -464, -154, 4107, 195, 148, 118, 156, ANGLE_MODE, GPS_FIX_HOME|GPS_FIX|SMALL_ANGLE, IDLE, 1, 1
2256, 37498481,  -5,   1,   3,  -1,   0,   1,  -8,   0,   0,   0,   0,   0, 1007, 1.852, 1023,   5,  -2,  -1, -470, -139, 4110, 199, 173, 118, 135, ANGLE_MODE, GPS_FIX_HOME|GPS_FIX|SMALL_ANGLE, IDLE, 1, 1
2264, 37502528,  -2,   1,  16,  -1,   0,   1,   6,   1,   0,   0,   0,   0, 1007, 1.852, 1023,   2,  -2,  -6, -473, -129, 4112, 195, 115, 135, 191, ANGLE_MODE, GPS_FIX_HOME|GPS_FIX|SMALL_ANGLE, IDLE, 1, 1
2272, 37506577,   0,   1,  21,  -1,   0,   2,   9,   0,   0,   0,   0,   0, 1009, 1.843, 1023,   0,  -2,  -7, -469, -135, 4114, 210, 115, 147, 236, ANGLE_MODE, GPS_FIX_HOME|GPS_FIX|SMALL_ANGLE, IDLE, 1, 1
2280, 37510642,  -3,   1,   9,  -1,   0,   2,  -5,   0,   0,   0,   0,   0, 1009, 1.843, 1023,   3,  -2,  -3, -460, -131, 4115, 204, 150, 120, 157, ANGLE_MODE, GPS_FIX_HOME|GPS_FIX|SMALL_ANGLE, IDLE, 1, 1
2288, 37514718,  -3,   1,   5,  -1,   0,   2,  -5,   1,   0,   0,   0,   0, 1009, 1.843, 1023,   3,  -3,  -2, -447, -122, 4112, 198, 150, 123, 140, ANGLE_MODE, GPS_FIX_HOME|GPS_FIX|SMALL_ANGLE, IDLE, 1, 1
2296, 37519036,  -1,   0,  13,  -1,   0,   2,   6,  -3,   0,   0,   0,   0, 1009, 1.843, 1023,   1,  -1,  -5, -441, -118, 4113, 172, 121, 123, 196, ANGLE_MODE, GPS_FIX_HOME|GPS_FIX|SMALL_ANGLE, IDLE, 1, 1
2304, 37523140,   0,   0,  14,  -1,   0,   2,   6,  -2,   0,   0,   0,   0, 1009, 1.843, 1023,  -1,  -1,  -5, -433, -109, 4118, 181, 120, 130, 208, ANGLE_MODE, GPS_FIX_HOME|GPS_FIX|SMALL_ANGLE, IDLE, 1, 1
2312, 37527191,   0,   1,  12,  -1,   0,   2,   0,   2,   0,   0,   0,   0, 1009, 1.852, 1023,   0,  -2,  -4, -406, -111, 4115, 196, 119, 128, 173, ANGLE_MODE, GPS_FIX_HOME|GPS_FIX|SMALL_ANGLE, IDLE, 1, 1
2320, 37531263,   0,   0,   7,  -1,   0,   3,  -1,  -1,   0,   0,   0,   0, 1009, 1.852, 1023,   0,  -1,  -3, -392, -117, 4115, 171, 131, 115, 159, ANGLE_MODE, GPS_FIX_HOME|GPS_FIX|SMALL_ANGLE, IDLE, 1, 1
2328, 37535333,   0,  -1,   4,  -1,   0,   3,   1,  -4,   0,   0,   0,   0, 1009, 1.852, 1023,  -1,   1,  -1, -392, -110, 4114, 143, 136, 117, 168, ANGLE_MODE, GPS_FIX_HOME|GPS_FIX|SMALL_ANGLE, IDLE, 1, 1
2336, 37539430,   2,   0,  10,  -1,   0,   3,   4,   0,   0,   0,   0,   0, 1007, 1.852, 1023,  -2,   0,  -4, -379, -104, 4119, 172, 115, 135, 185, ANGLE_MODE, GPS_FIX_HOME|GPS_FIX|SMALL_ANGLE, IDLE, 1, 1
2344, 37543497,   2,   0,  12,  -1,   0,   3,   2,   2,   0,   0,   0,   0, 1007, 1.852, 1023,  -2,  -1,  -4, -367, -108, 4117, 187, 115, 135, 188, ANGLE_MODE, GPS_FIX_HOME|GPS_FIX|SMALL_ANGLE, IDLE, 1, 1
2352, 37547564,   1,   0,   3,  -1,   0,   3,  -2,  -1,   0,   0,   0,   0, 1007, 1.843, 1023,  -1,   0,  -1, -368, -115, 4115, 149, 132, 115, 147, ANGLE_MODE, GPS_FIX_HOME|GPS_FIX|SMALL_ANGLE, IDLE, 1, 1
2360, 37551626,   0,   0,  -1,  -1,   0,   3,  -3,  -1,   0,   0,   0,   0, 1007, 1.843, 1023,  -1,   0,   1, -376, -115, 4119, 134, 136, 115, 128, ANGLE_MODE, GPS_FIX_HOME|GPS_FIX|SMALL_ANGLE, IDLE, 1, 1
2368, 37555690,   3,   0,   8,  -1,   0,   3,   5,   3,   0,   0,   0,   0, 1007, 1.843, 1023,  -3,  -1,  -3, -379, -114, 4120, 171, 115, 149, 182, ANGLE_MODE, GPS_FIX_HOME|GPS_FIX|SMALL_ANGLE, IDLE, 1, 1
2376, 37559741,   3,   0,  11,  -1,   0,   3,   4,   0,   0,   0,   0,   0, 1007, 1.843, 1023,  -3,  -1,  -4, -382, -123, 4118, 177, 115, 145, 204, ANGLE_MODE, GPS_FIX_HOME|GPS_FIX|SMALL_ANGLE, IDLE, 1, 1
2384, 37563822,   1,   0,   1,  -1,   0,   3,  -5,   0,   0,   0,   0,   0, 1007, 1.843, 1023,  -1,  -1,  -1, -393, -133, 4117, 160, 137, 115, 139, ANGLE_MODE, GPS_FIX_HOME|GPS_FIX|SMALL_ANGLE, IDLE, 1, 1
2392, 37567875,   0,   0,   0,  -1,   0,   3,  -5,   2,   0,   0,   0,   0, 1007, 1.852, 1023,  -1,  -1,   0, -400, -138, 4114, 160, 133, 125, 121, ANGLE_MODE, GPS_FIX_HOME|GPS_FIX|SMALL_ANGLE, IDLE, 1, 1
2400, 37571936,   3,   0,   2,   0,   0,   3,   6,   0,   0,   0,   0,   0, 1007, 1.852, 1023,  -3,  -1,  -1, -412, -147, 4116, 142, 116, 148, 175, ANGLE_MODE, GPS_FIX_HOME|GPS_FIX|SMALL_ANGLE, IDLE, 1, 1
2408, 37576011,   3,   0,   4,   0,   0,   3,   4,  -1,   0,   0,   0,   0, 1007, 1.852, 1023,  -3,  -1,  -1, -424, -159, 4116, 146, 117, 140, 176, ANGLE_MODE, GPS_FIX_HOME|GPS_FIX|SMALL_ANGLE, IDLE, 1, 1
2416, 37580092,   1,   1,   2,   0,   0,   3,  -4,   2,   0,   0,   0,   0, 1007, 1.852, 1023,  -2,  -2,  -1, -417, -165, 4115, 166, 121, 128, 136, ANGLE_MODE, GPS_FIX_HOME|GPS_FIX|SMALL_ANGLE, IDLE, 1, 1
2424, 37584158,   1,   1,   2,   0,   0,   4,  -2,   1,   0,   0,   0,   0, 1007, 1.852, 1023,  -2,  -2,  -1, -413, -166, 4115, 158, 119, 125, 138, ANGLE_MODE, GPS_FIX_HOME|GPS_FIX|SMALL_ANGLE, IDLE, 1, 1
2432, 37588226,   2,   0,   0,   0,   0,   4,   1,  -4,   0,   0,   0,   0, 1007, 1.852, 1023,  -2,   0,   0, -421, -169, 4117, 125, 128, 122, 157, ANGLE_MODE, GPS_FIX_HOME|GPS_FIX|SMALL_ANGLE, IDLE, 1, 1
2440, 37592294,   2,   0,   0,   0,   0,   4,   2,  -1,   0,   0,   0,   0, 1005, 1.852, 1023,  -3,  -1,   0, -421, -167, 4120, 132, 116, 136, 155, ANGLE_MODE, GPS_FIX_HOME|GPS_FIX|SMALL_ANGLE, IDLE, 1, 1
2448, 37596363,   2,   0,   6,   0,   0,   4,   0,   3,   0,   0,   0,   0, 1005, 1.852, 1023,  -3,  -2,  -2, -403, -170, 4121, 173, 115, 139, 162, ANGLE_MODE, GPS_FIX_HOME|GPS_FIX|SMALL_ANGLE, IDLE, 1, 1
2456, 37600425,   2,   0,   4,   0,   0,   4,   0,   0,   0,   0,   0,   0, 1005, 1.852, 1023,  -3,  -1,  -2, -395, -182, 4121, 153, 115, 127, 161, ANGLE_MODE, GPS_FIX_HOME|GPS_FIX|SMALL_ANGLE, IDLE, 1, 1
2464, 37604490,   1,   0,  -1,   0,   0,   4,  -1,  -4,   0,   0,   0,   0, 1004, 1.852, 1023,  -2,   0,   1, -399, -189, 4124, 126, 135, 115, 145, ANGLE_MODE, GPS_FIX_HOME|GPS_FIX|SMALL_ANGLE, IDLE, 1, 1
2472, 37608562,   1,   0,  -2,   0,   0,   4,  -2,   0,   0,   0,   0,   0, 1004, 1.852, 1023,  -2,   0,   1, -398, -181, 4126, 124, 116, 117, 121, ANGLE_MODE, GPS_FIX_HOME|GPS_FIX|SMALL_ANGLE, IDLE, 1, 1
2480, 37612894,   2,   0,   4,   0,   0,   4,   3,   3,   0,   0,   0,   0, 1004, 1.852, 1023,  -3,  -1,  -2, -388, -177, 4126, 159, 115, 149, 166, ANGLE_MODE, GPS_FIX_HOME|GPS_FIX|SMALL_ANGLE, IDLE, 1, 1
2488, 37616986,   2,   0,   4,   0,   0,   4,   1,  -2,   0,   0,   0,   0, 1002, 1.852, 1023,  -3,   0,  -2, -389, -193, 4124, 147, 120, 130, 175, ANGLE_MODE, GPS_FIX_HOME|GPS_FIX|SMALL_ANGLE, IDLE, 1, 1
