loopIteration, time (us), axisP[0], axisP[1], axisP[2], axisI[0], axisI[1], axisI[2], axisD[0], axisD[1], axisD[2], rcCommand[0], rcCommand[1], rcCommand[2], rcCommand[3], vbatLatest (V), rssi, gyroADC[0], gyroADC[1], gyroADC[2], accSmooth[0], accSmooth[1], accSmooth[2], motor[0], motor[1], motor[2], motor[3], flightModeFlags (flags), stateFlags (flags), failsafePhase (flags), rxSignalReceived, rxFlightChannelsValid
  0, 107422364,   2,   1,   0,   0,   0,   0,  10,   3,   0,   0,   0,   0, 1000, 1.834, 1012,  -3,  -1,   0, -298, -214, 4192, 132, 117, 188, 166, 0, 0, IDLE, 0, 0
256, 107552887,   5,  -1,   3,   0,   0,   0,   6,  -4,   0,   6,   0,   0, 1000, 1.843, 1012,  -1,   1,  -1, -218, -199, 4221, 123, 131, 157, 195, ANGLE_MODE, GPS_FIX_HOME|GPS_FIX|SMALL_ANGLE, IDLE, 1, 1
264, 107556933,   3,   0,  -5,   0,   0,   0,  -4,   1,   0,   6,   0,   0, 1000, 1.843, 1012,   1,   1,   2, -213, -177, 4233, 120, 138, 139, 115, ANGLE_MODE, GPS_FIX_HOME|GPS_FIX|SMALL_ANGLE, IDLE, 1, 1
272, 107560983,   2,   0,  -7,   0,   0,   0,  -5,   4,   0,   6,   0,   0, 1000, 1.843, 1012,   2,   0,   2, -187, -150, 4212, 138, 148, 157, 115, ANGLE_MODE, GPS_FIX_HOME|GPS_FIX|SMALL_ANGLE, IDLE, 1, 1
280, 107565050,   4,   0,   0,   0,   0,   0,   3,   0,   0,   6,   0,   0, 1000, 1.843, 1012,   0,   0,   0, -180, -141, 4196, 116, 117, 150, 146, ANGLE_MODE, GPS_FIX_HOME|GPS_FIX|SMALL_ANGLE, IDLE, 1, 1
288, 107569144,   5,   0,   1,   0,   0,   0,   4,  -3,   0,   6,   0,   0, 1000, 1.843, 1012,  -1,   1,  -1, -160, -140, 4202, 119, 131, 154, 180, ANGLE_MODE, GPS_FIX_HOME|GPS_FIX|SMALL_ANGLE, IDLE, 1, 1
296, 107573191,   4,   0,   1,   0,   0,   0,   0,   2,   0,   6,   0,   0, 1000, 1.843, 1012,   0,   0,  -1, -169, -122, 4230, 128, 115, 138, 135, ANGLE_MODE, GPS_FIX_HOME|GPS_FIX|SMALL_ANGLE, IDLE, 1, 1
304, 107577270,   3,   0,  -1,   0,   0,   0,  -4,   3,   0,   6,   0,   0, 1000, 1.843, 1012,   1,  -1,   1, -140, -108, 4213, 135, 124, 140, 115, ANGLE_MODE, GPS_FIX_HOME|GPS_FIX|SMALL_ANGLE, IDLE, 1, 1
312, 107581342,   3,   0,  -6,   0,   0,   0,  -1,   0,   0,   6,   0,   0, 1000, 1.843, 1012,   1,   0,   2, -145, -94, 4197, 117, 141, 153, 122, ANGLE_MODE, GPS_FIX_HOME|GPS_FIX|SMALL_ANGLE, IDLE, 1, 1
320, 107585400,   4,   0,  -3,   0,   0,   0,   2,  -4,   0,   6,   0,   0, 1000, 1.843, 1012,   0,   1,   1, -125, -96, 4187, 115, 141, 148, 153, ANGLE_MODE, GPS_FIX_HOME|GPS_FIX|SMALL_ANGLE, IDLE, 1, 1
328, 107589464,   5,   0,   2,   0,   0,   0,   4,   1,   0,   6,   0,   0, 1000, 1.843, 1012,  -1,   0,  -1, -135, -85, 4218, 130, 115, 162, 167, ANGLE_MODE, GPS_FIX_HOME|GPS_FIX|SMALL_ANGLE, IDLE, 1, 1
336, 107593524,   4,   1,   0,   0,   0,   0,  -3,   3,   0,   6,   0,   0, 1000, 1.843, 1012,   0,  -1,   0, -109, -93, 4214, 137, 115, 143, 121, ANGLE_MODE, GPS_FIX_HOME|GPS_FIX|SMALL_ANGLE, IDLE, 1, 1
344, 107597584,   3,   0,  -2,   0,   0,   0,  -3,   0,   0,   5,   0,   0, 1000, 1.843, 1012,   0,  -1,   1, -103, -91, 4203, 121, 123, 131, 116, ANGLE_MODE, GPS_FIX_HOME|GPS_FIX|SMALL_ANGLE, IDLE, 1, 1
352, 107601657,   1,   0,  -6,   0,   0,   0,  -4,  -5,   0,   5,   0,   0, 1000, 1.843, 1012,   1,   1,   2, -129, -84, 4205, 121, 173, 136, 135, ANGLE_MODE, GPS_FIX_HOME|GPS_FIX|SMALL_ANGLE, IDLE, 1, 1
360, 107605721,   2,   0,   0,   0,   0,   0,   0,   0,   0,   5,   0,   0, 1000, 1.843, 1012,   0,   0,   0, -169, -65, 4245, 115, 122, 127, 128, ANGLE_MODE, GPS_FIX_HOME|GPS_FIX|SMALL_ANGLE, IDLE, 1, 1
368, 107609791,   4,   0,   1,   0,   0,   0,   7,   3,   0,   5,   0,   0, 1000, 1.843, 1012,  -2,  -1,  -1, -165, -68, 4251, 139, 115, 181, 169, ANGLE_MODE, GPS_FIX_HOME|GPS_FIX|SMALL_ANGLE, IDLE, 1, 1
376, 107613863,   5,   1,   5,   0,   0,   0,   1,   4,   0,   4,   0,   0, 1000, 1.843, 1012,  -2,  -2,  -2, -162, -84, 4254, 151, 115, 158, 154, ANGLE_MODE, GPS_FIX_HOME|GPS_FIX|SMALL_ANGLE, IDLE, 1, 1
384, 107617944,   2,   0,  -2,   0,   0,   0,  -6,  -5,   0,   4,   0,   0, 1000, 1.843, 1012,   0,   1,   1, -157, -64, 4234, 128, 160, 119, 136, ANGLE_MODE, GPS_FIX_HOME|GPS_FIX|SMALL_ANGLE, IDLE, 1, 1
392, 107621999,   0,  -1,  -2,   0,   0,   0,  -9,  -5,   0,   4,   0,   0, 1000, 1.834, 1012,   2,   1,   1, -169, -52, 4250, 148, 188, 121, 138, ANGLE_MODE, GPS_FIX_HOME|GPS_FIX|SMALL_ANGLE, IDLE, 1, 1
400, 107626049,   2,   0,   3,   0,   0,   0,   4,   1,   0,   4,   0,   0, 1000, 1.834, 1012,   0,   1,  -1, -156, -44, 4253, 129, 115, 145, 155, ANGLE_MODE, GPS_FIX_HOME|GPS_FIX|SMALL_ANGLE, IDLE, 1, 1
408, 107630120,   4,   1,   6,   0,   0,   0,   9,   5,   0,   4,   0,   0, 1000, 1.834, 1012,  -2,  -1,  -2, -135, -58, 4244, 158, 115, 191, 189, ANGLE_MODE, GPS_FIX_HOME|GPS_FIX|SMALL_ANGLE, IDLE, 1, 1
416, 107634179,   4,   0,   0,   0,   0,   0,   1,   2,   0,   4,   0,   0, 1000, 1.834, 1012,  -2,  -1,   0, -117, -69, 4230, 130, 115, 154, 140, ANGLE_MODE, GPS_FIX_HOME|GPS_FIX|SMALL_ANGLE, IDLE, 1, 1
424, 107638269,   3,  -1,  -5,   0,   0,   0,  -4,  -8,   0,   4,   0,   0, 1000, 1.834, 1012,  -1,   1,   2, -118, -70, 4231, 119, 181, 136, 151, ANGLE_MODE, GPS_FIX_HOME|GPS_FIX|SMALL_ANGLE, IDLE, 1, 1
432, 107642334,   1,  -1,  -6,   0,   0,   0,  -5,  -3,   0,   4,   0,   0, 1000, 1.834, 1012,   1,   2,   2, -119, -58, 4235, 123, 170, 132, 130, ANGLE_MODE, GPS_FIX_HOME|GPS_FIX|SMALL_ANGLE, IDLE, 1, 1
440, 107646650,   2,   0,   0,   0,   0,   0,   0,   4,   0,   3,   0,   0, 1000, 1.834, 1012,   0,   0,   0, -108, -58, 4219, 133, 116, 141, 121, ANGLE_MODE, GPS_FIX_HOME|GPS_FIX|SMALL_ANGLE, IDLE, 1, 1
448, 107650719,   3,   1,   1,   0,   0,   0,   4,   7,   0,   3,   0,   0, 1000, 1.834, 1012,  -1,  -1,   0, -89, -69, 4208, 154, 115, 180, 151, ANGLE_MODE, GPS_FIX_HOME|GPS_FIX|SMALL_ANGLE, IDLE, 1, 1
456, 107654793,   3,   0,   0,   0,   0,   0,   1,  -4,   0,   3,   0,   0, 1000, 1.834, 1012,  -2,   1,   0, -91, -90, 4201, 115, 140, 137, 156, ANGLE_MODE, GPS_FIX_HOME|GPS_FIX|SMALL_ANGLE, IDLE, 1, 1
464, 107658846,   3,  -1,  -5,   0,   0,   0,  -1,  -4,   0,   3,   0,   0, 1000, 1.843, 1023,  -1,   2,   2, -95, -77, 4224, 115, 158, 140, 146, ANGLE_MODE, GPS_FIX_HOME|GPS_FIX|SMALL_ANGLE, IDLE, 1, 1
472, 107662909,   1,  -1,   3,   0,   0,   0,  -5,  -2,   0,   3,   0,   0, 1000, 1.843, 1023,   1,   2,  -1, -107, -87, 4216, 141, 144, 115, 141, ANGLE_MODE, GPS_FIX_HOME|GPS_FIX|SMALL_ANGLE, IDLE, 1, 1
480, 107666988,   0,   1,   9,   0,   0,   0,  -3,   9,   0,   3,   0,   0, 1000, 1.843, 1023,   1,  -2,  -3, -68, -77, 4207, 204, 120, 157, 148, ANGLE_MODE, GPS_FIX_HOME|GPS_FIX|SMALL_ANGLE, IDLE, 1, 1
488, 107671042,   1,   0,   3,   0,   0,   0,   1,   1,   0,   3,   0,   0, 1000, 1.843, 1023,   0,  -1,  -1, -62, -96, 4194, 137, 115, 136, 142, ANGLE_MODE, GPS_FIX_HOME|GPS_FIX|SMALL_ANGLE, IDLE, 1, 1
496, 107675106,   3,  -1,  -3,   0,   0,   0,   7,  -8,   0,   3,   0,   0, 1000, 1.843, 1023,  -2,   2,   1, -78, -104, 4201, 115, 162, 169, 194, ANGLE_MODE, GPS_FIX_HOME|GPS_FIX|SMALL_ANGLE, IDLE, 1, 1
504, 107679194,   0,  -1,  -8,   0,   0,   0,  -6,  -3,   0,   3,   0,   0, 1000, 1.834, 1023,   1,   2,   3, -73, -96, 4221, 128, 185, 139, 126, ANGLE_MODE, GPS_FIX_HOME|GPS_FIX|SMALL_ANGLE, IDLE, 1, 1
512, 107683271,   1,   0,  -1,   0,   0,   0,  -3,   6,   0,   3,   0,   0, 1000, 1.834, 1023,   1,  -1,   1, -28, -60, 4242, 150, 127, 150, 115, ANGLE_MODE, GPS_FIX_HOME|GPS_FIX|SMALL_ANGLE, IDLE, 1, 1
520, 107687336,   1,   0,   7,   0,   0,   0,   4,   3,   0,   3,   0,   0, 1000, 1.834, 1023,   0,   0,  -3, -14, -63, 4229, 155, 115, 148, 164, ANGLE_MODE, GPS_FIX_HOME|GPS_FIX|SMALL_ANGLE, IDLE, 1, 1
528, 107691410,   2,   0,   1,   0,   0,   0,   1,  -4,   0,   2,   0,   0, 1000, 1.834, 1023,   0,   0,   0, -12, -48, 4240, 118, 132, 128, 153, ANGLE_MODE, GPS_FIX_HOME|GPS_FIX|SMALL_ANGLE, IDLE, 1, 1
536, 107695469,   0,  -1,  -4,   0,   0,   0,  -3,  -3,   0,   2,   0,   0, 1000, 1.834, 1023,   1,   2,   2, -16, -39, 4250, 121, 159, 128, 131, ANGLE_MODE, GPS_FIX_HOME|GPS_FIX|SMALL_ANGLE, IDLE, 1, 1
544, 107699518,   1,   0,  -3,   0,   0,   0,  -2,   0,   0,   2,   0,   0, 1000, 1.843, 1023,   1,   1,   1, -13, -41, 4254, 122, 135, 129, 116, ANGLE_MODE, GPS_FIX_HOME|GPS_FIX|SMALL_ANGLE, IDLE, 1, 1
552, 107703601,   3,   0,  -1,   0,   0,   0,   7,   4,   0,   2,   0,   0, 1000, 1.843, 1023,  -1,   0,   0, -20, -45, 4239, 130, 118, 176, 155, ANGLE_MODE, GPS_FIX_HOME|GPS_FIX|SMALL_ANGLE, IDLE, 1, 1
560, 107707650,   2,   0,   2,   0,   0,   0,   1,   0,   0,   2,   0,   0, 1000, 1.843, 1023,  -1,   0,  -1, -25, -64, 4232, 125, 116, 131, 141, ANGLE_MODE, GPS_FIX_HOME|GPS_FIX|SMALL_ANGLE, IDLE, 1, 1
568, 107711708,   1,  -1,  -6,   0,   0,   0,  -4,  -1,   0,   2,   0,   0, 1000, 1.843, 1023,   1,   1,   2, -41, -41, 4234, 123, 160, 134, 122, ANGLE_MODE, GPS_FIX_HOME|GPS_FIX|SMALL_ANGLE, IDLE, 1, 1
576, 107715765,   0,  -1, -10,   0,   0,   0,  -4,  -3,   0,   2,   0,   0, 1000, 1.843, 1023,   1,   1,   3, -59, -41, 4227, 123, 183, 149, 128, ANGLE_MODE, GPS_FIX_HOME|GPS_FIX|SMALL_ANGLE, IDLE, 1, 1
584, 107719834,   2,   0,   1,   0,   0,   0,   6,   4,   0,   2,   0,   0, 1000, 1.834, 1023,  -1,   0,  -1, -70, -48, 4225, 137, 115, 168, 156, ANGLE_MODE, GPS_FIX_HOME|GPS_FIX|SMALL_ANGLE, IDLE, 1, 1
592, 107723897,   3,   0,   4,   0,   0,   0,   4,   2,   0,   2,   0,   0, 1000, 1.834, 1023,  -2,  -1,  -1, -60, -62, 4210, 137, 115, 156, 163, ANGLE_MODE, GPS_FIX_HOME|GPS_FIX|SMALL_ANGLE, IDLE, 1, 1
600, 107727969,   3,   0,   4,   0,   0,   0,   0,   2,   0,   2,   0,   0, 1000, 1.834, 1023,  -2,  -1,  -2, -69, -67, 4220, 140, 115, 141, 146, ANGLE_MODE, GPS_FIX_HOME|GPS_FIX|SMALL_ANGLE, IDLE, 1, 1
608, 107732020,   1,   0,   0,   0,   0,   0,  -5,  -5,   0,   2,   0,   0, 1000, 1.834, 1023,   1,   1,   0, -85, -63, 4212, 135, 159, 115, 144, ANGLE_MODE, GPS_FIX_HOME|GPS_FIX|SMALL_ANGLE, IDLE, 1, 1
616, 107736066,   0,   0,  -6,   0,   0,   0,  -5,   0,   0,   2,   0,   0, 1000, 1.834, 1023,   1,   0,   2, -91, -52, 4215, 134, 158, 141, 115, ANGLE_MODE, GPS_FIX_HOME|GPS_FIX|SMALL_ANGLE, IDLE, 1, 1
624, 107740128,   2,   0,   0,   0,   0,   0,   4,   2,   0,   2,   0,   0, 1000, 1.834, 1023,  -1,  -1,   0, -96, -59, 4197, 130, 115, 158, 145, ANGLE_MODE, GPS_FIX_HOME|GPS_FIX|SMALL_ANGLE, IDLE, 1, 1
632, 107744432,   4,   1,   2,   0,   0,   0,   7,   3,   0,   2,   0,   0, 1000, 1.834, 1023,  -3,  -1,  -1, -98, -77, 4204, 138, 115, 179, 172, ANGLE_MODE, GPS_FIX_HOME|GPS_FIX|SMALL_ANGLE, IDLE, 1, 1
640, 107748515,   3,   0,  -1,   0,   0,   0,  -1,  -2,   0,   2,   0,   0, 1000, 1.834, 1023,  -2,   0,   1, -98, -85, 4204, 115, 130, 128, 133, ANGLE_MODE, GPS_FIX_HOME|GPS_FIX|SMALL_ANGLE, IDLE, 1, 1
648, 107752576,   1,   0,  -4,   0,   0,   0,  -6,  -1,   0,   2,   0,   1, 1000, 1.834, 1023,   0,   0,   2, -106, -82, 4211, 129, 157, 130, 120, ANGLE_MODE, GPS_FIX_HOME|GPS_FIX|SMALL_ANGLE, IDLE, 1, 1
656, 107756643,   0,   0,  -3,   0,   0,   0,  -3,   0,   0,   2,   0,   1, 1000, 1.834, 1023,   1,   0,   2, -111, -72, 4203, 126, 139, 128, 115, ANGLE_MODE, GPS_FIX_HOME|GPS_FIX|SMALL_ANGLE, IDLE, 1, 1
664, 107760736,   2,   1,   4,   0,   0,   0,   2,   2,   0,   2,   0,   1, 1000, 1.843, 1023,  -1,  -1,  -1, -74, -102, 4203, 140, 115, 144, 145, ANGLE_MODE, GPS_FIX_HOME|GPS_FIX|SMALL_ANGLE, IDLE, 1, 1
672, 107764789,   3,   0,   6,   0,   0,   0,   7,   2,   0,   2,   0,   1, 1000, 1.843, 1023,  -2,  -1,  -2, -54, -121, 4205, 150, 115, 167, 182, ANGLE_MODE, GPS_FIX_HOME|GPS_FIX|SMALL_ANGLE, IDLE, 1, 1
680, 107768874,   2,   0,  -1,   0,   0,   0,  -2,  -3,   0,   2,   0,   1, 1000, 1.843, 1023,  -1,   0,   1, -41, -134, 4213, 115, 130, 121, 129, ANGLE_MODE, GPS_FIX_HOME|GPS_FIX|SMALL_ANGLE, IDLE, 1, 1
688, 107772939,   1,   0,  -3,   0,   0,   0,  -4,  -1,   0,   2,   0,   1, 1000, 1.843, 1023,   1,   0,   2, -41, -127, 4210, 125, 150, 127, 120, ANGLE_MODE, GPS_FIX_HOME|GPS_FIX|SMALL_ANGLE, IDLE, 1, 1
696, 107777001,   0,   0,   0,   0,   0,   0,  -4,  -1,   0,   2,   0,   1, 1000, 1.843, 1023,   2,   0,   1, -35, -124, 4205, 131, 137, 116, 120, ANGLE_MODE, GPS_FIX_HOME|GPS_FIX|SMALL_ANGLE, IDLE, 1, 1
704, 107781063,   1,   0,   3,   0,   0,   0,   1,   3,   0,   2,   0,   1, 1000, 1.843, 1023,   0,  -1,  -1, -28, -121, 4208, 140, 115, 141, 136, ANGLE_MODE, GPS_FIX_HOME|GPS_FIX|SMALL_ANGLE, IDLE, 1, 1
712, 107785124,   2,   0,   3,   0,   0,   0,   5,   0,   0,   2,   0,   1, 1000, 1.843, 1023,  -1,   0,  -1, -31, -130, 4209, 127, 117, 148, 165, ANGLE_MODE, GPS_FIX_HOME|GPS_FIX|SMALL_ANGLE, IDLE, 1, 1
720, 107789190,   2,   0,  -2,   0,   0,   0,   0,  -1,   0,   2,   0,   1, 1000, 1.843, 1023,  -1,   0,   1, -31, -136, 4221, 115, 130, 133, 134, ANGLE_MODE, GPS_FIX_HOME|GPS_FIX|SMALL_ANGLE, IDLE, 1, 1
728, 107793257,   1,  -1,  -4,   0,   0,   0,  -3,  -3,   0,   2,   0,   1, 1000, 1.843, 1023,   1,   1,   2, -41, -120, 4218, 120, 155, 127, 129, ANGLE_MODE, GPS_FIX_HOME|GPS_FIX|SMALL_ANGLE, IDLE, 1, 1
736, 107797445,   0,   0,   1,   0,   0,   0,  -5,   0,   0,   2,   0,   1, 1000, 1.843, 1023,   2,   1,   0, -48, -118, 4217, 142, 138, 116, 120, ANGLE_MODE, GPS_FIX_HOME|GPS_FIX|SMALL_ANGLE, IDLE, 1, 1
744, 107801506,   0,   0,   3,   0,   0,   0,   1,   1,   0,   2,   0,   1, 1000, 1.834, 1023,   1,   1,  -1, -43, -106, 4210, 131, 115, 126, 134, ANGLE_MODE, GPS_FIX_HOME|GPS_FIX|SMALL_ANGLE, IDLE, 1, 1
752, 107805561,   2,   0,   3,   0,   0,   0,   5,   0,   0,   2,   0,   1, 1000, 1.834, 1023,  -1,   1,  -1, -50, -114, 4211, 129, 118, 144, 165, ANGLE_MODE, GPS_FIX_HOME|GPS_FIX|SMALL_ANGLE, IDLE, 1, 1
760, 107809640,   2,  -1,   0,   0,   0,   0,   3,   0,   0,   2,   0,   1, 1000, 1.834, 1023,  -1,   1,   1, -57, -115, 4220, 115, 125, 143, 146, ANGLE_MODE, GPS_FIX_HOME|GPS_FIX|SMALL_ANGLE, IDLE, 1, 1
768, 107813780,   1,  -1,  -1,   0,   0,   0,  -4,  -2,   0,   2,   0,   1, 1000, 1.834, 1023,   1,   2,   1, -60, -110, 4217, 128, 152, 118, 132, ANGLE_MODE, GPS_FIX_HOME|GPS_FIX|SMALL_ANGLE, IDLE, 1, 1
776, 107817838,   0,  -1,   1,   0,   0,   0,  -5,   1,   0,   2,   0,   1, 1000, 1.834, 1023,   2,   1,   0, -63, -91, 4211, 144, 139, 116, 120, ANGLE_MODE, GPS_FIX_HOME|GPS_FIX|SMALL_ANGLE, IDLE, 1, 1
784, 107821911,   0,   0,   2,   0,   0,   0,   0,   1,   0,   2,   0,   1, 1000, 1.834, 1023,   2,   1,   0, -68, -85, 4200, 131, 118, 117, 124, ANGLE_MODE, GPS_FIX_HOME|GPS_FIX|SMALL_ANGLE, IDLE, 1, 1
792, 107825968,   3,   0,   3,   0,   0,   0,   8,   0,   0,   2,   0,   1, 1000, 1.834, 1023,  -1,   1,  -1, -69, -92, 4203, 128, 117, 159, 176, ANGLE_MODE, GPS_FIX_HOME|GPS_FIX|SMALL_ANGLE, IDLE, 1, 1
800, 107830127,   3,  -1,   2,   0,   0,   0,   4,  -2,   0,   2,   0,   1, 1000, 1.834, 1023,  -1,   2,   0, -75, -104, 4211, 120, 126, 144, 168, ANGLE_MODE, GPS_FIX_HOME|GPS_FIX|SMALL_ANGLE, IDLE, 1, 1
808, 107834183,   0,  -1,  -4,   0,   0,   0,  -7,   0,   0,   2,   0,   0, 1000, 1.834, 1023,   1,   1,   2, -86, -97, 4212, 138, 163, 131, 119, ANGLE_MODE, GPS_FIX_HOME|GPS_FIX|SMALL_ANGLE, IDLE, 1, 1
816, 107838483,  -1,   0,  -3,   0,   0,   0,  -8,   1,   0,   2,   0,   0, 1000, 1.834, 1023,   3,   1,   1, -85, -75, 4198, 156, 165, 133, 115, ANGLE_MODE, GPS_FIX_HOME|GPS_FIX|SMALL_ANGLE, IDLE, 1, 1
824, 107842551,   0,   0,   2,   0,   0,   0,   2,   1,   0,   2,   0,   0, 1000, 1.834, 1023,   1,   0,  -1, -88, -74, 4189, 128, 115, 132, 135, ANGLE_MODE, GPS_FIX_HOME|GPS_FIX|SMALL_ANGLE, IDLE, 1, 1
832, 107846639,   3,   0,   2,   0,   0,   0,  12,   0,   0,   2,   0,   0, 1000, 1.834, 1023,  -2,   0,  -1, -125, -96, 4194, 127, 115, 180, 191, ANGLE_MODE, GPS_FIX_HOME|GPS_FIX|SMALL_ANGLE, IDLE, 1, 1
840, 107850711,   3,   0,   0,   0,   0,   0,   1,   0,   0,   2,   0,   0, 1000, 1.834, 1023,  -1,   0,   0, -149, -115, 4208, 118, 115, 134, 136, ANGLE_MODE, GPS_FIX_HOME|GPS_FIX|SMALL_ANGLE, IDLE, 1, 1
848, 107854767,   0,   0,  -5,   0,   0,   0,  -6,  -1,   0,   2,   0,   0, 1000, 1.834, 1023,   1,   1,   2, -171, -104, 4203, 132, 164, 132, 121, ANGLE_MODE, GPS_FIX_HOME|GPS_FIX|SMALL_ANGLE, IDLE, 1, 1
856, 107858857,  -1,   0,   0,   0,   0,   0,  -8,   2,   0,   2,   0,   0, 1000, 1.834, 1023,   3,   0,   0, -178, -90, 4190, 164, 157, 126, 115, ANGLE_MODE, GPS_FIX_HOME|GPS_FIX|SMALL_ANGLE, IDLE, 1, 1
864, 107862930,   1,   0,   2,   0,   0,   0,   3,   1,   0,   2,   0,   0, 1000, 1.834, 1023,   0,   0,  -1, -183, -83, 4184, 129, 115, 142, 142, ANGLE_MODE, GPS_FIX_HOME|GPS_FIX|SMALL_ANGLE, IDLE, 1, 1
872, 107867010,   4,   0,   2,   0,   0,   0,  12,   0,   0,   2,   0,   0, 1000, 1.834, 1023,  -3,   0,  -1, -177, -103, 4206, 127, 115, 186, 196, ANGLE_MODE, GPS_FIX_HOME|GPS_FIX|SMALL_ANGLE, IDLE, 1, 1
880, 107871084,   3,   0,   0,   0,   0,   0,   1,   0,   0,   2,   0,   0, 1000, 1.834, 1023,  -2,   0,   0, -168, -107, 4214, 115, 119, 138, 139, ANGLE_MODE, GPS_FIX_HOME|GPS_FIX|SMALL_ANGLE, IDLE, 1, 1
888, 107875150,   0,   0,  -5,   0,   0,   0,  -9,   0,   0,   2,   0,   0, 1000, 1.834, 1023,   1,   0,   2, -155, -80, 4212, 148, 173, 136, 117, ANGLE_MODE, GPS_FIX_HOME|GPS_FIX|SMALL_ANGLE, IDLE, 1, 1
896, 107879221,   0,   0,   0,   0,   0,   0,  -7,   0,   0,   2,   0,   0, 1000, 1.834, 1023,   2,   0,   0, -153, -62, 4195, 147, 146, 120, 115, ANGLE_MODE, GPS_FIX_HOME|GPS_FIX|SMALL_ANGLE, IDLE, 1, 1
904, 107883286,   2,   0,   2,   0,   0,   0,   6,   0,   0,   2,   0,   0, 1000, 1.834, 1023,  -1,   0,  -1, -136, -70, 4197, 124, 116, 153, 164, ANGLE_MODE, GPS_FIX_HOME|GPS_FIX|SMALL_ANGLE, IDLE, 1, 1
912, 107887330,   4,   0,   0,   0,   0,   0,   7,   1,   0,   2,   0,   0, 1000, 1.834, 1023,  -3,   0,   0, -126, -83, 4217, 123, 115, 172, 167, ANGLE_MODE, GPS_FIX_HOME|GPS_FIX|SMALL_ANGLE, IDLE, 1, 1
920, 107891400,   2,   0,  -2,   0,   0,   0,  -3,  -1,   0,   1,   0,   0, 1000, 1.834, 1023,  -1,   0,   1, -118, -86, 4221, 118, 134, 121, 121, ANGLE_MODE, GPS_FIX_HOME|GPS_FIX|SMALL_ANGLE, IDLE, 1, 1
928, 107895510,   0,   0,   0,   0,   0,   0,  -8,   0,   0,   1,   0,   0, 1000, 1.834, 1023,   1,   0,   0, -104, -76, 4216, 154, 153, 121, 115, ANGLE_MODE, GPS_FIX_HOME|GPS_FIX|SMALL_ANGLE, IDLE, 1, 1
936, 107899570,   0,   0,   0,   0,   0,   0,  -3,  -1,   0,   1,   0,   0, 1000, 1.843, 1023,   1,   1,   0, -95, -64, 4191, 130, 141, 117, 123, ANGLE_MODE, GPS_FIX_HOME|GPS_FIX|SMALL_ANGLE, IDLE, 1, 1
944, 107903647,   1,   0,   0,   0,   0,   0,   6,   0,   0,   1,   0,   0, 1000, 1.843, 1023,  -1,   0,   0, -93, -68, 4207, 118, 115, 148, 147, ANGLE_MODE, GPS_FIX_HOME|GPS_FIX|SMALL_ANGLE, IDLE, 1, 1
952, 107907706,   2,   0,   0,   0,   0,   0,   5,   0,   0,   1,   0,   0, 1000, 1.843, 1023,  -2,   0,   0, -83, -87, 4211, 115, 118, 151, 153, ANGLE_MODE, GPS_FIX_HOME|GPS_FIX|SMALL_ANGLE, IDLE, 1, 1
960, 107911774,   1,   0,  -2,   0,   0,   0,  -1,   1,   0,   1,   0,   0, 1000, 1.843, 1023,  -1,   0,   1, -77, -92, 4221, 121, 125, 131, 116, ANGLE_MODE, GPS_FIX_HOME|GPS_FIX|SMALL_ANGLE, IDLE, 1, 1
968, 107915823,   0,   0,   0,   0,   0,   0,  -7,  -2,   0,   1,   0,   0, 1000, 1.843, 1023,   1,   1,   0, -80, -83, 4204, 145, 160, 117, 125, ANGLE_MODE, GPS_FIX_HOME|GPS_FIX|SMALL_ANGLE, IDLE, 1, 1
976, 107919887,   0,   0,   0,   0,   0,   0,  -3,   0,   0,   1,   0,   0, 1000, 1.834, 1023,   1,   1,   0, -78, -83, 4202, 132, 138, 116, 120, ANGLE_MODE, GPS_FIX_HOME|GPS_FIX|SMALL_ANGLE, IDLE, 1, 1
984, 107923951,   1,   0,  -1,   0,   0,   0,   4,   1,   0,   1,   0,   0, 1000, 1.834, 1023,   0,   1,   0, -82, -82, 4211, 116, 120, 144, 137, ANGLE_MODE, GPS_FIX_HOME|GPS_FIX|SMALL_ANGLE, IDLE, 1, 1
992, 107928055,   1,   0,   0,   0,   0,   0,   4,   0,   0,   1,   0,   0, 1000, 1.834, 1023,  -1,   0,   0, -100, -86, 4223, 116, 116, 144, 142, ANGLE_MODE, GPS_FIX_HOME|GPS_FIX|SMALL_ANGLE, IDLE, 1, 1
1000, 107932157,   0,   0,   2,   0,   0,   0,  -1,   1,   0,   1,   0,   0, 1000, 1.834, 1023,   0,   0,  -1, -119, -72, 4219, 132, 117, 120, 124, ANGLE_MODE, GPS_FIX_HOME|GPS_FIX|SMALL_ANGLE, IDLE, 1, 1
1008, 107936467,  -1,   0,  -1,   0,   0,   0,  -8,  -2,   0,   1,   0,   0, 1000, 1.834, 1023,   2,   1,   0, -123, -56, 4209, 154, 171, 118, 126, ANGLE_MODE, GPS_FIX_HOME|GPS_FIX|SMALL_ANGLE, IDLE, 1, 1
1016, 107940536,   0,   0,  -2,   0,   0,   0,  -1,   0,   0,   1,   0,   0, 1000, 1.834, 1023,   2,   0,   1, -129, -47, 4214, 126, 136, 124, 116, ANGLE_MODE, GPS_FIX_HOME|GPS_FIX|SMALL_ANGLE, IDLE, 1, 1
1024, 107944603,   0,   0,   0,   0,   0,   0,   6,   0,   0,   1,   0,   0, 1000, 1.834, 1023,   0,   0,   0, -132, -50, 4213, 117, 117, 144, 150, ANGLE_MODE, GPS_FIX_HOME|GPS_FIX|SMALL_ANGLE, IDLE, 1, 1
1032, 107948672,   1,   0,   0,   0,   0,   0,   3,   3,   0,   0,   0,   0, 1000, 1.834, 1023,  -1,  -1,   0, -122, -72, 4222, 133, 115, 151, 137, ANGLE_MODE, GPS_FIX_HOME|GPS_FIX|SMALL_ANGLE, IDLE, 1, 1
1040, 107952746,   0,   0,   0,   0,   0,   0,  -2,   0,   0,   0,   0,   0, 1000, 1.834, 1023,   1,   0,   0, -123, -66, 4212, 129, 133, 116, 119, ANGLE_MODE, GPS_FIX_HOME|GPS_FIX|SMALL_ANGLE, IDLE, 1, 1
1048, 107956817,  -2,   0,  -1,   0,   0,   0,  -6,  -2,   0,   0,   0,   0, 1000, 1.834, 1023,   2,   1,   1, -128, -56, 4208, 145, 167, 119, 126, ANGLE_MODE, GPS_FIX_HOME|GPS_FIX|SMALL_ANGLE, IDLE, 1, 1
1056, 107960913,  -1,   0,  -1,   0,   0,   0,   0,   0,   0,   0,   0,   0, 1000, 1.834, 1023,   1,   0,   1, -124, -49, 4208, 119, 125, 122, 115, ANGLE_MODE, GPS_FIX_HOME|GPS_FIX|SMALL_ANGLE, IDLE, 1, 1
1064, 107964973,   1,   0,   0,   0,   0,   0,   6,   2,   0,   0,   0,   0, 1000, 1.834, 1023,  -1,   0,   0, -111, -62, 4208, 125, 116, 158, 147, ANGLE_MODE, GPS_FIX_HOME|GPS_FIX|SMALL_ANGLE, IDLE, 1, 1
1072, 107969040,   1,   0,   2,   0,   0,   0,   5,   2,   0,   0,   0,   0, 1000, 1.834, 1023,  -2,  -1,  -1, -105, -72, 4210, 132, 115, 151, 149, ANGLE_MODE, GPS_FIX_HOME|GPS_FIX|SMALL_ANGLE, IDLE, 1, 1
1080, 107973108,   0,   0,   0,   0,   0,   0,  -4,  -3,   0,   0,   0,   0, 1000, 1.834, 1023,   0,   0,   0, -106, -67, 4203, 133, 146, 115, 130, ANGLE_MODE, GPS_FIX_HOME|GPS_FIX|SMALL_ANGLE, IDLE, 1, 1
1088, 107977166,  -1,   0,  -4,   0,   0,   0,  -6,  -2,   0,   0,   0,   0, 1000, 1.834, 1023,   1,   1,   1, -110, -55, 4203, 141, 168, 126, 121, ANGLE_MODE, GPS_FIX_HOME|GPS_FIX|SMALL_ANGLE, IDLE, 1, 1
1096, 107981229,   0,   0,  -1,   0,   0,   0,   1,   1,   0,   0,   0,   0, 1000, 1.834, 1023,   0,   0,   1, -104, -49, 4200, 118, 120, 134, 121, ANGLE_MODE, GPS_FIX_HOME|GPS_FIX|SMALL_ANGLE, IDLE, 1, 1
1104, 107985303,   2,   0,  -1,   0,   0,   0,   7,   3,   0,   0,   0,   0, 1000, 1.834, 1023,  -2,  -1,   1, -95, -62, 4200, 128, 119, 176, 153, ANGLE_MODE, GPS_FIX_HOME|GPS_FIX|SMALL_ANGLE, IDLE, 1, 1
1112, 107989372,   2,   0,   0,   0,   0,   0,   3,   0,   0,   0,   0,   0, 1000, 1.834, 1023,  -2,   0,   0, -80, -65, 4190, 116, 117, 143, 140, ANGLE_MODE, GPS_FIX_HOME|GPS_FIX|SMALL_ANGLE, IDLE, 1, 1
1120, 107993430,   0,   0,  -1,   0,   0,   0,  -5,  -2,   0,   0,   0,   0, 1000, 1.834, 1023,  -1,   1,   0, -73, -52, 4180, 130, 150, 118, 127, ANGLE_MODE, GPS_FIX_HOME|GPS_FIX|SMALL_ANGLE, IDLE, 1, 1
1128, 107997493,   0,   0,  -3,   0,   0,   0,  -5,  -1,   0,   0,   0,   0, 1000, 1.834, 1023,   0,   1,   1, -70, -32, 4168, 132, 158, 124, 121, ANGLE_MODE, GPS_FIX_HOME|GPS_FIX|SMALL_ANGLE, IDLE, 1, 1
1136, 108001560,   0,   0,  -1,   0,   0,   0,   0,   2,   0,   0,   0,   0, 1000, 1.843, 1023,   0,   0,   1, -60, -37, 4163, 128, 123, 136, 116, ANGLE_MODE, GPS_FIX_HOME|GPS_FIX|SMALL_ANGLE, IDLE, 1, 1
1144, 108005627,   3,   1,   0,   0,   0,   0,  10,   3,   0,   0,   0,   0, 1000, 1.843, 1023,  -4,  -1,   0, -49, -52, 4162, 137, 115, 193, 177, ANGLE_MODE, GPS_FIX_HOME|GPS_FIX|SMALL_ANGLE, IDLE, 1, 1
1152, 108009689,   3,   0,   6,   0,   0,   0,   3,  -1,   0,   0,   0,   0, 1000, 1.843, 1023,  -3,   0,  -2, -59, -73, 4175, 139, 119, 140, 173, ANGLE_MODE, GPS_FIX_HOME|GPS_FIX|SMALL_ANGLE, IDLE, 1, 1
1160, 108013751,   0,   0,   0,   0,   0,   0,  -9,  -3,   0,   0,   0,   0, 1000, 1.843, 1023,   0,   1,   0, -67, -59, 4175, 151, 168, 115, 135, ANGLE_MODE, GPS_FIX_HOME|GPS_FIX|SMALL_ANGLE, IDLE, 1, 1
1168, 108017799,  -1,   0,  -4,   0,   0,   0,  -9,   0,   0,   0,   0,   0, 1000, 1.843, 1023,   2,   0,   2, -65, -44, 4169, 160, 175, 135, 115, ANGLE_MODE, GPS_FIX_HOME|GPS_FIX|SMALL_ANGLE, IDLE, 1, 1
1176, 108021905,   0,   0,   1,   0,   0,   0,   3,   3,   0,   0,   0,   0, 1000, 1.834, 1023,  -1,  -1,   0, -66, -55, 4164, 135, 115, 146, 134, ANGLE_MODE, GPS_FIX_HOME|GPS_FIX|SMALL_ANGLE, IDLE, 1, 1
1184, 108025957,   3,   0,   1,   0,   0,   0,  13,   0,   0,   0,   0,   0, 1000, 1.834, 1023,  -4,  -1,   0, -67, -76, 4171, 125, 115, 186, 185, ANGLE_MODE, GPS_FIX_HOME|GPS_FIX|SMALL_ANGLE, IDLE, 1, 1
1192, 108030296,   1,   0,   2,   0,   0,   0,  -1,  -3,   0,   0,   0,   0, 1000, 1.834, 1023,  -2,   0,  -1, -70, -95, 4188, 124, 128, 116, 138, ANGLE_MODE, GPS_FIX_HOME|GPS_FIX|SMALL_ANGLE, IDLE, 1, 1
1200, 108034367,  -1,   0,  -2,   0,   0,   0,  -9,  -1,   0,   0,   0,   0, 1000, 1.834, 1023,   0,   0,   1, -80, -87, 4194, 156, 172, 123, 118, ANGLE_MODE, GPS_FIX_HOME|GPS_FIX|SMALL_ANGLE, IDLE, 1, 1
1208, 108038413,  -2,   0,  -4,   0,   0,   0,  -5,   0,   0,   0,   0,   0, 1000, 1.834, 1023,   1,   0,   2, -86, -74, 4187, 149, 165, 137, 115, ANGLE_MODE, GPS_FIX_HOME|GPS_FIX|SMALL_ANGLE, IDLE, 1, 1
1216, 108042471,   0,   0,   0,   0,   0,   0,   5,   1,   0,   0,   0,   0, 1000, 1.834, 1023,  -1,  -1,   0, -83, -85, 4183, 126, 115, 143, 138, ANGLE_MODE, GPS_FIX_HOME|GPS_FIX|SMALL_ANGLE, IDLE, 1, 1
1224, 108046594,   1,   0,   5,   0,   0,   0,   7,   0,   0,   0,   0,   0, 1000, 1.834, 1023,  -3,   0,  -2, -84, -103, 4201, 139, 115, 153, 174, ANGLE_MODE, GPS_FIX_HOME|GPS_FIX|SMALL_ANGLE, IDLE, 1, 1
1232, 108050676,   0,   0,   0,   0,   0,   0,   0,  -1,   0,   0,   0,   0, 1000, 1.834, 1023,  -1,   0,   0, -84, -109, 4213, 116, 119, 116, 120, ANGLE_MODE, GPS_FIX_HOME|GPS_FIX|SMALL_ANGLE, IDLE, 1, 1
1240, 108054762,  -1,   0,  -2,   0,   0,   0,  -7,  -1,   0,   0,   0,   0, 1000, 1.834, 1023,   1,   0,   1, -91, -99, 4207, 149, 166, 125, 118, ANGLE_MODE, GPS_FIX_HOME|GPS_FIX|SMALL_ANGLE, IDLE, 1, 1
1248, 108058824,  -2,   0,  -3,   0,   0,   0,  -4,   0,   0,   0,   0,   0, 1000, 1.834, 1023,   2,   0,   1, -86, -95, 4193, 144, 159, 131, 116, ANGLE_MODE, GPS_FIX_HOME|GPS_FIX|SMALL_ANGLE, IDLE, 1, 1
1256, 108062887,   0,   0,   0,   0,   0,   0,   4,   1,   0,   0,   0,   0, 1000, 1.834, 1023,  -1,  -1,   0, -53, -89, 4188, 124, 116, 144, 133, ANGLE_MODE, GPS_FIX_HOME|GPS_FIX|SMALL_ANGLE, IDLE, 1, 1
1264, 108066967,   1,   0,   8,   0,   0,   0,   7,   0,   0,  -1,   0,   1, 1005, 1.834, 1023,  -2,   0,  -3, -32, -92, 4191, 150, 117, 149, 187, ANGLE_MODE, GPS_FIX_HOME|GPS_FIX|SMALL_ANGLE, IDLE, 1, 1
1272, 108071032,  -1,   0,   0,   0,   0,   0,  -4,  -1,   0,  -2,   0,   1, 1005, 1.834, 1023,   0,   0,   0, -18, -84, 4183, 141, 145, 115, 124, ANGLE_MODE, GPS_FIX_HOME|GPS_FIX|SMALL_ANGLE, IDLE, 1, 1
1280, 108075097,  -3,   1,  -3,   0,   0,   0, -10,  10,   0,  -2,   3,   1, 1005, 1.834, 1023,   2,   0,   2,  -5, -61, 4167, 215, 182, 172, 115, ANGLE_MODE, GPS_FIX_HOME|GPS_FIX|SMALL_ANGLE, IDLE, 1, 1
1288, 108079192,  -3,   4,  -3,   0,   0,   0,  -1,   2,   0,  -2,   7,   1, 1005, 1.834, 1023,   1,   0,   2, -12, -61, 4162, 155, 141, 148, 115, ANGLE_MODE, GPS_FIX_HOME|GPS_FIX|SMALL_ANGLE, IDLE, 1, 1
1296, 108083253,   0,   4,  -2,   0,   0,   0,  10,   0,   0,  -2,   7,   1, 1005, 1.834, 1023,  -2,   1,   1,  -7, -77, 4172, 131, 121, 181, 150, ANGLE_MODE, GPS_FIX_HOME|GPS_FIX|SMALL_ANGLE, IDLE, 1, 1
1304, 108087302,   0,   5,   3,   0,   0,   0,   3,   7,   0,  -2,  10,   3, 1014, 1.834, 1023,  -2,   1,   0, -11, -86, 4182, 178, 115, 173, 136, ANGLE_MODE, GPS_FIX_HOME|GPS_FIX|SMALL_ANGLE, IDLE, 1, 1
1312, 108091363,  -2,   8,   0,   0,   0,   0,  -7,  10,   0,  -2,  14,   3, 1014, 1.834, 1023,   1,   1,   1, -18, -71, 4183, 237, 156, 192, 117, ANGLE_MODE, GPS_FIX_HOME|GPS_FIX|SMALL_ANGLE, IDLE, 1, 1
1320, 108095447,  -3,   8,  -1,   0,   1,   0,  -4,   0,   0,  -2,  15,   3, 1024, 1.834, 1023,   1,   1,   2, -28, -70, 4173, 192, 152, 163, 115, ANGLE_MODE, GPS_FIX_HOME|GPS_FIX|SMALL_ANGLE, IDLE, 1, 1
1328, 108099506,  -1,   9,   1,   0,   1,   0,   4,   0,   0,  -2,  16,   3, 1024, 1.834, 1023,  -1,   1,   1, -30, -71, 4182, 160, 115, 167, 129, ANGLE_MODE, GPS_FIX_HOME|GPS_FIX|SMALL_ANGLE, IDLE, 1, 1
1336, 108103588,   0,   9,   9,   0,   2,   0,   3,   0,   0,  -2,  16,   3, 1024, 1.834, 1023,  -1,   1,  -2, -38, -74, 4197, 195, 115, 165, 158, ANGLE_MODE, GPS_FIX_HOME|GPS_FIX|SMALL_ANGLE, IDLE, 1, 1
1344, 108107677,   0,  10,   3,   0,   2,   0,   0,  10,   0,  -2,  19,   3, 1025, 1.834, 1023,  -1,   1,   0, -33, -78, 4202, 232, 119, 207, 128, ANGLE_MODE, GPS_FIX_HOME|GPS_FIX|SMALL_ANGLE, IDLE, 1, 1
1352, 108111741,  -1,  12,   2,   0,   3,   0,  -1,   6,   0,  -2,  23,   3, 1025, 1.834, 1023,   0,   2,   1, -42, -73, 4197, 230, 126, 201, 122, ANGLE_MODE, GPS_FIX_HOME|GPS_FIX|SMALL_ANGLE, IDLE, 1, 1
1360, 108115792,  -2,  13,   4,  -1,   4,   0,  -3,  -1,   0,  -2,  24,   3, 1034, 1.834, 1023,   1,   2,   0, -50, -71, 4203, 217, 131, 169, 126, ANGLE_MODE, GPS_FIX_HOME|GPS_FIX|SMALL_ANGLE, IDLE, 1, 1
1368, 108120152,  -2,  13,   7,  -1,   4,   0,   0,   2,   0,  -2,  25,   3, 1034, 1.834, 1023,   0,   2,  -1, -53, -61, 4211, 240, 123, 191, 140, ANGLE_MODE, GPS_FIX_HOME|GPS_FIX|SMALL_ANGLE, IDLE, 1, 1
1376, 108124218,   0,  14,   6,  -1,   5,   0,   4,   2,   0,  -2,  25,   3, 1034, 1.834, 1023,  -1,   1,  -1, -47, -79, 4209, 229, 115, 212, 149, ANGLE_MODE, GPS_FIX_HOME|GPS_FIX|SMALL_ANGLE, IDLE, 1, 1
1384, 108128324,   0,  13,   0,  -1,   6,   0,   4,  -2,   0,  -2,  25,   3, 1045, 1.834, 1023,  -1,   3,   1, -60, -89, 4218, 187, 115, 191, 128, ANGLE_MODE, GPS_FIX_HOME|GPS_FIX|SMALL_ANGLE, IDLE, 1, 1
1392, 108132398,  -3,  13,   1,  -1,   6,   0,  -8,  -2,   0,  -2,  26,   3, 1057, 1.834, 1023,   2,   3,   1, -66, -85, 4220, 244, 163, 182, 120, ANGLE_MODE, GPS_FIX_HOME|GPS_FIX|SMALL_ANGLE, IDLE, 1, 1
1400, 108136449,  -2,  17,   5,  -1,   7,   0,  -2,  13,   0,  -2,  31,   3, 1057, 1.834, 1023,   1,   2,   0, -63, -70, 4220, 311, 129, 259, 128, ANGLE_MODE, GPS_FIX_HOME|GPS_FIX|SMALL_ANGLE, IDLE, 1, 1
1408, 108140512,   0,  18,   5,  -1,   8,   0,   9,   1,   0,  -2,  34,   3, 1057, 1.826, 1023,  -2,   2,   0, -63, -95, 4206, 241, 115, 249, 159, ANGLE_MODE, GPS_FIX_HOME|GPS_FIX|SMALL_ANGLE, IDLE, 1, 1
1416, 108144561,   0,  18,   6,  -1,   9,   0,   3,   0,   0,  -2,  34,   3, 1057, 1.826, 1023,  -1,   3,  -1, -75, -117, 4214, 250, 115, 229, 148, ANGLE_MODE, GPS_FIX_HOME|GPS_FIX|SMALL_ANGLE, IDLE, 1, 1
1424, 108148623,  -2,  19,   3,  -1,  10,   0,  -9,   1,   0,  -2,  35,   3, 1067, 1.826, 1023,   1,   3,   0, -50, -111, 4207, 303, 163, 231, 124, ANGLE_MODE, GPS_FIX_HOME|GPS_FIX|SMALL_ANGLE, IDLE, 1, 1
1432, 108152684,  -3,  19,   0,  -1,  11,   0,  -4,   0,   0,  -2,  36,   3, 1077, 1.826, 1023,   2,   4,   1, -62, -112, 4197, 276, 151, 233, 118, ANGLE_MODE, GPS_FIX_HOME|GPS_FIX|SMALL_ANGLE, IDLE, 1, 1
1440, 108156763,  -2,  19,   5,  -1,  12,   0,   3,   0,   0,  -2,  36,   3, 1077, 1.826, 1023,   0,   4,   0, -56, -118, 4189, 268, 117, 238, 141, ANGLE_MODE, GPS_FIX_HOME|GPS_FIX|SMALL_ANGLE, IDLE, 1, 1
1448, 108160837,   0,  19,   8,  -1,  13,   0,   7,   1,   0,  -2,  37,   3, 1077, 1.834, 1023,  -2,   3,  -1, -45, -131, 4189, 283, 115, 265, 165, ANGLE_MODE, GPS_FIX_HOME|GPS_FIX|SMALL_ANGLE, IDLE, 1, 1
1456, 108164897,  -1,  19,   6,  -1,  14,   0,   0,  -1,   0,  -2,  37,   3, 1077, 1.834, 1023,   0,   4,  -1, -45, -136, 4207, 281, 122, 236, 141, ANGLE_MODE, GPS_FIX_HOME|GPS_FIX|SMALL_ANGLE, IDLE, 1, 1
1464, 108168942,  -3,  20,   4,  -2,  15,   1,  -9,   6,   0,  -2,  41,   3, 1097, 1.834, 1012,   1,   5,   0, -42, -118, 4206, 351, 162, 272, 126, ANGLE_MODE, GPS_FIX_HOME|GPS_FIX|SMALL_ANGLE, IDLE, 1, 1
1472, 108172998,  -3,  22,   3,  -2,  16,   1,  -1,   0,   0,  -2,  45,   3, 1100, 1.834, 1012,   2,   6,   0, -41, -106, 4193, 318, 145, 269, 136, ANGLE_MODE, GPS_FIX_HOME|GPS_FIX|SMALL_ANGLE, IDLE, 1, 1
1480, 108177049,  -3,  23,   7,  -2,  17,   1,  -1,   0,   0,  -2,  46,   3, 1100, 1.834, 1012,   2,   6,  -1, -40, -109, 4204, 330, 133, 267, 138, ANGLE_MODE, GPS_FIX_HOME|GPS_FIX|SMALL_ANGLE, IDLE, 1, 1
1488, 108181131,   0,  24,   4,  -2,  18,   1,   9,  10,   0,  -2,  49,   3, 1107, 1.834, 1012,  -3,   7,   0, -14, -110, 4205, 340, 115, 348, 159, ANGLE_MODE, GPS_FIX_HOME|GPS_FIX|SMALL_ANGLE, IDLE, 1, 1
1496, 108185193,   0,  25,  11,  -2,  19,   1,   4,   4,   0,  -2,  53,   3, 1107, 1.834, 1012,  -1,   8,  -2, -31, -115, 4227, 365, 115, 320, 171, ANGLE_MODE, GPS_FIX_HOME|GPS_FIX|SMALL_ANGLE, IDLE, 1, 1
1504, 108189253,  -3,  24,   5,  -2,  20,   1, -13,  -3,   0,  -2,  54,   3, 1107, 1.834, 1012,   2,   9,   0, -17, -113, 4224, 378, 181, 272, 129, ANGLE_MODE, GPS_FIX_HOME|GPS_FIX|SMALL_ANGLE, IDLE, 1, 1
1512, 108193312,  -3,  23,   3,  -2,  22,   1,   0,  -4,   0,  -2,  54,   3, 1117, 1.834, 1012,   2,  11,   0,   2, -75, 4227, 357, 171, 311, 168, ANGLE_MODE, GPS_FIX_HOME|GPS_FIX|SMALL_ANGLE, IDLE, 1, 1
1520, 108197389,  -2,  22,   6,  -2,  23,   1,   2,  -3,   0,  -1,  54,   3, 1117, 1.834, 1012,   1,  12,  -1,  22, -81, 4230, 361, 155, 314, 177, ANGLE_MODE, GPS_FIX_HOME|GPS_FIX|SMALL_ANGLE, IDLE, 1, 1
1528, 108201454,   0,  21,   9,  -3,  24,   1,   9,  -4,   0,  -1,  54,   3, 1117, 1.826, 1012,  -2,  13,  -2,  22, -90, 4233, 341, 132, 327, 207, ANGLE_MODE, GPS_FIX_HOME|GPS_FIX|SMALL_ANGLE, IDLE, 1, 1
1536, 108205549,   0,  20,   0,  -2,  25,   1,   1,  -2,   0,  -1,  55,   3, 1128, 1.826, 1012,  -1,  14,   2,  55, -89, 4252, 342, 164, 334, 166, ANGLE_MODE, GPS_FIX_HOME|GPS_FIX|SMALL_ANGLE, IDLE, 1, 1
1544, 108209875,   0,  18,   1,  -2,  26,   1,  -4,  -6,   0,  -1,  56,   3, 1128, 1.826, 1012,   0,  17,   1,  46, -79, 4252, 372, 207, 327, 190, ANGLE_MODE, GPS_FIX_HOME|GPS_FIX|SMALL_ANGLE, IDLE, 1, 1
1552, 108213986,  -1,  17,  19,  -3,  27,   1,  -3,  -3,   0,  -1,  56,  12, 1137, 1.826, 1012,   0,  18,   0,  72, -86, 4256, 432, 184, 316, 237, ANGLE_MODE, GPS_FIX_HOME|GPS_FIX|SMALL_ANGLE, IDLE, 1, 1
1560, 108218044,   0,  15,  19,  -3,  27,   2,   3,  -7,   0,  -1,  56,  12, 1137, 1.826, 1012,  -1,  20,   0,  71, -67, 4257, 409, 175, 320, 265, ANGLE_MODE, GPS_FIX_HOME|GPS_FIX|SMALL_ANGLE, IDLE, 1, 1
1568, 108222118,   0,  15,   0,  -3,  28,   2,   0,  -1,   0,  -1,  56,  12, 1137, 1.834, 1012,   0,  21,   6, 106, -84, 4267, 391, 210, 363, 205, ANGLE_MODE, GPS_FIX_HOME|GPS_FIX|SMALL_ANGLE, IDLE, 1, 1
1576, 108226172,   0,  12,   1,  -3,  29,   2,   1,  -7,   0,  -1,  56,  12, 1149, 1.834, 1012,  -2,  24,   6, 131, -84, 4268, 394, 241, 375, 256, ANGLE_MODE, GPS_FIX_HOME|GPS_FIX|SMALL_ANGLE, IDLE, 1, 1
1584, 108230233,   1,   8,   8,  -3,  29,   2,   5, -10,   0,  -2,  56,  12, 1149, 1.834, 1012,  -3,  27,   4, 202, -87, 4259, 387, 229, 361, 290, ANGLE_MODE, GPS_FIX_HOME|GPS_FIX|SMALL_ANGLE, IDLE, 1, 1
1592, 108234308,   0,   7,  17,  -2,  30,   2,  -3,  -9,   0,  -3,  57,  12, 1149, 1.834, 1012,  -1,  29,   1, 219, -52, 4256, 426, 236, 318, 288, ANGLE_MODE, GPS_FIX_HOME|GPS_FIX|SMALL_ANGLE, IDLE, 1, 1
1600, 108238384,  -3,   6,  13,  -3,  30,   2,  -7,   0,   0,  -3,  57,  12, 1149, 1.834, 1012,   1,  29,   2, 284, -57, 4256, 450, 238, 331, 248, ANGLE_MODE, GPS_FIX_HOME|GPS_FIX|SMALL_ANGLE, IDLE, 1, 1
1608, 108242474,  -3,   2,  17,  -3,  30,   3,  -5,  -8,   0,  -1,  57,  20, 1163, 1.826, 1002,   2,  34,   5, 268, -21, 4264, 462, 278, 331, 310, ANGLE_MODE, GPS_FIX_HOME|GPS_FIX|SMALL_ANGLE, IDLE, 1, 1
1616, 108246566,  -2,  -1,   4,  -3,  30,   3,   1, -15,   0,   0,  58,  20, 1163, 1.826, 1002,   2,  38,   9, 261,  -3, 4254, 397, 309, 349, 326, ANGLE_MODE, GPS_FIX_HOME|GPS_FIX|SMALL_ANGLE, IDLE, 1, 1
1624, 108250640,   1,  -1,  11,  -3,  30,   3,   8,  -5,   0,   0,  58,  20, 1163, 1.826, 1002,  -2,  38,   7, 266, -51, 4278, 411, 254, 377, 339, ANGLE_MODE, GPS_FIX_HOME|GPS_FIX|SMALL_ANGLE, IDLE, 1, 1
1632, 108254719,   1,  -2,   7,  -3,  30,   3,   5,   1,   0,  -1,  58,  20, 1186, 1.826, 992,  -2,  40,   8, 264, -34, 4284, 466, 303, 437, 362, ANGLE_MODE, GPS_FIX_HOME|GPS_FIX|SMALL_ANGLE, IDLE, 1, 1
1640, 108258786,   2,  -4,   8,  -3,  30,   3,   3,  -8,   0,  -1,  59,  20, 1186, 1.826, 992,  -3,  43,   8, 251, -79, 4281, 448, 327, 407, 386, ANGLE_MODE, GPS_FIX_HOME|GPS_FIX|SMALL_ANGLE, IDLE, 1, 1
1648, 108262883,   0,  -5,   8,  -3,  30,   4,  -4,  -3,   0,  -1,  59,  20, 1187, 1.817, 992,  -1,  43,   8, 267, -70, 4284, 475, 342, 397, 362, ANGLE_MODE, GPS_FIX_HOME|GPS_FIX|SMALL_ANGLE, IDLE, 1, 1
1656, 108266940,  -1, -10,   7,  -3,  29,   4,  -7, -11,   0,  -1,  60,  20, 1200, 1.817, 992,   1,  49,   8, 222, -51, 4293, 483, 406, 389, 402, ANGLE_MODE, GPS_FIX_HOME|GPS_FIX|SMALL_ANGLE, IDLE, 1, 1
1664, 108271002,   0, -12,  11,  -3,  29,   4,   0,  -8,   0,  -1,  60,  20, 1200, 1.817, 992,   0,  51,   7, 225, -73, 4286, 478, 379, 397, 427, ANGLE_MODE, GPS_FIX_HOME|GPS_FIX|SMALL_ANGLE, IDLE, 1, 1
1672, 108275062,   0, -13,   0,  -3,  28,   4,   2,  -7,   0,  -1,  60,  20, 1210, 1.817, 992,   0,  52,  11, 181, -28, 4305, 470, 419, 441, 433, ANGLE_MODE, GPS_FIX_HOME|GPS_FIX|SMALL_ANGLE, IDLE, 1, 1
1680, 108279121,   0, -16,  10,  -3,  27,   4,   3,  -4,   0,  -1,  60,  20, 1221, 1.826, 992,  -1,  55,   7, 174, -77, 4305, 504, 417, 449, 482, ANGLE_MODE, GPS_FIX_HOME|GPS_FIX|SMALL_ANGLE, IDLE, 1, 1
1688, 108283184,   3, -16,   3,  -3,  27,   4,   6,  -6,   0,  -1,  60,  20, 1221, 1.826, 992,  -4,  56,  10, 159, -49, 4314, 472, 428, 468, 485, ANGLE_MODE, GPS_FIX_HOME|GPS_FIX|SMALL_ANGLE, IDLE, 1, 1
1696, 108287242,   2, -19,  25,  -3,  26,   4,   2,  -5,   0,  -1,  60,  22, 1230, 1.826, 992,  -4,  58,   3, 121, -60, 4327, 539, 413, 430, 543, ANGLE_MODE, GPS_FIX_HOME|GPS_FIX|SMALL_ANGLE, IDLE, 1, 1
1704, 108291318,   2, -19,   9,  -2,  25,   5,   0,  -2,   0,  -1,  60,  22, 1230, 1.826, 992,  -4,  58,   9, 121, -59, 4336, 517, 446, 458, 505, ANGLE_MODE, GPS_FIX_HOME|GPS_FIX|SMALL_ANGLE, IDLE, 1, 1
1712, 108295428,   3, -21,   5,  -2,  24,   5,   0,  -5,   0,  -1,  61,  22, 1230, 1.826, 992,  -5,  61,  10,  79, -56, 4349, 493, 462, 459, 511, ANGLE_MODE, GPS_FIX_HOME|GPS_FIX|SMALL_ANGLE, IDLE, 1, 1
1720, 108299762,   2, -21,   2,  -2,  23,   5,  -1,   0,   0,  -1,  62,  23, 1242, 1.817, 992,  -3,  61,  12,  54, -34, 4371, 529, 490, 491, 513, ANGLE_MODE, GPS_FIX_HOME|GPS_FIX|SMALL_ANGLE, IDLE, 1, 1
1728, 108303825,   3, -21,  15,  -2,  22,   5,   4,  -3,   0,  -1,  62,  23, 1242, 1.817, 992,  -4,  62,   7,   0, -33, 4390, 532, 459, 469, 563, ANGLE_MODE, GPS_FIX_HOME|GPS_FIX|SMALL_ANGLE, IDLE, 1, 1
1736, 108307899,   6, -22,   5,  -2,  21,   5,   4,  -1,   0,  -1,  63,  23, 1242, 1.817, 992,  -7,  63,  10,  19, -37, 4402, 503, 472, 495, 553, ANGLE_MODE, GPS_FIX_HOME|GPS_FIX|SMALL_ANGLE, IDLE, 1, 1
1744, 108311968,   5, -21,  -4,  -1,  19,   5,   3,   3,   0,  -1,  64,  23, 1242, 1.817, 992,  -6,  62,  14,  -3, -11, 4451, 499, 484, 523, 518, ANGLE_MODE, GPS_FIX_HOME|GPS_FIX|SMALL_ANGLE, IDLE, 1, 1
1752, 108316058,   4, -20,  15,  -1,  18,   5,  -4,   0,   0,  -1,  64,  25, 1250, 1.817, 992,  -5,  62,   8, -60, -29, 4481, 563, 485, 476, 565, ANGLE_MODE, GPS_FIX_HOME|GPS_FIX|SMALL_ANGLE, IDLE, 1, 1
1760, 108320115,   5, -18,  14,  -1,  17,   5,   0,   4,   0,  -1,  64,  32, 1250, 1.799, 992,  -6,  60,  12, -30,  12, 4544, 560, 464, 499, 564, ANGLE_MODE, GPS_FIX_HOME|GPS_FIX|SMALL_ANGLE, IDLE, 1, 1
1768, 108324196,   4, -18,  12,  -1,  17,   5,  -1,   4,   0,  -1,  64,  32, 1250, 1.799, 992,  -5,  60,  13, -55,  -7, 4608, 562, 473, 496, 557, ANGLE_MODE, GPS_FIX_HOME|GPS_FIX|SMALL_ANGLE, IDLE, 1, 1
1776, 108328263,   5, -15,  12,   0,  16,   6,  -1,   7,   0,  -1,  64,  33, 1260, 1.799, 992,  -6,  56,  13, -82, -22, 4693, 591, 481, 528, 569, ANGLE_MODE, GPS_FIX_HOME|GPS_FIX|SMALL_ANGLE, IDLE, 1, 1
1784, 108332321,   5, -14,  -2,   0,  15,   6,   2,   3,   0,  -1,  64,  33, 1260, 1.799, 992,  -6,  56,  19, -69, -61, 4791, 545, 511, 560, 554, ANGLE_MODE, GPS_FIX_HOME|GPS_FIX|SMALL_ANGLE, IDLE, 1, 1
1792, 108336379,   5, -13,  -2,   0,  14,   6,  -1,   5,   0,  -1,  64,  33, 1260, 1.799, 992,  -6,  55,  19, -70, -93, 4885, 556, 517, 554, 543, ANGLE_MODE, GPS_FIX_HOME|GPS_FIX|SMALL_ANGLE, IDLE, 1, 1
1800, 108340441,   5, -10,   4,   0,  14,   6,  -3,   5,   0,  -1,  64,  33, 1268, 1.817, 992,  -6,  52,  16, -55, -147, 4980, 593, 517, 559, 565, ANGLE_MODE, GPS_FIX_HOME|GPS_FIX|SMALL_ANGLE, IDLE, 1, 1
1808, 108344520,   4, -11,  10,   0,  13,   6,   1,   2,   0,  -1,  64,  33, 1268, 1.817, 992,  -5,  53,  14, -34, -152, 5088, 591, 502, 547, 594, ANGLE_MODE, GPS_FIX_HOME|GPS_FIX|SMALL_ANGLE, IDLE, 1, 1
1816, 108348579,   4, -10,  13,   0,  13,   6,   0,   3,   0,  -1,  64,  33, 1268, 1.817, 992,  -6,  52,  13, -62, -143, 5200, 600, 492, 544, 599, ANGLE_MODE, GPS_FIX_HOME|GPS_FIX|SMALL_ANGLE, IDLE, 1, 1
1824, 108352637,   6, -10,   7,   0,  12,   6,   0,  -3,   0,  -1,  65,  33, 1276, 1.817, 992,  -7,  52,  15, -83, -157, 5305, 586, 535, 559, 620, ANGLE_MODE, GPS_FIX_HOME|GPS_FIX|SMALL_ANGLE, IDLE, 1, 1
1832, 108356714,   3,  -9,  -5,   0,  12,   6,   0,   4,   0,  -1,  66,  33, 1276, 1.817, 992,  -4,  52,  20, -51, -160, 5413, 581, 549, 597, 573, ANGLE_MODE, GPS_FIX_HOME|GPS_FIX|SMALL_ANGLE, IDLE, 1, 1
1840, 108360770,   3,  -6,  -4,   1,  11,   6,  -4,   5,   0,  -1,  67,  33, 1276, 1.808, 992,  -4,  49,  20, -39, -156, 5512, 601, 549, 593, 556, ANGLE_MODE, GPS_FIX_HOME|GPS_FIX|SMALL_ANGLE, IDLE, 1, 1
1848, 108364837,   5,  -4,  11,   1,  11,   6,   1,   6,   0,  -1,  67,  33, 1276, 1.808, 992,  -6,  47,  14, -79, -167, 5600, 622, 497, 580, 601, ANGLE_MODE, GPS_FIX_HOME|GPS_FIX|SMALL_ANGLE, IDLE, 1, 1
1856, 108368893,   3,  -5,  -1,   1,  11,   6,  -1,   2,   0,  -1,  67,  35, 1286, 1.808, 982,  -4,  48,  19, -61, -151, 5684, 618, 562, 607, 594, ANGLE_MODE, GPS_FIX_HOME|GPS_FIX|SMALL_ANGLE, IDLE, 1, 1
1864, 108372954,   1,  -5,  -9,   1,  10,   6,  -4,  -3,   0,   0,  67,  35, 1286, 1.808, 982,  -2,  48,  22, -64, -125, 5757, 595, 599, 604, 582, ANGLE_MODE, GPS_FIX_HOME|GPS_FIX|SMALL_ANGLE, IDLE, 1, 1
1872, 108377022,   0,  -5,   1,   1,  10,   6,  -7,   2,   0,   0,  68,  35, 1286, 1.808, 982,  -1,  49,  18, -84, -132, 5821, 637, 574, 583, 587, ANGLE_MODE, GPS_FIX_HOME|GPS_FIX|SMALL_ANGLE, IDLE, 1, 1
1880, 108381113,   0,  -4,   7,   1,  10,   6,  -2,  -4,   0,   0,  68,  35, 1286, 1.790, 982,   0,  49,  16, -75, -151, 5895, 627, 567, 568, 618, ANGLE_MODE, GPS_FIX_HOME|GPS_FIX|SMALL_ANGLE, IDLE, 1, 1
1888, 108385184,   0,  -6,   0,   1,  10,   6,   2,  -2,   0,   0,  68,  35, 1286, 1.790, 982,   0,  51,  19, -69, -126, 5972, 601, 571, 591, 617, ANGLE_MODE, GPS_FIX_HOME|GPS_FIX|SMALL_ANGLE, IDLE, 1, 1
1896, 108389510,  -1,  -8,   0,   1,   9,   6,  -6,  -5,   0,   0,  68,  36, 1296, 1.790, 982,   2,  52,  20, -96, -99, 6051, 632, 624, 581, 624, ANGLE_MODE, GPS_FIX_HOME|GPS_FIX|SMALL_ANGLE, IDLE, 1, 1
1904, 108393570,  -2,  -9,  -1,   1,   9,   6,  -4,   0,   0,   0,  69,  36, 1296, 1.790, 982,   2,  53,  20, -150, -105, 6136, 634, 618, 594, 616, ANGLE_MODE, GPS_FIX_HOME|GPS_FIX|SMALL_ANGLE, IDLE, 1, 1
1912, 108397635,   0,  -7,  -2,   1,   8,   6,   3,   2,   0,   0,  69,  36, 1296, 1.790, 982,   1,  52,  20, -159, -105, 6216, 624, 592, 621, 625, ANGLE_MODE, GPS_FIX_HOME|GPS_FIX|SMALL_ANGLE, IDLE, 1, 1
1920, 108401685,  -2,  -5,   0,   1,   8,   6,   0,   6,   0,   0,  69,  38, 1296, 1.817, 982,   2,  50,  21, -136, -121, 6301, 652, 586, 618, 607, ANGLE_MODE, GPS_FIX_HOME|GPS_FIX|SMALL_ANGLE, IDLE, 1, 1
1928, 108405770,   1,  -3,   9,   1,   8,   6,   4,   6,   0,   0,  69,  38, 1296, 1.817, 982,  -1,  48,  17, -399, -200, 6386, 656, 545, 619, 642, ANGLE_MODE, GPS_FIX_HOME|GPS_FIX|SMALL_ANGLE, IDLE, 1, 1
1936, 108409837,   2,  -3,   5,   1,   8,   6,   9,   1,   0,   0,  69,  38, 1305, 1.817, 982,  -2,  48,  19, -574, -238, 6459, 644, 571, 648, 672, ANGLE_MODE, GPS_FIX_HOME|GPS_FIX|SMALL_ANGLE, IDLE, 1, 1
1944, 108413901,   0,  -3,  -6,   1,   7,   6,  -4,   1,   0,   0,  70,  38, 1305, 1.817, 982,  -1,  48,  23, -704, -273, 6542, 651, 627, 640, 617, ANGLE_MODE, GPS_FIX_HOME|GPS_FIX|SMALL_ANGLE, IDLE, 1, 1
1952, 108417991,   1,  -4,  -7,   1,   7,   6,   0,  -2,   0,   0,  70,  38, 1305, 1.817, 982,  -2,  49,  23, -788, -272, 6627, 629, 630, 643, 634, ANGLE_MODE, GPS_FIX_HOME|GPS_FIX|SMALL_ANGLE, IDLE, 1, 1
1960, 108422051,   0,  -4,   0,   1,   7,   6,   0,  -2,   0,   0,  71,  38, 1305, 1.790, 982,   0,  50,  20, -827, -270, 6710, 646, 618, 622, 649, ANGLE_MODE, GPS_FIX_HOME|GPS_FIX|SMALL_ANGLE, IDLE, 1, 1
1968, 108426135,  -2,  -5,  -4,   1,   7,   6,  -9,   0,   0,   0,  71,  47, 1315, 1.790, 971,   3,  51,  22, -826, -296, 6799, 684, 666, 633, 633, ANGLE_MODE, GPS_FIX_HOME|GPS_FIX|SMALL_ANGLE, IDLE, 1, 1
1976, 108430191,   0,  -5,  -1,   1,   7,   6,   1,  -1,   0,   0,  72,  47, 1315, 1.790, 971,   0,  52,  26, -808, -271, 6883, 658, 638, 650, 670, ANGLE_MODE, GPS_FIX_HOME|GPS_FIX|SMALL_ANGLE, IDLE, 1, 1
1984, 108434262,  -3,  -6,   0,   1,   6,   6,  -1,  -2,   0,   0,  73,  48, 1315, 1.790, 971,   3,  53,  26, -753, -253, 6970, 669, 651, 632, 664, ANGLE_MODE, GPS_FIX_HOME|GPS_FIX|SMALL_ANGLE, IDLE, 1, 1
1992, 108438314,  -6,  -7,   4,   1,   6,   6, -14,  -2,   0,   0,  74,  48, 1315, 1.790, 971,   6,  55,  25, -700, -212, 7068, 708, 680, 585, 643, ANGLE_MODE, GPS_FIX_HOME|GPS_FIX|SMALL_ANGLE, IDLE, 1, 1
2000, 108442376,  -4,  -8,  -5,   0,   6,   6,   3,  -5,   0,   0,  74,  48, 1315, 1.817, 971,   5,  56,  28, -633, -169, 7160, 643, 668, 635, 671, ANGLE_MODE, GPS_FIX_HOME|GPS_FIX|SMALL_ANGLE, IDLE, 1, 1
2008, 108446425,  -7,  -7,  -1,   0,   5,   6,  -2,   6,   0,   0,  75,  48, 1315, 1.817, 971,   7,  56,  27, -575, -167, 7250, 692, 653, 634, 637, ANGLE_MODE, GPS_FIX_HOME|GPS_FIX|SMALL_ANGLE, IDLE, 1, 1
2016, 108450487,  -7,  -4,  -1,   0,   5,   6,  -6,  11,   0,   0,  79,  48, 1315, 1.817, 971,   7,  55,  27, -506, -191, 7327, 717, 647, 641, 611, ANGLE_MODE, GPS_FIX_HOME|GPS_FIX|SMALL_ANGLE, IDLE, 1, 1
2024, 108454549,  -1,  -2, -10,   0,   5,   6,  18,   2,   0,   0,  81,  48, 1315, 1.817, 971,   1,  55,  30, -444, -205, 7418, 621, 619, 707, 670, ANGLE_MODE, GPS_FIX_HOME|GPS_FIX|SMALL_ANGLE, IDLE, 1, 1
2032, 108458601,  -2,  -5,  -1,   0,   4,   6,   5,  -5,   0,   0,  81,  48, 1315, 1.817, 971,   2,  58,  27, -397, -224, 7506, 645, 650, 639, 683, ANGLE_MODE, GPS_FIX_HOME|GPS_FIX|SMALL_ANGLE, IDLE, 1, 1
2040, 108462676,  -1,  -8,   7,   0,   4,   6,  -3, -12,   0,   0,  81,  48, 1316, 1.808, 971,   1,  61,  23, -369, -218, 7590, 660, 671, 585, 708, ANGLE_MODE, GPS_FIX_HOME|GPS_FIX|SMALL_ANGLE, IDLE, 1, 1
2048, 108466769,   3, -10,  11,   0,   4,   6,  13,  -6,   0,   0,  81,  48, 1326, 1.808, 971,  -3,  63,  22, -355, -179, 7646, 650, 634, 648, 773, ANGLE_MODE, GPS_FIX_HOME|GPS_FIX|SMALL_ANGLE, IDLE, 1, 1
2056, 108471092,   2,  -9,  12,   0,   3,   6,   4,   0,   0,   0,  81,  48, 1326, 1.808, 971,  -2,  62,  22, -343, -166, 7692, 687, 638, 640, 741, ANGLE_MODE, GPS_FIX_HOME|GPS_FIX|SMALL_ANGLE, IDLE, 1, 1
2064, 108475150,   1,  -8,   5,   0,   3,   6,  -5,   5,   0,   0,  82,  50, 1326, 1.808, 971,  -2,  61,  25, -327, -162, 7724, 709, 659, 646, 692, ANGLE_MODE, GPS_FIX_HOME|GPS_FIX|SMALL_ANGLE, IDLE, 1, 1
2072, 108479206,   4,  -6,   6,   0,   2,   6,   5,   7,   0,   0,  82,  50, 1326, 1.808, 971,  -5,  59,  25, -307, -156, 7739, 690, 622, 680, 713, ANGLE_MODE, GPS_FIX_HOME|GPS_FIX|SMALL_ANGLE, IDLE, 1, 1
2080, 108483257,   3,  -3,   1,   0,   2,   6,   1,   7,   0,   0,  82,  50, 1326, 1.790, 971,  -4,  56,  27, -472, -41, 7719, 695, 635, 687, 688, ANGLE_MODE, GPS_FIX_HOME|GPS_FIX|SMALL_ANGLE, IDLE, 1, 1
2088, 108487307,   4,   0,   0,   0,   2,   6,  -1,  11,   0,   0,  82,  58, 1326, 1.790, 971,  -4,  53,  31, -571,  -7, 7706, 711, 627, 696, 671, ANGLE_MODE, GPS_FIX_HOME|GPS_FIX|SMALL_ANGLE, IDLE, 1, 1
2096, 108491366,   5,   0,   2,   0,   2,   6,   6,   3,   0,   0,  82,  58, 1326, 1.790, 971,  -5,  53,  31, -603,  13, 7704, 682, 621, 696, 707, ANGLE_MODE, GPS_FIX_HOME|GPS_FIX|SMALL_ANGLE, IDLE, 1, 1
2104, 108495442,   4,   0,   3,   1,   2,   6,   0,   0,   0,   0,  83,  58, 1328, 1.790, 971,  -4,  54,  30, -613, -25, 7716, 696, 647, 672, 708, ANGLE_MODE, GPS_FIX_HOME|GPS_FIX|SMALL_ANGLE, IDLE, 1, 1
2112, 108499490,   4,  -1,  -1,   1,   2,   6,  -1,  -3,   0,   0,  84,  58, 1329, 1.764, 971,  -4,  55,  32, -588, -69, 7732, 680, 668, 678, 705, ANGLE_MODE, GPS_FIX_HOME|GPS_FIX|SMALL_ANGLE, IDLE, 1, 1
2120, 108503548,   3,  -2,  -2,   1,   2,   6,   0,  -3,   0,   0,  84,  58, 1329, 1.764, 971,  -3,  57,  32, -562, -111, 7761, 677, 671, 676, 706, ANGLE_MODE, GPS_FIX_HOME|GPS_FIX|SMALL_ANGLE, IDLE, 1, 1
2128, 108507600,   1,  -3,   4,   1,   2,   6,  -6,  -2,   0,   0,  84,  58, 1329, 1.764, 971,  -1,  58,  30, -504, -156, 7790, 703, 677, 645, 706, ANGLE_MODE, GPS_FIX_HOME|GPS_FIX|SMALL_ANGLE, IDLE, 1, 1
2136, 108511654,   2,  -5,   5,   1,   2,   6,   0,  -6,   0,   0,  84,  58, 1329, 1.764, 971,  -3,  60,  30, -449, -198, 7820, 679, 670, 648, 734, ANGLE_MODE, GPS_FIX_HOME|GPS_FIX|SMALL_ANGLE, IDLE, 1, 1
2144, 108515726,   5,  -7,   5,   2,   1,   6,  10,  -8,   0,   0,  85,  60, 1330, 1.764, 971,  -6,  62,  31, -386, -231, 7842, 644, 651, 670, 773, ANGLE_MODE, GPS_FIX_HOME|GPS_FIX|SMALL_ANGLE, IDLE, 1, 1
2152, 108519791,   5,  -7,   0,   2,   1,   6,   1,  -2,   0,   0,  85,  60, 1330, 1.808, 971,  -6,  63,  33, -328, -272, 7879, 659, 670, 673, 736, ANGLE_MODE, GPS_FIX_HOME|GPS_FIX|SMALL_ANGLE, IDLE, 1, 1
2160, 108523855,   6,  -7,  -8,   2,   0,   6,   0,   0,   0,   0,  85,  60, 1330, 1.808, 971,  -7,  63,  35, -271, -315, 7913, 647, 682, 694, 715, ANGLE_MODE, GPS_FIX_HOME|GPS_FIX|SMALL_ANGLE, IDLE, 1, 1
2168, 108527945,   7,  -7, -13,   2,   0,   6,   3,   0,   0,   0,  85,  60, 1330, 1.808, 971,  -8,  63,  37, -223, -349, 7932, 628, 682, 715, 713, ANGLE_MODE, GPS_FIX_HOME|GPS_FIX|SMALL_ANGLE, IDLE, 1, 1
2176, 108532013,   6,  -7, -21,   3,   0,   6,  -2,   1,   0,   0,  85,  60, 1330, 1.808, 971,  -7,  62,  40, -179, -396, 7951, 628, 711, 719, 680, ANGLE_MODE, GPS_FIX_HOME|GPS_FIX|SMALL_ANGLE, IDLE, 1, 1
2184, 108536075,   5,  -8, -13,   3,   0,   6,  -4,   0,   0,   0,  85,  68, 1330, 1.808, 971,  -6,  63,  42, -140, -450, 7959, 641, 708, 690, 699, ANGLE_MODE, GPS_FIX_HOME|GPS_FIX|SMALL_ANGLE, IDLE, 1, 1
2192, 108540138,   4,  -7, -10,   3,   0,   6,  -2,   1,   0,   0,  86,  68, 1330, 1.764, 971,  -4,  63,  41, -112, -486, 7968, 651, 695, 692, 700, ANGLE_MODE, GPS_FIX_HOME|GPS_FIX|SMALL_ANGLE, IDLE, 1, 1
2200, 108544195,   2,  -5, -26,   4,   0,   6,  -4,   5,   0,   0,  87,  68, 1330, 1.764, 971,  -3,  62,  46, -88, -524, 7974, 636, 724, 727, 651, ANGLE_MODE, GPS_FIX_HOME|GPS_FIX|SMALL_ANGLE, IDLE, 1, 1
2208, 108548318,   1,  -4, -17,   4,  -1,   6,  -4,   8,   0,   0,  90,  70, 1330, 1.764, 971,  -2,  62,  44, -79, -545, 7982, 666, 700, 715, 657, ANGLE_MODE, GPS_FIX_HOME|GPS_FIX|SMALL_ANGLE, IDLE, 1, 1
2216, 108552379,   0,  -2,   6,   4,  -1,   5,  -3,   6,   0,   0,  94,  70, 1330, 1.764, 971,   0,  63,  36, -83, -549, 7978, 715, 653, 665, 706, ANGLE_MODE, GPS_FIX_HOME|GPS_FIX|SMALL_ANGLE, IDLE, 1, 1
2224, 108556444,   0,  -3,  11,   4,  -1,   5,  -2,  -4,   0,   0,  94,  70, 1332, 1.764, 971,   1,  64,  34, -98, -548, 7975, 702, 671, 637, 744, ANGLE_MODE, GPS_FIX_HOME|GPS_FIX|SMALL_ANGLE, IDLE, 1, 1
2232, 108560757,   0,  -5,  26,   4,  -1,   5,   2,  -6,   0,   0,  95,  70, 1332, 1.737, 971,   1,  66,  29, -199, -546, 7987, 716, 639, 608, 792, ANGLE_MODE, GPS_FIX_HOME|GPS_FIX|SMALL_ANGLE, IDLE, 1, 1
2240, 108564818,   0,  -6,  13,   4,  -2,   5,   0,  -3,   0,   0,  95,  70, 1332, 1.737, 971,   0,  68,  33, -446, -332, 7992, 695, 665, 634, 760, ANGLE_MODE, GPS_FIX_HOME|GPS_FIX|SMALL_ANGLE, IDLE, 1, 1
2248, 108568896,   1,  -7,  -5,   4,  -2,   5,   1,  -3,   0,   0,  95,  70, 1332, 1.737, 971,  -1,  69,  40, -611, -204, 7991, 648, 701, 675, 730, ANGLE_MODE, GPS_FIX_HOME|GPS_FIX|SMALL_ANGLE, IDLE, 1, 1
2256, 108572961,   3,  -6,  -1,   4,  -2,   5,   5,   1,   0,   0,  96,  72, 1330, 1.737, 971,  -3,  69,  39, -714, -137, 7994, 650, 666, 687, 735, ANGLE_MODE, GPS_FIX_HOME|GPS_FIX|SMALL_ANGLE, IDLE, 1, 1
2264, 108577028,   2,  -4,   7,   4,  -3,   5,   0,  10,   0,   0, 101,  72, 1330, 1.737, 971,  -3,  69,  37, -765, -130, 7992, 703, 639, 680, 716, ANGLE_MODE, GPS_FIX_HOME|GPS_FIX|SMALL_ANGLE, IDLE, 1, 1
2272, 108581084,   2,  -2,   1,   4,  -3,   5,   0,  -1,   0,   0, 104,  72, 1330, 1.772, 971,  -3,  70,  39, -779, -158, 8001, 669, 672, 672, 726, ANGLE_MODE, GPS_FIX_HOME|GPS_FIX|SMALL_ANGLE, IDLE, 1, 1
2280, 108585147,   3,  -3, -25,   4,  -3,   5,   2,   0,   0,   0, 104,  72, 1330, 1.772, 971,  -3,  71,  48, -754, -220, 8015, 608, 717, 732, 680, ANGLE_MODE, GPS_FIX_HOME|GPS_FIX|SMALL_ANGLE, IDLE, 1, 1
2288, 108589225,   1,  -4, -40,   4,  -3,   4,  -3,  -2,   0,   0, 104,  72, 1330, 1.772, 971,  -2,  72,  53, -709, -267, 8033, 586, 771, 741, 641, ANGLE_MODE, GPS_FIX_HOME|GPS_FIX|SMALL_ANGLE, IDLE, 1, 1
2296, 108593280,   0,  -4, -25,   4,  -3,   4,  -5,   0,   0,   0, 104,  72, 1321, 1.772, 971,  -1,  72,  48, -653, -300, 8047, 606, 725, 691, 643, ANGLE_MODE, GPS_FIX_HOME|GPS_FIX|SMALL_ANGLE, IDLE, 1, 1
2304, 108597336,   2,  -5, -13,   5,  -3,   4,   3,  -3,   0,   0, 104,  72, 1321, 1.772, 971,  -2,  73,  44, -586, -336, 8048, 602, 688, 678, 696, ANGLE_MODE, GPS_FIX_HOME|GPS_FIX|SMALL_ANGLE, IDLE, 1, 1
2312, 108601405,   2,  -4,   0,   5,  -4,   4,   1,  -1,   0,   0, 104,  73, 1321, 1.764, 971,  -2,  73,  40, -528, -379, 8027, 638, 658, 654, 715, ANGLE_MODE, GPS_FIX_HOME|GPS_FIX|SMALL_ANGLE, IDLE, 1, 1
2320, 108605467,   2,  -4,  -7,   5,  -4,   4,   0,   1,   0,   0, 104,  73, 1321, 1.764, 971,  -2,  72,  43, -484, -424, 8007, 631, 675, 671, 688, ANGLE_MODE, GPS_FIX_HOME|GPS_FIX|SMALL_ANGLE, IDLE, 1, 1
2328, 108609531,   1,  -2,   2,   5,  -4,   4,  -1,   2,   0,   0, 104,  80, 1321, 1.764, 971,  -1,  70,  43, -452, -453, 7985, 660, 652, 655, 699, ANGLE_MODE, GPS_FIX_HOME|GPS_FIX|SMALL_ANGLE, IDLE, 1, 1
2336, 108613604,   0,   0,  14,   5,  -4,   4,  -3,   7,   0,   0, 105,  80, 1312, 1.764, 971,   0,  68,  39, -421, -490, 7965, 686, 600, 621, 685, ANGLE_MODE, GPS_FIX_HOME|GPS_FIX|SMALL_ANGLE, IDLE, 1, 1
2344, 108617697,   0,   0,  12,   5,  -4,   4,  -2,   6,   0,   0, 105,  80, 1312, 1.764, 971,   0,  67,  40, -369, -570, 7940, 681, 602, 626, 682, ANGLE_MODE, GPS_FIX_HOME|GPS_FIX|SMALL_ANGLE, IDLE, 1, 1
2352, 108621755,   2,   2,   1,   5,  -4,   4,   5,   5,   0,   0, 105,  80, 1312, 1.790, 971,  -2,  66,  44, -348, -599, 7924, 639, 603, 671, 679, ANGLE_MODE, GPS_FIX_HOME|GPS_FIX|SMALL_ANGLE, IDLE, 1, 1
2360, 108625798,   2,   3,  -5,   5,  -4,   4,   2,   3,   0,   0, 105,  80, 1312, 1.790, 971,  -3,  65,  46, -320, -638, 7904, 630, 625, 675, 662, ANGLE_MODE, GPS_FIX_HOME|GPS_FIX|SMALL_ANGLE, IDLE, 1, 1
2368, 108629919,   2,   5, -10,   5,  -4,   4,  -1,   4,   0,   0, 107,  82, 1312, 1.790, 971,  -3,  64,  49, -300, -683, 7885, 633, 636, 686, 637, ANGLE_MODE, GPS_FIX_HOME|GPS_FIX|SMALL_ANGLE, IDLE, 1, 1
2376, 108634008,   2,   5,  -5,   5,  -3,   4,   1,   0,   0,   0, 107,  83, 1303, 1.790, 971,  -2,  64,  48, -293, -756, 7871, 614, 608, 657, 640, ANGLE_MODE, GPS_FIX_HOME|GPS_FIX|SMALL_ANGLE, IDLE, 1, 1
2384, 108638079,   1,   5,   0,   5,  -3,   4,   0,   0,   0,   0, 107,  83, 1303, 1.790, 971,  -2,  65,  46, -244, -906, 7886, 623, 605, 639, 651, ANGLE_MODE, GPS_FIX_HOME|GPS_FIX|SMALL_ANGLE, IDLE, 1, 1
2392, 108642147,   1,   4,   0,   5,  -3,   4,  -2,  -2,   0,   0, 107,  83, 1303, 1.799, 971,  -1,  65,  45, -210, -1017, 7871, 628, 613, 626, 652, ANGLE_MODE, GPS_FIX_HOME|GPS_FIX|SMALL_ANGLE, IDLE, 1, 1
2400, 108646480,   2,   3,   2,   6,  -3,   4,   2,  -2,   0,   0, 107,  83, 1294, 1.799, 971,  -2,  66,  45, -204, -1082, 7842, 600, 578, 616, 652, ANGLE_MODE, GPS_FIX_HOME|GPS_FIX|SMALL_ANGLE, IDLE, 1, 1
2408, 108650541,   1,   4,  -2,   6,  -3,   4,  -1,   2,   0,   0, 107,  83, 1294, 1.799, 971,  -1,  65,  46, -200, -1110, 7791, 613, 587, 628, 618, ANGLE_MODE, GPS_FIX_HOME|GPS_FIX|SMALL_ANGLE, IDLE, 1, 1
2416, 108654602,   1,   6,   4,   6,  -2,   4,  -3,   6,   0,   0, 108,  85, 1294, 1.799, 971,  -1,  64,  45, -203, -1087, 7729, 641, 567, 620, 617, ANGLE_MODE, GPS_FIX_HOME|GPS_FIX|SMALL_ANGLE, IDLE, 1, 1
2424, 108658681,   1,   7,   7,   6,  -2,   4,   1,   6,   0,   0, 109,  85, 1294, 1.799, 971,  -2,  63,  44, -211, -1026, 7659, 639, 546, 631, 630, ANGLE_MODE, GPS_FIX_HOME|GPS_FIX|SMALL_ANGLE, IDLE, 1, 1
2432, 108662771,   1,   7,   7,   6,  -2,   4,   1,   2,   0,   0, 109,  85, 1293, 1.764, 971,  -2,  63,  44, -214, -966, 7580, 629, 551, 622, 635, ANGLE_MODE, GPS_FIX_HOME|GPS_FIX|SMALL_ANGLE, IDLE, 1, 1
2440, 108666832,   1,   8,  -1,   6,  -1,   4,   0,   1,   0,   0, 109,  85, 1293, 1.764, 971,  -2,  63,  47, -220, -940, 7499, 614, 571, 638, 615, ANGLE_MODE, GPS_FIX_HOME|GPS_FIX|SMALL_ANGLE, IDLE, 1, 1
2448, 108670909,   2,   7,  -9,   6,  -1,   4,   0,  -1,   0,   0, 109,  85, 1293, 1.764, 971,  -2,  63,  50, -202, -946, 7416, 592, 593, 646, 606, ANGLE_MODE, GPS_FIX_HOME|GPS_FIX|SMALL_ANGLE, IDLE, 1, 1
2456, 108674974,   1,   7,   2,   6,   0,   4,   0,  -4,   0,   0, 109,  86, 1291, 1.764, 971,  -2,  64,  46, -181, -939, 7330, 606, 570, 612, 633, ANGLE_MODE, GPS_FIX_HOME|GPS_FIX|SMALL_ANGLE, IDLE, 1, 1
2464, 108679031,   1,   5,   5,   6,   0,   4,  -1,  -5,   0,   0, 109,  86, 1291, 1.764, 971,  -1,  65,  45, -159, -901, 7247, 614, 571, 598, 639, ANGLE_MODE, GPS_FIX_HOME|GPS_FIX|SMALL_ANGLE, IDLE, 1, 1
2472, 108683104,   1,   5,   0,   6,   0,   4,   0,  -1,   0,   0, 110,  86, 1291, 1.781, 971,  -2,  66,  48, -167, -831, 7170, 602, 574, 622, 624, ANGLE_MODE, GPS_FIX_HOME|GPS_FIX|SMALL_ANGLE, IDLE, 1, 1
2480, 108687190,   1,   4,   0,   6,   0,   4,   0,  -2,   0,   0, 110,  87, 1291, 1.781, 971,  -1,  67,  48, -195, -765, 7095, 602, 577, 617, 626, ANGLE_MODE, GPS_FIX_HOME|GPS_FIX|SMALL_ANGLE, IDLE, 1, 1
2488, 108691258,   0,   3,   3,   6,   0,   4,  -4,  -2,   0,   0, 110,  87, 1291, 1.781, 971,   1,  68,  47, -225, -738, 7024, 620, 583, 597, 621, ANGLE_MODE, GPS_FIX_HOME|GPS_FIX|SMALL_ANGLE, IDLE, 1, 1
2496, 108695314,   0,   2,   0,   6,   0,   4,  -2,  -1,   0,   0, 110,  87, 1291, 1.781, 971,   1,  69,  48, -221, -729, 6953, 613, 583, 605, 620, ANGLE_MODE, GPS_FIX_HOME|GPS_FIX|SMALL_ANGLE, IDLE, 1, 1
2504, 108699371,  -1,   2,  -1,   6,   0,   4,   0,  -2,   0,   0, 110,  87, 1291, 1.781, 971,   1,  69,  48, -194, -706, 6888, 603, 588, 609, 621, ANGLE_MODE, GPS_FIX_HOME|GPS_FIX|SMALL_ANGLE, IDLE, 1, 1
2512, 108703433,  -1,   2,   8,   6,   0,   4,  -3,   0,   0,   0, 110,  87, 1291, 1.790, 971,   2,  69,  45, -158, -670, 6828, 633, 571, 587, 630, ANGLE_MODE, GPS_FIX_HOME|GPS_FIX|SMALL_ANGLE, IDLE, 1, 1
2520, 108707488,   0,   2,  20,   6,   0,   4,   3,   0,   0,   0, 111,  96, 1290, 1.790, 971,   1,  70,  46, -162, -635, 6773, 643, 525, 579, 666, ANGLE_MODE, GPS_FIX_HOME|GPS_FIX|SMALL_ANGLE, IDLE, 1, 1
2528, 108711637,   0,   1,  12,   6,   0,   4,   3,  -2,   0,   0, 111,  96, 1290, 1.790, 971,   0,  71,  49, -185, -630, 6725, 618, 549, 587, 660, ANGLE_MODE, GPS_FIX_HOME|GPS_FIX|SMALL_ANGLE, IDLE, 1, 1
2536, 108715695,   0,   0,   3,   6,   0,   5,  -2,  -1,   0,   0, 111,  96, 1289, 1.790, 971,   1,  72,  52, -196, -649, 6691, 611, 579, 591, 624, ANGLE_MODE, GPS_FIX_HOME|GPS_FIX|SMALL_ANGLE, IDLE, 1, 1
2544, 108719737,   0,   0,   0,   6,   0,   5,   0,  -1,   0,   0, 111,  96, 1289, 1.790, 971,   1,  72,  53, -179, -651, 6658, 597, 581, 602, 624, ANGLE_MODE, GPS_FIX_HOME|GPS_FIX|SMALL_ANGLE, IDLE, 1, 1
2552, 108723818,   0,   0,   0,   6,   0,   5,   1,   0,   0,   0, 111,  96, 1289, 1.790, 971,   0,  72,  53, -151, -624, 6635, 598, 574, 611, 622, ANGLE_MODE, GPS_FIX_HOME|GPS_FIX|SMALL_ANGLE, IDLE, 1, 1
2560, 108727886,   0,   0,  -3,   6,   0,   5,  -1,   0,   0,   0, 111,  96, 1289, 1.790, 971,   1,  72,  55, -156, -599, 6614, 599, 588, 610, 609, ANGLE_MODE, GPS_FIX_HOME|GPS_FIX|SMALL_ANGLE, IDLE, 1, 1
2568, 108731958,   0,   0,   2,   6,   0,   5,   1,  -2,   0,   0, 111,  96, 1289, 1.790, 971,   0,  73,  52, -57, -635, 6610, 595, 574, 598, 638, ANGLE_MODE, GPS_FIX_HOME|GPS_FIX|SMALL_ANGLE, IDLE, 1, 1
