loopIteration, time (us), axisP[0], axisP[1], axisP[2], axisI[0], axisI[1], axisI[2], axisD[0], axisD[1], axisD[2], rcCommand[0], rcCommand[1], rcCommand[2], rcCommand[3], vbatLatest (V), rssi, gyroADC[0], gyroADC[1], gyroADC[2], accSmooth[0], accSmooth[1], accSmooth[2], motor[0], motor[1], motor[2], motor[3], flightModeFlags (flags), stateFlags (flags), failsafePhase (flags), rxSignalReceived, rxFlightChannelsValid
  0, 40531232,  -3,   0,   2,   0,   0,   0,  -4,   0,   0,  -3,   0,   0, 1000, 2.224, 1023,   1,   0,  -1,  25, -196, 4193, 156, 148, 115, 129, 0, 0, IDLE, 0, 0
256, 40661641,   0,   0,   2,   0,   0,   0,   0,   0,   0,   0,   0,   0, 1000, 2.224, 1023,   0,   0,  -1,  62, -207, 4200, 130, 115, 119, 127, ANGLE_MODE, GPS_FIX_HOME|GPS_FIX|SMALL_ANGLE, IDLE, 1, 1
264, 40665697,   0,   0,   0,   0,   0,   0,   0,   1,   0,   0,   0,   0, 1000, 2.224, 1023,   0,   0,   0,  73, -204, 4199, 126, 121, 125, 115, ANGLE_MODE, GPS_FIX_HOME|GPS_FIX|SMALL_ANGLE, IDLE, 1, 1
272, 40670010,   0,   0,   0,   0,   0,   0,   2,  -2,   0,   0,   0,   0, 1000, 2.224, 1023,  -1,   1,   0,  66, -217, 4205, 117, 124, 125, 138, ANGLE_MODE, GPS_FIX_HOME|GPS_FIX|SMALL_ANGLE, IDLE, 1, 1
280, 40674071,   0,   0,   2,   0,   0,   0,   0,  -1,   0,   0,   0,   0, 1000, 2.224, 1023,   0,   0,  -1,  83, -234, 4206, 125, 122, 117, 137, ANGLE_MODE, GPS_FIX_HOME|GPS_FIX|SMALL_ANGLE, IDLE, 1, 1
288, 40678142,  -1,   0,   0,   0,   0,   0,  -5,   2,   0,   0,   0,   0, 1000, 2.224, 1023,   1,   0,   0, 101, -227, 4204, 156, 145, 126, 116, ANGLE_MODE, GPS_FIX_HOME|GPS_FIX|SMALL_ANGLE, IDLE, 1, 1
296, 40682220,   0,   0,  -2,   0,   0,   0,   0,   0,   0,   0,   0,   0, 1000, 2.224, 1023,   0,   0,   1, 108, -240, 4209, 116, 126, 130, 117, ANGLE_MODE, GPS_FIX_HOME|GPS_FIX|SMALL_ANGLE, IDLE, 1, 1
304, 40686316,   1,   0,   0,   0,   0,   0,   5,  -1,   0,   0,   0,   0, 1000, 2.224, 1023,  -1,   0,   0, 104, -255, 4213, 117, 119, 141, 150, ANGLE_MODE, GPS_FIX_HOME|GPS_FIX|SMALL_ANGLE, IDLE, 1, 1
312, 40690379,   0,   0,   3,   0,   0,   0,   0,   0,   0,   0,   0,   0, 1000, 2.224, 1023,   0,   0,  -1, 105, -252, 4214, 133, 117, 117, 127, ANGLE_MODE, GPS_FIX_HOME|GPS_FIX|SMALL_ANGLE, IDLE, 1, 1
320, 40694441,  -1,   0,  -2,   0,   0,   0,  -6,   0,   0,   0,   0,   0, 1000, 2.224, 1023,   2,   0,   1, 104, -229, 4211, 147, 159, 123, 117, ANGLE_MODE, GPS_FIX_HOME|GPS_FIX|SMALL_ANGLE, IDLE, 1, 1
328, 40698504,   0,   0,  -2,   0,   0,   0,   2,   0,   0,   0,   0,   0, 1000, 2.224, 1023,   0,   0,   1,  97, -233, 4212, 115, 126, 133, 123, ANGLE_MODE, GPS_FIX_HOME|GPS_FIX|SMALL_ANGLE, IDLE, 1, 1
336, 40702606,   1,   0,   1,   0,   0,   0,   7,   0,   0,   0,   0,   0, 1000, 2.224, 1023,  -2,   0,  -1,  92, -238, 4215, 123, 115, 153, 159, ANGLE_MODE, GPS_FIX_HOME|GPS_FIX|SMALL_ANGLE, IDLE, 1, 1
344, 40706677,   0,   0,   2,   0,   0,   0,  -2,   0,   0,   0,   0,   0, 1000, 2.224, 1023,   0,   0,  -1,  89, -225, 4215, 133, 124, 115, 126, ANGLE_MODE, GPS_FIX_HOME|GPS_FIX|SMALL_ANGLE, IDLE, 1, 1
352, 40710749,  -1,   0,  -2,   0,   0,   0,  -6,   0,   0,   0,   0,   0, 1000, 2.224, 1023,   1,   0,   1,  84, -201, 4212, 145, 160, 124, 118, ANGLE_MODE, GPS_FIX_HOME|GPS_FIX|SMALL_ANGLE, IDLE, 1, 1
360, 40714819,   0,   0,  -1,   0,   0,   0,   2,   0,   0,   0,   0,   0, 1000, 2.224, 1023,   0,   0,   0,  78, -200, 4211, 117, 118, 132, 125, ANGLE_MODE, GPS_FIX_HOME|GPS_FIX|SMALL_ANGLE, IDLE, 1, 1
368, 40718883,   1,   0,   3,   0,   0,   0,   7,   0,   0,   0,   0,   0, 1000, 2.224, 1023,  -2,   0,  -1,  74, -210, 4213, 129, 115, 155, 166, ANGLE_MODE, GPS_FIX_HOME|GPS_FIX|SMALL_ANGLE, IDLE, 1, 1
376, 40722943,   0,   0,   0,   0,   0,   0,  -3,   0,   0,   0,   0,   0, 1000, 2.224, 1023,   0,   0,   0,  72, -202, 4213, 126, 126, 115, 116, ANGLE_MODE, GPS_FIX_HOME|GPS_FIX|SMALL_ANGLE, IDLE, 1, 1
384, 40727024,   0,   0,  -3,   0,   0,   0,  -5,   0,   0,   0,   0,   0, 1000, 2.224, 1023,   1,   0,   1,  70, -186, 4207, 138, 155, 129, 116, ANGLE_MODE, GPS_FIX_HOME|GPS_FIX|SMALL_ANGLE, IDLE, 1, 1
392, 40731083,   0,   0,   0,   0,   0,   0,   2,   0,   0,   0,   0,   0, 1000, 2.224, 1023,  -1,   0,   0,  64, -188, 4208, 116, 116, 126, 128, ANGLE_MODE, GPS_FIX_HOME|GPS_FIX|SMALL_ANGLE, IDLE, 1, 1
400, 40735146,   1,   0,   2,   0,   0,   0,   5,   0,   0,   0,   0,   0, 1000, 2.224, 1023,  -2,   0,  -1,  64, -196, 4210, 123, 117, 141, 152, ANGLE_MODE, GPS_FIX_HOME|GPS_FIX|SMALL_ANGLE, IDLE, 1, 1
408, 40739237,   0,   0,  -2,   0,   0,   0,  -3,   0,   0,   0,   0,   0, 1000, 2.224, 1023,   0,   0,   1,  61, -192, 4209, 129, 137, 126, 115, ANGLE_MODE, GPS_FIX_HOME|GPS_FIX|SMALL_ANGLE, IDLE, 1, 1
416, 40743297,   0,   0,  -3,   0,   0,   0,  -4,   0,   0,   0,   0,   0, 1000, 2.224, 1023,   1,   0,   1,  59, -193, 4206, 135, 150, 128, 116, ANGLE_MODE, GPS_FIX_HOME|GPS_FIX|SMALL_ANGLE, IDLE, 1, 1
424, 40747365,   0,   0,   1,   0,   0,   0,   2,   0,   0,   0,   0,   0, 1000, 2.224, 1023,  -1,   0,  -1,  59, -197, 4205, 123, 115, 129, 137, ANGLE_MODE, GPS_FIX_HOME|GPS_FIX|SMALL_ANGLE, IDLE, 1, 1
432, 40751430,   0,   0,   2,   0,   0,   0,   1,   0,   0,   0,   0,   0, 1000, 2.224, 1023,   0,   0,  -1,  55, -202, 4206, 123, 117, 124, 135, ANGLE_MODE, GPS_FIX_HOME|GPS_FIX|SMALL_ANGLE, IDLE, 1, 1
440, 40755515,   0,   0,  -2,   0,   0,   0,  -2,   0,   0,   0,   0,   0, 1000, 2.224, 1023,   1,   0,   1,  58, -198, 4202, 130, 138, 126, 115, ANGLE_MODE, GPS_FIX_HOME|GPS_FIX|SMALL_ANGLE, IDLE, 1, 1
448, 40759586,   0,   0,   0,   0,   0,   0,  -1,   1,   0,   0,   0,   0, 1000, 2.224, 1023,   0,   0,   0,  56, -201, 4203, 126, 124, 123, 115, ANGLE_MODE, GPS_FIX_HOME|GPS_FIX|SMALL_ANGLE, IDLE, 1, 1
456, 40763656,   0,   0,   2,   0,   0,   0,   3,  -1,   0,   0,   0,   0, 1000, 2.224, 1023,  -1,   0,  -1,  57, -206, 4203, 123, 119, 127, 146, ANGLE_MODE, GPS_FIX_HOME|GPS_FIX|SMALL_ANGLE, IDLE, 1, 1
464, 40767990,   0,   0,   0,   0,   0,   0,   0,   0,   0,   0,   0,   0, 1000, 2.224, 1023,   0,   0,   0,  71, -213, 4200, 120, 118, 115, 119, ANGLE_MODE, GPS_FIX_HOME|GPS_FIX|SMALL_ANGLE, IDLE, 1, 1
472, 40772056,   0,   0,  -2,   0,   0,   0,  -2,   1,   0,   0,   0,   0, 1000, 2.224, 1023,   1,   0,   1,  90, -217, 4196, 129, 135, 130, 115, ANGLE_MODE, GPS_FIX_HOME|GPS_FIX|SMALL_ANGLE, IDLE, 1, 1
480, 40776117,   0,   0,   0,   0,   0,   0,   0,   0,   0,   0,   0,   0, 1000, 2.224, 1023,   0,   0,   0,  90, -227, 4197, 115, 118, 120, 120, ANGLE_MODE, GPS_FIX_HOME|GPS_FIX|SMALL_ANGLE, IDLE, 1, 1
488, 40780190,   0,   0,   2,   0,   0,   0,   2,  -1,   0,   0,   0,   0, 1000, 2.224, 1023,  -1,   0,  -1,  94, -227, 4197, 121, 119, 125, 142, ANGLE_MODE, GPS_FIX_HOME|GPS_FIX|SMALL_ANGLE, IDLE, 1, 1
496, 40784252,   0,   0,   0,   0,   0,   0,  -2,   0,   0,   0,   0,   0, 1000, 2.224, 1023,   0,   0,   0,  94, -220, 4196, 127, 127, 118, 115, ANGLE_MODE, GPS_FIX_HOME|GPS_FIX|SMALL_ANGLE, IDLE, 1, 1
504, 40788314,   0,   0,  -3,   0,   0,   0,  -1,   0,   0,   0,   0,   0, 1000, 2.224, 1023,   0,   0,   1,  97, -221, 4194, 125, 135, 129, 115, ANGLE_MODE, GPS_FIX_HOME|GPS_FIX|SMALL_ANGLE, IDLE, 1, 1
512, 40792380,   1,   0,   0,   0,   0,   0,   3,   0,   0,   0,   0,   0, 1000, 2.224, 1023,  -1,   0,   0,  89, -224, 4196, 117, 118, 134, 140, ANGLE_MODE, GPS_FIX_HOME|GPS_FIX|SMALL_ANGLE, IDLE, 1, 1
520, 40796443,   0,   0,   2,   0,   0,   0,   0,   0,   0,   0,   0,   0, 1000, 2.224, 1023,   0,   0,  -1,  87, -220, 4198, 124, 116, 117, 128, ANGLE_MODE, GPS_FIX_HOME|GPS_FIX|SMALL_ANGLE, IDLE, 1, 1
528, 40800501,   0,   0,  -1,   0,   0,   0,  -4,   0,   0,   0,   0,   0, 1000, 2.224, 1023,   1,   0,   0,  81, -209, 4198, 138, 140, 122, 115, ANGLE_MODE, GPS_FIX_HOME|GPS_FIX|SMALL_ANGLE, IDLE, 1, 1
536, 40804555,   0,   0,  -2,   0,   0,   0,   0,   0,   0,   0,   0,   0, 1000, 2.224, 1023,   0,   0,   1,  81, -205, 4199, 116, 124, 129, 119, ANGLE_MODE, GPS_FIX_HOME|GPS_FIX|SMALL_ANGLE, IDLE, 1, 1
544, 40808626,   0,   0,   0,   0,   0,   0,   3,   0,   0,   0,   0,   0, 1000, 2.224, 1023,  -1,   0,   0,  70, -210, 4203, 117, 118, 134, 141, ANGLE_MODE, GPS_FIX_HOME|GPS_FIX|SMALL_ANGLE, IDLE, 1, 1
552, 40812696,   0,   0,   2,   0,   0,   0,   0,   0,   0,   0,   0,   0, 1000, 2.224, 1023,   0,   0,  -1,  73, -209, 4205, 126, 115, 117, 124, ANGLE_MODE, GPS_FIX_HOME|GPS_FIX|SMALL_ANGLE, IDLE, 1, 1
560, 40816766,   0,   0,  -2,   0,   0,   0,  -3,   0,   0,   0,   0,   0, 1000, 2.224, 1023,   1,   0,   1,  72, -192, 4204, 132, 145, 123, 117, ANGLE_MODE, GPS_FIX_HOME|GPS_FIX|SMALL_ANGLE, IDLE, 1, 1
568, 40820824,   0,   0,  -1,   0,   0,   0,   0,   0,   0,   0,   0,   0, 1000, 2.216, 1023,   0,   0,   1,  73, -194, 4205, 117, 127, 123, 116, ANGLE_MODE, GPS_FIX_HOME|GPS_FIX|SMALL_ANGLE, IDLE, 1, 1
576, 40824891,   1,   0,   1,   0,   0,   0,   6,   0,   0,   0,   0,   0, 1000, 2.216, 1023,  -2,   0,  -1,  67, -202, 4208, 123, 116, 146, 154, ANGLE_MODE, GPS_FIX_HOME|GPS_FIX|SMALL_ANGLE, IDLE, 1, 1
584, 40828955,   0,   0,   1,   0,   0,   0,  -1,   0,   0,   0,   0,   0, 1000, 2.216, 1023,   0,   0,   0,  68, -198, 4208, 124, 120, 115, 120, ANGLE_MODE, GPS_FIX_HOME|GPS_FIX|SMALL_ANGLE, IDLE, 1, 1
592, 40833015,   0,   0,  -3,   0,   0,   0,  -5,   0,   0,   0,   0,   0, 1000, 2.216, 1023,   1,   0,   1,  67, -187, 4207, 141, 155, 128, 116, ANGLE_MODE, GPS_FIX_HOME|GPS_FIX|SMALL_ANGLE, IDLE, 1, 1
600, 40837086,   0,   0,  -1,   0,   0,   0,   1,   0,   0,   0,   0,   0, 1000, 2.216, 1023,   0,   0,   1,  63, -191, 4210, 117, 121, 131, 121, ANGLE_MODE, GPS_FIX_HOME|GPS_FIX|SMALL_ANGLE, IDLE, 1, 1
608, 40841170,   1,   0,   2,   0,   0,   0,   4,   0,   0,   0,   0,   0, 1000, 2.224, 1023,  -1,   0,  -1,  64, -197, 4217, 123, 116, 139, 148, ANGLE_MODE, GPS_FIX_HOME|GPS_FIX|SMALL_ANGLE, IDLE, 1, 1
616, 40845239,   0,   0,   0,   0,   0,   0,  -3,   0,   0,   0,   0,   0, 1000, 2.224, 1023,   0,   0,   0,  62, -191, 4218, 135, 131, 116, 119, ANGLE_MODE, GPS_FIX_HOME|GPS_FIX|SMALL_ANGLE, IDLE, 1, 1
624, 40849305,   0,   0,  -2,   0,   0,   0,  -3,   0,   0,   0,   0,   0, 1000, 2.224, 1023,   1,   0,   1,  65, -183, 4215, 133, 143, 126, 115, ANGLE_MODE, GPS_FIX_HOME|GPS_FIX|SMALL_ANGLE, IDLE, 1, 1
632, 40853378,   0,   0,   0,   0,   0,   0,   1,   0,   0,   0,   0,   0, 1000, 2.224, 1023,   0,   0,   0,  58, -190, 4216, 115, 116, 120, 120, ANGLE_MODE, GPS_FIX_HOME|GPS_FIX|SMALL_ANGLE, IDLE, 1, 1
640, 40857441,   0,   0,   2,   0,   0,   0,   4,   0,   0,   0,   0,   0, 1000, 2.224, 1023,  -1,   0,  -1,  64, -199, 4216, 126, 116, 137, 151, ANGLE_MODE, GPS_FIX_HOME|GPS_FIX|SMALL_ANGLE, IDLE, 1, 1
648, 40861785,   0,   0,   0,   0,   0,   0,  -1,   0,   0,   0,   0,   0, 1000, 2.224, 1023,   0,   0,   0,  62, -189, 4214, 125, 124, 115, 117, ANGLE_MODE, GPS_FIX_HOME|GPS_FIX|SMALL_ANGLE, IDLE, 1, 1
656, 40865855,   0,   0,  -2,   0,   0,   0,  -3,   0,   0,   0,   0,   0, 1000, 2.224, 1023,   1,   0,   1,  66, -185, 4211, 133, 146, 127, 116, ANGLE_MODE, GPS_FIX_HOME|GPS_FIX|SMALL_ANGLE, IDLE, 1, 1
664, 40870050,   1,   0,   0,   0,   0,   0,   4,   0,   0,   0,   0,   0, 1000, 2.224, 1023,  -1,   0,   0,  62, -187, 4210, 115, 118, 140, 138, ANGLE_MODE, GPS_FIX_HOME|GPS_FIX|SMALL_ANGLE, IDLE, 1, 1
672, 40874107,   0,   0,   2,   0,   0,   0,   1,   0,   0,   0,   0,   0, 1000, 2.224, 1023,  -1,   0,  -1,  63, -195, 4209, 124, 117, 125, 137, ANGLE_MODE, GPS_FIX_HOME|GPS_FIX|SMALL_ANGLE, IDLE, 1, 1
680, 40878176,   0,   0,  -1,   0,   0,   0,  -4,   0,   0,   0,   0,   0, 1000, 2.224, 1023,   1,   0,   1,  62, -183, 4208, 136, 141, 124, 115, ANGLE_MODE, GPS_FIX_HOME|GPS_FIX|SMALL_ANGLE, IDLE, 1, 1
688, 40882264,   0,   0,  -3,   0,   0,   0,   0,   0,   0,   0,   0,   0, 1000, 2.224, 1023,   0,   0,   1,  61, -183, 4204, 119, 134, 132, 115, ANGLE_MODE, GPS_FIX_HOME|GPS_FIX|SMALL_ANGLE, IDLE, 1, 1
696, 40886444,   1,   0,   0,   0,   0,   0,   4,   0,   0,   0,   0,   0, 1000, 2.224, 1023,  -1,   0,   0,  55, -190, 4204, 115, 119, 138, 136, ANGLE_MODE, GPS_FIX_HOME|GPS_FIX|SMALL_ANGLE, IDLE, 1, 1
704, 40890498,   0,   0,   1,   0,   0,   0,   0,   0,   0,   0,   0,   0, 1000, 2.224, 1023,   0,   0,  -1,  55, -195, 4203, 124, 118, 115, 124, ANGLE_MODE, GPS_FIX_HOME|GPS_FIX|SMALL_ANGLE, IDLE, 1, 1
712, 40894572,   0,   0,  -1,   0,   0,   0,  -4,   0,   0,   0,   0,   0, 1000, 2.224, 1023,   1,   0,   1,  57, -182, 4203, 137, 141, 124, 115, ANGLE_MODE, GPS_FIX_HOME|GPS_FIX|SMALL_ANGLE, IDLE, 1, 1
720, 40898677,   0,   0,  -2,   0,   0,   0,   0,   0,   0,   0,   0,   0, 1000, 2.224, 1023,   0,   0,   1,  69, -171, 4211, 116, 125, 129, 119, ANGLE_MODE, GPS_FIX_HOME|GPS_FIX|SMALL_ANGLE, IDLE, 1, 1
728, 40902780,   1,   0,   3,   0,   0,   0,   4,   0,   0,   0,   0,   1, 1000, 2.224, 1023,  -1,   0,  -1,  81, -171, 4217, 127, 117, 139, 154, ANGLE_MODE, GPS_FIX_HOME|GPS_FIX|SMALL_ANGLE, IDLE, 1, 1
736, 40906859,   0,   0,   3,   0,   0,   0,  -2,   0,   0,   0,   0,   1, 1000, 2.224, 1023,   0,   0,  -1,  83, -157, 4219, 137, 125, 115, 130, ANGLE_MODE, GPS_FIX_HOME|GPS_FIX|SMALL_ANGLE, IDLE, 1, 1
744, 40910914,   0,   0,  -1,   0,   0,   0,  -4,   0,   0,   0,   0,   1, 1000, 2.224, 1023,   1,   0,   1,  92, -151, 4217, 137, 140, 120, 115, ANGLE_MODE, GPS_FIX_HOME|GPS_FIX|SMALL_ANGLE, IDLE, 1, 1
752, 40914969,   0,   0,   0,   0,   0,   0,   2,   0,   0,   0,   0,   1, 1000, 2.224, 1023,  -1,   0,   1,  86, -159, 4221, 115, 121, 129, 131, ANGLE_MODE, GPS_FIX_HOME|GPS_FIX|SMALL_ANGLE, IDLE, 1, 1
760, 40919027,   1,   0,   2,   0,   0,   0,   5,   0,   0,   0,   0,   1, 1000, 2.216, 1023,  -1,   0,   0,  89, -173, 4220, 124, 117, 140, 155, ANGLE_MODE, GPS_FIX_HOME|GPS_FIX|SMALL_ANGLE, IDLE, 1, 1
768, 40923159,   0,   0,   2,   0,   0,   0,  -3,   0,   0,   0,   0,   1, 1000, 2.216, 1023,   0,   0,   0,  87, -163, 4218, 143, 131, 116, 125, ANGLE_MODE, GPS_FIX_HOME|GPS_FIX|SMALL_ANGLE, IDLE, 1, 1
776, 40927220,  -1,   0,  -1,   0,   0,   0,  -5,   0,   0,   0,   0,   1, 1000, 2.216, 1023,   1,   0,   1,  90, -162, 4212, 139, 149, 122, 117, ANGLE_MODE, GPS_FIX_HOME|GPS_FIX|SMALL_ANGLE, IDLE, 1, 1
784, 40931276,   1,   0,   0,   0,   0,   0,   4,   0,   0,   0,   0,   1, 1000, 2.216, 1023,  -1,   0,   1,  83, -177, 4213, 115, 118, 141, 139, ANGLE_MODE, GPS_FIX_HOME|GPS_FIX|SMALL_ANGLE, IDLE, 1, 1
792, 40935320,   1,   0,   3,   0,   0,   0,   4,   0,   0,   0,   0,   1, 1000, 2.216, 1023,  -1,   0,  -1,  81, -189, 4213, 127, 116, 136, 151, ANGLE_MODE, GPS_FIX_HOME|GPS_FIX|SMALL_ANGLE, IDLE, 1, 1
800, 40939425,   0,   0,   2,   0,   0,   0,  -5,   0,   0,   0,   0,   1, 1000, 2.224, 1023,   1,   0,   0,  79, -180, 4209, 153, 140, 118, 122, ANGLE_MODE, GPS_FIX_HOME|GPS_FIX|SMALL_ANGLE, IDLE, 1, 1
808, 40943479,   0,   0,  -1,   0,   0,   0,  -3,   0,   0,   0,   0,   1, 1000, 2.224, 1023,   1,   0,   1,  75, -176, 4207, 134, 142, 123, 115, ANGLE_MODE, GPS_FIX_HOME|GPS_FIX|SMALL_ANGLE, IDLE, 1, 1
816, 40947534,   1,   0,   0,   0,   0,   0,   6,   0,   0,   0,   0,   1, 1000, 2.224, 1023,  -1,   0,   1,  66, -192, 4207, 116, 116, 145, 144, ANGLE_MODE, GPS_FIX_HOME|GPS_FIX|SMALL_ANGLE, IDLE, 1, 1
824, 40951597,   1,   0,   3,   0,   0,   0,   3,   0,   0,   0,   0,   1, 1000, 2.224, 1023,  -1,   0,  -1,  63, -203, 4209, 130, 115, 133, 146, ANGLE_MODE, GPS_FIX_HOME|GPS_FIX|SMALL_ANGLE, IDLE, 1, 1
832, 40955963,   0,   0,   1,   0,   0,   0,  -5,   0,   0,   0,   0,   1, 1000, 2.224, 1023,   1,   0,   0,  64, -189, 4203, 148, 139, 117, 119, ANGLE_MODE, GPS_FIX_HOME|GPS_FIX|SMALL_ANGLE, IDLE, 1, 1
840, 40960014,   0,   0,  -1,   0,   0,   0,  -3,   0,   0,   0,   0,   1, 1000, 2.224, 1023,   1,   0,   1,  61, -185, 4202, 130, 138, 119, 117, ANGLE_MODE, GPS_FIX_HOME|GPS_FIX|SMALL_ANGLE, IDLE, 1, 1
848, 40964083,   1,   0,   1,   0,   0,   0,   7,   0,   0,   0,   0,   1, 1000, 2.224, 1023,  -2,   0,   0,  58, -197, 4203, 122, 117, 152, 163, ANGLE_MODE, GPS_FIX_HOME|GPS_FIX|SMALL_ANGLE, IDLE, 1, 1
856, 40968189,   0,   0,   4,   0,   0,   0,   1,   0,   0,   0,   0,   1, 1000, 2.224, 1023,  -1,   0,  -1,  61, -204, 4205, 133, 115, 128, 142, ANGLE_MODE, GPS_FIX_HOME|GPS_FIX|SMALL_ANGLE, IDLE, 1, 1
864, 40972341,  -1,   0,   0,   0,   0,   0,  -8,   0,   0,   0,   0,   1, 1000, 2.224, 1023,   1,   0,   0,  64, -187, 4201, 157, 153, 116, 118, ANGLE_MODE, GPS_FIX_HOME|GPS_FIX|SMALL_ANGLE, IDLE, 1, 1
872, 40976407,   0,   0,   0,   0,   0,   0,   0,   0,   0,   0,   0,   1, 1000, 2.224, 1023,   0,   0,   1,  64, -187, 4201, 115, 124, 120, 122, ANGLE_MODE, GPS_FIX_HOME|GPS_FIX|SMALL_ANGLE, IDLE, 1, 1
880, 40980500,   1,   0,   2,   0,   0,   0,   7,   0,   0,   0,   0,   1, 1000, 2.216, 1023,  -2,   0,   0,  58, -208, 4205, 123, 118, 147, 163, ANGLE_MODE, GPS_FIX_HOME|GPS_FIX|SMALL_ANGLE, IDLE, 1, 1
888, 40984562,   0,   0,   3,   0,   0,   0,  -2,   1,   0,   0,   0,   1, 1000, 2.216, 1023,   0,   0,  -1,  54, -224, 4211, 142, 120, 118, 129, ANGLE_MODE, GPS_FIX_HOME|GPS_FIX|SMALL_ANGLE, IDLE, 1, 1
896, 40988660,  -1,   0,  -1,   0,   0,   0,  -6,   0,   0,   0,   0,   1, 1000, 2.216, 1023,   1,   0,   1,  54, -219, 4207, 148, 152, 121, 115, ANGLE_MODE, GPS_FIX_HOME|GPS_FIX|SMALL_ANGLE, IDLE, 1, 1
904, 40992717,   0,   0,   0,   0,   0,   0,   2,   0,   0,   0,   0,   0, 1000, 2.216, 1023,   0,   0,   1,  49, -232, 4211, 115, 122, 127, 129, ANGLE_MODE, GPS_FIX_HOME|GPS_FIX|SMALL_ANGLE, IDLE, 1, 1
912, 40996790,   1,   0,   1,   0,   0,   0,   5,   0,   0,   0,   0,   0, 1000, 2.216, 1023,  -1,   0,   0,  48, -245, 4216, 120, 116, 144, 151, ANGLE_MODE, GPS_FIX_HOME|GPS_FIX|SMALL_ANGLE, IDLE, 1, 1
920, 41000853,   0,   0,   1,   0,   0,   0,  -2,   1,   0,   0,   0,   0, 1000, 2.216, 1023,   0,   0,  -1,  51, -231, 4215, 137, 124, 119, 119, ANGLE_MODE, GPS_FIX_HOME|GPS_FIX|SMALL_ANGLE, IDLE, 1, 1
928, 41004925,  -1,   0,  -1,   0,   0,   0,  -6,   0,   0,   0,   0,   0, 1000, 2.216, 1023,   1,   0,   0,  55, -224, 4213, 146, 151, 119, 116, ANGLE_MODE, GPS_FIX_HOME|GPS_FIX|SMALL_ANGLE, IDLE, 1, 1
936, 41008983,   0,   0,   0,   0,   0,   0,   4,  -1,   0,   0,   0,   0, 1000, 2.216, 1023,  -1,   1,   0,  50, -230, 4214, 115, 125, 139, 148, ANGLE_MODE, GPS_FIX_HOME|GPS_FIX|SMALL_ANGLE, IDLE, 1, 1
944, 41013038,   1,   0,   3,   0,   0,   0,   5,   0,   0,   0,   0,   0, 1000, 2.216, 1023,  -1,   0,  -1,  53, -235, 4216, 127, 116, 140, 153, ANGLE_MODE, GPS_FIX_HOME|GPS_FIX|SMALL_ANGLE, IDLE, 1, 1
952, 41017108,  -1,   0,   0,   0,   0,   0,  -6,   1,   0,   0,   0,   0, 1000, 2.216, 1023,   1,   0,   0,  61, -214, 4209, 158, 147, 123, 116, ANGLE_MODE, GPS_FIX_HOME|GPS_FIX|SMALL_ANGLE, IDLE, 1, 1
960, 41021206,   0,   0,  -1,   0,   0,   0,  -2,   0,   0,   0,   0,   0, 1000, 2.224, 1023,   1,   0,   1,  59, -210, 4206, 130, 137, 122, 116, ANGLE_MODE, GPS_FIX_HOME|GPS_FIX|SMALL_ANGLE, IDLE, 1, 1
968, 41025254,   1,   0,   0,   0,   0,   0,   7,  -1,   0,   0,   0,   0, 1000, 2.224, 1023,  -2,   1,   0,  53, -218, 4204, 115, 125, 153, 163, ANGLE_MODE, GPS_FIX_HOME|GPS_FIX|SMALL_ANGLE, IDLE, 1, 1
976, 41029311,   0,   0,   2,   0,   0,   0,   0,   0,   0,   0,   0,   0, 1000, 2.224, 1023,   0,   0,  -1,  57, -218, 4205, 126, 115, 119, 130, ANGLE_MODE, GPS_FIX_HOME|GPS_FIX|SMALL_ANGLE, IDLE, 1, 1
984, 41033394,  -1,   0,   0,   0,   0,   0,  -6,   2,   0,   0,   0,   0, 1000, 2.224, 1023,   1,   0,   0,  66, -197, 4197, 156, 146, 127, 115, ANGLE_MODE, GPS_FIX_HOME|GPS_FIX|SMALL_ANGLE, IDLE, 1, 1
992, 41037517,   0,   0,  -1,   0,   0,   0,   0,  -1,   0,   0,   0,   0, 1000, 2.224, 1023,   0,   0,   1,  60, -194, 4199, 117, 129, 120, 119, ANGLE_MODE, GPS_FIX_HOME|GPS_FIX|SMALL_ANGLE, IDLE, 1, 1
1000, 41041592,   1,   0,   0,   0,   0,   0,   7,  -1,   0,   0,   0,   0, 1000, 2.224, 1023,  -2,   0,   0,  56, -207, 4199, 117, 122, 153, 164, ANGLE_MODE, GPS_FIX_HOME|GPS_FIX|SMALL_ANGLE, IDLE, 1, 1
1008, 41045657,   0,   0,   1,   0,   0,   0,   0,   1,   0,   0,   0,   0, 1000, 2.224, 1023,   0,   0,  -1,  61, -205, 4202, 127, 115, 121, 122, ANGLE_MODE, GPS_FIX_HOME|GPS_FIX|SMALL_ANGLE, IDLE, 1, 1
1016, 41049720,  -1,   0,  -1,   0,   0,   0,  -8,   1,   0,   0,   0,   0, 1000, 2.224, 1023,   2,   0,   0,  70, -184, 4196, 162, 159, 127, 115, ANGLE_MODE, GPS_FIX_HOME|GPS_FIX|SMALL_ANGLE, IDLE, 1, 1
1024, 41054062,   0,   0,  -1,   0,   0,   0,   3,  -1,   0,   0,   0,   0, 1000, 2.224, 1023,  -1,   0,   0,  63, -189, 4201, 116, 128, 137, 141, ANGLE_MODE, GPS_FIX_HOME|GPS_FIX|SMALL_ANGLE, IDLE, 1, 1
1032, 41058132,   1,   0,   1,   0,   0,   0,   8,  -1,   0,   0,   0,   0, 1000, 2.224, 1023,  -2,   0,  -1,  58, -202, 4205, 119, 121, 154, 167, ANGLE_MODE, GPS_FIX_HOME|GPS_FIX|SMALL_ANGLE, IDLE, 1, 1
1040, 41062198,   0,   0,   0,   0,   0,   0,  -7,   2,   0,   0,   0,   0, 1000, 2.224, 1023,   1,  -1,   0,  61, -194, 4207, 162, 149, 129, 117, ANGLE_MODE, GPS_FIX_HOME|GPS_FIX|SMALL_ANGLE, IDLE, 1, 1
1048, 41066267,  -1,   0,  -2,   0,   0,   0,  -5,   1,   0,   0,   0,   0, 1000, 2.224, 1023,   1,   0,   1,  55, -186, 4207, 145, 150, 130, 116, ANGLE_MODE, GPS_FIX_HOME|GPS_FIX|SMALL_ANGLE, IDLE, 1, 1
1056, 41070335,   1,   0,  -1,   0,   0,   0,   8,  -3,   0,   0,   0,   0, 1000, 2.224, 1023,  -2,   1,   0,  32, -207, 4213, 116, 135, 158, 168, ANGLE_MODE, GPS_FIX_HOME|GPS_FIX|SMALL_ANGLE, IDLE, 1, 1
1064, 41074401,   1,   0,   0,   0,   0,   0,   3,   0,   0,   0,   0,   0, 1000, 2.224, 1023,  -1,   0,   0,  34, -214, 4218, 118, 120, 133, 141, ANGLE_MODE, GPS_FIX_HOME|GPS_FIX|SMALL_ANGLE, IDLE, 1, 1
1072, 41078458,  -1,   0,   0,   0,   0,   0,  -8,   4,   0,   0,   0,   0, 1000, 2.224, 1023,   1,  -1,   0,  41, -198, 4212, 174, 155, 135, 117, ANGLE_MODE, GPS_FIX_HOME|GPS_FIX|SMALL_ANGLE, IDLE, 1, 1
1080, 41082564,   0,   0,  -1,   0,   0,   0,  -2,   0,   0,   0,   0,   0, 1000, 2.224, 1023,   1,   0,   1,  43, -194, 4211, 129, 138, 121, 118, ANGLE_MODE, GPS_FIX_HOME|GPS_FIX|SMALL_ANGLE, IDLE, 1, 1
1088, 41086623,   2,  -1,   0,   0,   0,   0,   9,  -4,   0,   0,   0,   0, 1000, 2.224, 1023,  -2,   1,   0,  31, -211, 4213, 117, 137, 162, 183, ANGLE_MODE, GPS_FIX_HOME|GPS_FIX|SMALL_ANGLE, IDLE, 1, 1
1096, 41090673,   0,   0,   1,   0,   0,   0,   0,   1,   0,   0,   0,   0, 1000, 2.224, 1023,   0,   0,  -1,  40, -214, 4217, 129, 116, 125, 124, ANGLE_MODE, GPS_FIX_HOME|GPS_FIX|SMALL_ANGLE, IDLE, 1, 1
1104, 41094737,  -1,   0,   0,   0,   0,   0,  -9,   3,   0,   0,   0,   0, 1000, 2.224, 1023,   2,  -1,   0,  54, -192, 4207, 183, 164, 136, 116, ANGLE_MODE, GPS_FIX_HOME|GPS_FIX|SMALL_ANGLE, IDLE, 1, 1
1112, 41098789,   0,   0,  -1,   0,   0,   0,   1,  -2,   0,   0,   0,   0, 1000, 2.216, 1023,   0,   0,   0,  50, -195, 4210, 116, 129, 127, 132, ANGLE_MODE, GPS_FIX_HOME|GPS_FIX|SMALL_ANGLE, IDLE, 1, 1
1120, 41102846,   1,  -1,   0,   0,   0,   0,   9,  -4,   0,   0,   0,   0, 1000, 2.216, 1023,  -2,   1,   0,  42, -210, 4210, 118, 137, 161, 186, ANGLE_MODE, GPS_FIX_HOME|GPS_FIX|SMALL_ANGLE, IDLE, 1, 1
1128, 41106943,   0,   0,   0,   0,   0,   0,  -5,   4,   0,   0,   0,   0, 1000, 2.216, 1023,   1,  -1,   0,  50, -205, 4213, 160, 140, 136, 116, ANGLE_MODE, GPS_FIX_HOME|GPS_FIX|SMALL_ANGLE, IDLE, 1, 1
1136, 41111003,  -1,   1,  -1,   0,   0,   0,  -7,   3,   0,   0,   0,   0, 1000, 2.216, 1023,   2,  -1,   1,  64, -188, 4206, 171, 156, 140, 116, ANGLE_MODE, GPS_FIX_HOME|GPS_FIX|SMALL_ANGLE, IDLE, 1, 1
1144, 41115069,   1,   0,   0,   0,   0,   0,   8,  -4,   0,   0,   0,   0, 1000, 2.216, 1023,  -2,   1,   0,  52, -199, 4210, 116, 140, 157, 176, ANGLE_MODE, GPS_FIX_HOME|GPS_FIX|SMALL_ANGLE, IDLE, 1, 1
1152, 41119133,   0,   0,   1,   0,   0,   0,   3,  -3,   0,   0,   0,   0, 1000, 2.216, 1023,  -1,   1,   0,  47, -211, 4213, 119, 132, 134, 156, ANGLE_MODE, GPS_FIX_HOME|GPS_FIX|SMALL_ANGLE, IDLE, 1, 1
1160, 41123290,  -1,   0,   0,   0,   0,   0,  -8,   5,   0,   0,   0,   0, 1000, 2.216, 1023,   1,  -1,   0,  65, -192, 4206, 177, 155, 139, 116, ANGLE_MODE, GPS_FIX_HOME|GPS_FIX|SMALL_ANGLE, IDLE, 1, 1
1168, 41127377,   0,   0,   0,   0,   0,   0,  -1,   2,   0,   0,   0,   0, 1000, 2.216, 1023,   1,   0,   0,  71, -190, 4205, 139, 125, 125, 118, ANGLE_MODE, GPS_FIX_HOME|GPS_FIX|SMALL_ANGLE, IDLE, 1, 1
1176, 41131436,   2,  -1,   1,   0,   0,   0,   9,  -7,   0,   0,   0,   0, 1000, 2.216, 1023,  -2,   2,  -1,  56, -207, 4206, 120, 149, 162, 204, ANGLE_MODE, GPS_FIX_HOME|GPS_FIX|SMALL_ANGLE, IDLE, 1, 1
1184, 41135494,   0,   0,   0,   0,   0,   0,   0,   0,   0,   0,   0,   0, 1000, 2.216, 1023,   0,   0,   0,  56, -203, 4211, 117, 120, 117, 121, ANGLE_MODE, GPS_FIX_HOME|GPS_FIX|SMALL_ANGLE, IDLE, 1, 1
1192, 41139578,  -1,   1,  -1,   0,   0,   0, -10,   7,   0,   0,   0,   0, 1000, 2.224, 1023,   2,  -2,   1,  76, -186, 4200, 198, 168, 157, 116, ANGLE_MODE, GPS_FIX_HOME|GPS_FIX|SMALL_ANGLE, IDLE, 1, 1
1200, 41143641,   0,   0,  -2,   0,   0,   0,   3,   0,   0,   0,   0,   0, 1000, 2.224, 1023,  -1,   0,   1,  67, -193, 4205, 116, 127, 142, 134, ANGLE_MODE, GPS_FIX_HOME|GPS_FIX|SMALL_ANGLE, IDLE, 1, 1
1208, 41147955,   2,  -1,  -1,   0,   0,   0,   9,  -8,   0,   0,   0,   0, 1000, 2.224, 1023,  -2,   2,   1,  50, -208, 4206, 116, 160, 168, 200, ANGLE_MODE, GPS_FIX_HOME|GPS_FIX|SMALL_ANGLE, IDLE, 1, 1
1216, 41152018,  -1,   0,  -1,   0,   0,   0,  -8,   4,   0,   0,   0,   0, 1000, 2.224, 1023,   1,  -1,   1,  53, -196, 4208, 171, 157, 142, 116, ANGLE_MODE, GPS_FIX_HOME|GPS_FIX|SMALL_ANGLE, IDLE, 1, 1
1224, 41156118,   0,   1,   0,   0,   0,   0,  -5,   6,   0,   0,   0,   0, 1000, 2.224, 1023,   1,  -2,   0,  70, -190, 4198, 175, 139, 150, 117, ANGLE_MODE, GPS_FIX_HOME|GPS_FIX|SMALL_ANGLE, IDLE, 1, 1
1232, 41160177,   2,  -1,   1,   0,   0,   0,  11,  -6,   0,   0,   0,   0, 1000, 2.224, 1023,  -2,   1,   0,  57, -205, 4206, 119, 146, 167, 204, ANGLE_MODE, GPS_FIX_HOME|GPS_FIX|SMALL_ANGLE, IDLE, 1, 1
1240, 41164240,   0,  -1,   0,   0,   0,   0,  -1,  -5,   0,   0,   0,   0, 1000, 2.224, 1023,   0,   1,   0,  36, -203, 4208, 118, 147, 117, 143, ANGLE_MODE, GPS_FIX_HOME|GPS_FIX|SMALL_ANGLE, IDLE, 1, 1
1248, 41168314,  -1,   1,   0,   0,   0,   0,  -8,   9,   0,   0,   0,   0, 1000, 2.224, 1023,   1,  -2,   0,  44, -189, 4195, 200, 157, 162, 116, ANGLE_MODE, GPS_FIX_HOME|GPS_FIX|SMALL_ANGLE, IDLE, 1, 1
1256, 41172384,   1,   0,   0,   0,   0,   0,   4,   2,   0,   0,   0,   0, 1000, 2.224, 1023,  -1,  -1,   0,  37, -200, 4200, 130, 116, 148, 139, ANGLE_MODE, GPS_FIX_HOME|GPS_FIX|SMALL_ANGLE, IDLE, 1, 1
1264, 41176450,   1,  -2,   0,   0,   0,   0,   6, -10,   0,   0,   0,   0, 1000, 2.224, 1023,  -2,   2,   0,  12, -206, 4202, 116, 170, 152, 202, ANGLE_MODE, GPS_FIX_HOME|GPS_FIX|SMALL_ANGLE, IDLE, 1, 1
1272, 41180555,   0,   0,   0,   0,   0,   0,  -5,   2,   0,   0,   0,   0, 1000, 2.216, 1023,   0,   0,   0,  19, -193, 4204, 152, 142, 126, 117, ANGLE_MODE, GPS_FIX_HOME|GPS_FIX|SMALL_ANGLE, IDLE, 1, 1
1280, 41184606,   0,   1,   3,   0,   0,   0,  -3,   9,   0,   0,   0,   0, 1000, 2.216, 1023,   0,  -2,  -1,  35, -194, 4195, 183, 124, 156, 122, ANGLE_MODE, GPS_FIX_HOME|GPS_FIX|SMALL_ANGLE, IDLE, 1, 1
1288, 41188661,   1,   0,   0,   0,   0,   0,   7,  -5,   0,   0,   0,   0, 1000, 2.216, 1023,  -2,   1,   0,  27, -202, 4203, 117, 139, 151, 179, ANGLE_MODE, GPS_FIX_HOME|GPS_FIX|SMALL_ANGLE, IDLE, 1, 1
1296, 41192713,   0,  -1,   0,   0,   0,   0,   0,  -7,   0,   0,   0,   0, 1000, 2.216, 1023,   0,   1,   0,  16, -195, 4206, 116, 152, 118, 149, ANGLE_MODE, GPS_FIX_HOME|GPS_FIX|SMALL_ANGLE, IDLE, 1, 1
1304, 41196805,  -1,   1,   1,   0,   0,   0,  -7,   9,   0,   0,   0,   0, 1000, 2.216, 1023,   1,  -2,  -1,  33, -193, 4198, 200, 146, 158, 119, ANGLE_MODE, GPS_FIX_HOME|GPS_FIX|SMALL_ANGLE, IDLE, 1, 1
1312, 41200862,   1,   0,   1,   0,   0,   0,   5,   1,   0,   0,   0,   0, 1000, 2.216, 1023,  -2,  -1,  -1,  43, -200, 4202, 129, 115, 147, 146, ANGLE_MODE, GPS_FIX_HOME|GPS_FIX|SMALL_ANGLE, IDLE, 1, 1
1320, 41204984,   0,  -1,  -1,   0,   0,   0,   3,  -9,   0,   0,   0,   0, 1000, 2.216, 1023,  -1,   2,   1,  27, -203, 4206, 115, 162, 139, 175, ANGLE_MODE, GPS_FIX_HOME|GPS_FIX|SMALL_ANGLE, IDLE, 1, 1
1328, 41209049,  -1,   0,   0,   0,   0,   0,  -8,   3,   0,   0,   0,   0, 1000, 2.216, 1023,   1,  -1,   0,  36, -194, 4204, 173, 155, 132, 116, ANGLE_MODE, GPS_FIX_HOME|GPS_FIX|SMALL_ANGLE, IDLE, 1, 1
1336, 41213160,   0,   1,   3,   0,   0,   0,   1,   6,   0,   0,   0,   0, 1000, 2.216, 1023,  -1,  -1,  -1,  60, -202, 4199, 153, 115, 149, 132, ANGLE_MODE, GPS_FIX_HOME|GPS_FIX|SMALL_ANGLE, IDLE, 1, 1
1344, 41217216,   1,  -1,   0,   0,   0,   0,   6,  -7,   0,   0,   0,   0, 1000, 2.216, 1023,  -1,   1,   0,  53, -211, 4207, 117, 149, 144, 182, ANGLE_MODE, GPS_FIX_HOME|GPS_FIX|SMALL_ANGLE, IDLE, 1, 1
1352, 41221266,  -1,  -1,   0,   0,   0,   0,  -5,  -3,   0,   0,   0,   0, 1000, 2.216, 1023,   1,   1,   0,  56, -202, 4205, 141, 162, 117, 131, ANGLE_MODE, GPS_FIX_HOME|GPS_FIX|SMALL_ANGLE, IDLE, 1, 1
1360, 41225334,   0,   0,   2,   0,   0,   0,  -3,   8,   0,   0,   0,   0, 1000, 2.216, 1023,   1,  -1,  -1,  70, -201, 4196, 173, 128, 146, 120, ANGLE_MODE, GPS_FIX_HOME|GPS_FIX|SMALL_ANGLE, IDLE, 1, 1
1368, 41229412,   1,  -1,   0,   0,   0,   0,   6,  -3,   0,   0,   0,   0, 1000, 2.216, 1023,  -1,   1,   0,  73, -211, 4203, 117, 133, 145, 168, ANGLE_MODE, GPS_FIX_HOME|GPS_FIX|SMALL_ANGLE, IDLE, 1, 1
1376, 41233469,   0,  -1,  -1,   0,   0,   0,   0,  -5,   0,   0,   0,   0, 1000, 2.216, 1023,   0,   1,   1,  62, -201, 4205, 115, 150, 123, 147, ANGLE_MODE, GPS_FIX_HOME|GPS_FIX|SMALL_ANGLE, IDLE, 1, 1
1384, 41237533,  -1,   0,   1,   0,   0,   0,  -6,   7,   0,   0,   0,   0, 1000, 2.224, 1023,   1,  -1,   0,  71, -195, 4195, 184, 146, 147, 118, ANGLE_MODE, GPS_FIX_HOME|GPS_FIX|SMALL_ANGLE, IDLE, 1, 1
1392, 41241873,   0,   0,   1,   0,   0,   0,   4,   1,   0,   0,   0,   0, 1000, 2.224, 1023,  -1,   0,   0,  73, -201, 4199, 124, 115, 139, 138, ANGLE_MODE, GPS_FIX_HOME|GPS_FIX|SMALL_ANGLE, IDLE, 1, 1
1400, 41245933,   0,  -1,   0,   0,   0,   0,   4,  -6,   0,   0,   0,   0, 1000, 2.224, 1023,  -1,   1,   0,  60, -198, 4207, 115, 151, 137, 168, ANGLE_MODE, GPS_FIX_HOME|GPS_FIX|SMALL_ANGLE, IDLE, 1, 1
1408, 41250001,  -1,   0,   0,   0,   0,   0,  -6,   4,   0,   0,   0,   0, 1000, 2.224, 1023,   1,  -1,   0,  55, -192, 4202, 166, 145, 135, 116, ANGLE_MODE, GPS_FIX_HOME|GPS_FIX|SMALL_ANGLE, IDLE, 1, 1
1416, 41254065,   0,   1,   2,   0,   0,   0,   0,   4,   0,   0,   0,   0, 1000, 2.224, 1023,   0,  -1,  -1,  63, -187, 4199, 147, 115, 140, 126, ANGLE_MODE, GPS_FIX_HOME|GPS_FIX|SMALL_ANGLE, IDLE, 1, 1
1424, 41258143,   1,  -1,   0,   0,   0,   0,   7,  -6,   0,   0,   0,   0, 1000, 2.216, 1023,  -2,   1,   0,  55, -193, 4206, 117, 147, 150, 186, ANGLE_MODE, GPS_FIX_HOME|GPS_FIX|SMALL_ANGLE, IDLE, 1, 1
1432, 41262197,   0,   0,  -2,   0,   0,   0,  -3,  -1,   0,   0,   0,   0, 1000, 2.216, 1023,   0,   0,   1,  54, -181, 4200, 130, 146, 124, 118, ANGLE_MODE, GPS_FIX_HOME|GPS_FIX|SMALL_ANGLE, IDLE, 1, 1
1440, 41266265,   0,   1,   2,   0,   0,   0,  -5,   7,   0,   0,   0,   0, 1000, 2.216, 1023,   1,  -1,  -1,  66, -174, 4192, 180, 137, 145, 120, ANGLE_MODE, GPS_FIX_HOME|GPS_FIX|SMALL_ANGLE, IDLE, 1, 1
1448, 41270327,   1,   0,   1,   0,   0,   0,   7,  -3,   0,   0,   0,   0, 1000, 2.216, 1023,  -2,   0,   0,  65, -187, 4198, 118, 126, 150, 169, ANGLE_MODE, GPS_FIX_HOME|GPS_FIX|SMALL_ANGLE, IDLE, 1, 1
1456, 41274391,   0,  -1,   0,   0,   0,   0,   1,  -6,   0,   0,   0,   0, 1000, 2.216, 1023,  -1,   1,   0,  56, -180, 4207, 115, 149, 127, 154, ANGLE_MODE, GPS_FIX_HOME|GPS_FIX|SMALL_ANGLE, IDLE, 1, 1
1464, 41278453,  -1,   1,   1,   0,   0,   0,  -8,   6,   0,   0,   0,   0, 1000, 2.216, 1023,   1,  -1,  -1,  68, -178, 4194, 188, 150, 144, 119, ANGLE_MODE, GPS_FIX_HOME|GPS_FIX|SMALL_ANGLE, IDLE, 1, 1
1472, 41282518,   0,   0,   2,   0,   0,   0,   2,   2,   0,   0,   0,   0, 1000, 2.216, 1023,  -1,  -1,  -1,  76, -178, 4201, 130, 115, 135, 133, ANGLE_MODE, GPS_FIX_HOME|GPS_FIX|SMALL_ANGLE, IDLE, 1, 1
1480, 41286688,   1,  -1,   0,   0,   0,   0,   6,  -7,   0,   0,   0,   0, 1000, 2.216, 1023,  -2,   2,   0,  60, -191, 4205, 115, 152, 148, 180, ANGLE_MODE, GPS_FIX_HOME|GPS_FIX|SMALL_ANGLE, IDLE, 1, 1
1488, 41290733,   0,   0,  -2,   0,   0,   0,  -5,   1,   0,   0,   0,   0, 1000, 2.216, 1023,   1,   0,   1,  61, -184, 4204, 142, 145, 129, 115, ANGLE_MODE, GPS_FIX_HOME|GPS_FIX|SMALL_ANGLE, IDLE, 1, 1
1496, 41294788,   0,   1,   2,   0,   0,   0,  -4,   6,   0,   0,   0,   0, 1000, 2.216, 1023,   1,  -1,  -1,  70, -183, 4195, 172, 131, 140, 121, ANGLE_MODE, GPS_FIX_HOME|GPS_FIX|SMALL_ANGLE, IDLE, 1, 1
1504, 41298832,   1,   0,   0,   0,   0,   0,   8,  -3,   0,   0,   0,   0, 1000, 2.224, 1023,  -2,   1,   0,  64, -197, 4202, 116, 132, 154, 171, ANGLE_MODE, GPS_FIX_HOME|GPS_FIX|SMALL_ANGLE, IDLE, 1, 1
1512, 41302905,   0,   0,  -2,   0,   0,   0,   0,  -4,   0,   0,   0,   0, 1000, 2.224, 1023,   0,   1,   1,  52, -195, 4207, 115, 147, 127, 139, ANGLE_MODE, GPS_FIX_HOME|GPS_FIX|SMALL_ANGLE, IDLE, 1, 1
1520, 41306954,  -1,   1,   1,   0,   0,   0,  -8,   7,   0,   0,   0,   0, 1000, 2.224, 1023,   2,  -1,  -1,  63, -193, 4197, 193, 154, 146, 118, ANGLE_MODE, GPS_FIX_HOME|GPS_FIX|SMALL_ANGLE, IDLE, 1, 1
1528, 41310999,   0,   0,   0,   0,   0,   0,   3,   0,   0,   0,   0,   0, 1000, 2.224, 1023,  -1,   0,   0,  69, -191, 4203, 120, 115, 132, 134, ANGLE_MODE, GPS_FIX_HOME|GPS_FIX|SMALL_ANGLE, IDLE, 1, 1
1536, 41315087,   1,  -1,  -1,   0,   0,   0,   7,  -7,   0,   0,   0,   0, 1000, 2.224, 1023,  -2,   2,   0,  60, -206, 4209, 116, 154, 156, 186, ANGLE_MODE, GPS_FIX_HOME|GPS_FIX|SMALL_ANGLE, IDLE, 1, 1
1544, 41319145,   0,   0,  -1,   0,   0,   0,  -5,   3,   0,   0,   0,   0, 1000, 2.224, 1023,   1,  -1,   0,  62, -200, 4208, 157, 146, 134, 116, ANGLE_MODE, GPS_FIX_HOME|GPS_FIX|SMALL_ANGLE, IDLE, 1, 1
1552, 41323203,   0,   0,   3,   0,   0,   0,  -4,   4,   0,   0,   0,   0, 1000, 2.224, 1023,   1,  -1,  -1,  75, -193, 4203, 164, 131, 131, 123, ANGLE_MODE, GPS_FIX_HOME|GPS_FIX|SMALL_ANGLE, IDLE, 1, 1
1560, 41327255,   1,  -1,   0,   0,   0,   0,   8,  -4,   0,   0,   0,   0, 1000, 2.224, 1023,  -2,   1,   0,  64, -202, 4208, 118, 138, 155, 182, ANGLE_MODE, GPS_FIX_HOME|GPS_FIX|SMALL_ANGLE, IDLE, 1, 1
1568, 41331433,   0,   0,  -2,   0,   0,   0,  -1,  -2,   0,   0,   0,   0, 1000, 2.224, 1023,   0,   1,   1,  56, -205, 4211, 119, 143, 125, 126, ANGLE_MODE, GPS_FIX_HOME|GPS_FIX|SMALL_ANGLE, IDLE, 1, 1
1576, 41335643,  -1,   1,   0,   0,   0,   0,  -6,   7,   0,   0,   0,   0, 1000, 2.224, 1023,   1,  -1,   0,  63, -218, 4212, 181, 146, 151, 117, ANGLE_MODE, GPS_FIX_HOME|GPS_FIX|SMALL_ANGLE, IDLE, 1, 1
1584, 41339696,   0,   0,   1,   0,   0,   0,   3,   0,   0,   0,   0,   0, 1000, 2.224, 1023,  -1,   0,  -1,  57, -245, 4222, 121, 118, 134, 144, ANGLE_MODE, GPS_FIX_HOME|GPS_FIX|SMALL_ANGLE, IDLE, 1, 1
1592, 41343789,   0,  -1,  -1,   0,   0,   0,   3,  -6,   0,   0,   0,   0, 1000, 2.224, 1023,  -1,   2,   1,  39, -255, 4230, 116, 153, 138, 164, ANGLE_MODE, GPS_FIX_HOME|GPS_FIX|SMALL_ANGLE, IDLE, 1, 1
1600, 41347851,  -1,   0,   0,   0,   0,   0,  -6,   3,   0,   0,   0,   0, 1000, 2.224, 1023,   1,  -1,   0,  50, -255, 4227, 162, 147, 136, 116, ANGLE_MODE, GPS_FIX_HOME|GPS_FIX|SMALL_ANGLE, IDLE, 1, 1
1608, 41351915,   0,   0,   3,   0,   0,   0,  -1,   4,   0,   0,   0,   0, 1000, 2.224, 1023,   0,  -1,  -1,  59, -249, 4222, 155, 120, 135, 126, ANGLE_MODE, GPS_FIX_HOME|GPS_FIX|SMALL_ANGLE, IDLE, 1, 1
1616, 41355981,   1,  -1,   0,   0,   0,   0,   7,  -6,   0,   0,   0,   0, 1000, 2.224, 1023,  -1,   1,   0,  50, -259, 4225, 117, 147, 150, 181, ANGLE_MODE, GPS_FIX_HOME|GPS_FIX|SMALL_ANGLE, IDLE, 1, 1
1624, 41360054,   0,   0,  -2,   0,   0,   0,  -1,  -2,   0,   0,   0,   1, 1000, 2.216, 1023,   0,   1,   1,  46, -246, 4226, 118, 143, 125, 129, ANGLE_MODE, GPS_FIX_HOME|GPS_FIX|SMALL_ANGLE, IDLE, 1, 1
1632, 41364114,  -1,   1,   2,   0,   0,   0,  -6,   8,   0,   0,   0,   1, 1000, 2.216, 1023,   1,  -1,   0,  61, -232, 4216, 191, 144, 150, 121, ANGLE_MODE, GPS_FIX_HOME|GPS_FIX|SMALL_ANGLE, IDLE, 1, 1
1640, 41368178,   1,   0,   2,   0,   0,   0,   4,  -1,   0,   0,   0,   1, 1000, 2.216, 1023,  -1,   0,   0,  65, -230, 4215, 122, 119, 139, 153, ANGLE_MODE, GPS_FIX_HOME|GPS_FIX|SMALL_ANGLE, IDLE, 1, 1
1648, 41372332,   1,  -1,  -2,   0,   0,   0,   5,  -6,   0,   0,   0,   1, 1000, 2.216, 1023,  -1,   2,   1,  50, -227, 4218, 116, 154, 148, 172, ANGLE_MODE, GPS_FIX_HOME|GPS_FIX|SMALL_ANGLE, IDLE, 1, 1
1656, 41376420,  -1,   0,  -1,   0,   0,   0,  -8,   4,   0,   0,   0,   1, 1000, 2.216, 1023,   1,  -1,   1,  61, -218, 4212, 174, 160, 143, 116, ANGLE_MODE, GPS_FIX_HOME|GPS_FIX|SMALL_ANGLE, IDLE, 1, 1
1664, 41380465,   0,   0,   5,   0,   0,   0,   0,   5,   0,   0,   0,   3, 1007, 2.224, 1023,   0,  -1,   0,  66, -207, 4207, 166, 119, 138, 138, ANGLE_MODE, GPS_FIX_HOME|GPS_FIX|SMALL_ANGLE, IDLE, 1, 1
1672, 41384528,   1,  -1,   2,   0,   0,   0,   8,  -6,   0,   0,   0,   3, 1007, 2.224, 1023,  -2,   1,   1,  55, -219, 4215, 122, 144, 150, 193, ANGLE_MODE, GPS_FIX_HOME|GPS_FIX|SMALL_ANGLE, IDLE, 1, 1
1680, 41388582,   0,   0,  -1,   0,   0,   0,  -2,  -1,   0,   0,   0,   3, 1007, 2.224, 1023,   0,   0,   2,  49, -211, 4214, 127, 141, 119, 124, ANGLE_MODE, GPS_FIX_HOME|GPS_FIX|SMALL_ANGLE, IDLE, 1, 1
1688, 41392639,  -1,   1,   3,   0,   0,   0,  -6,   8,   0,   0,   0,   3, 1007, 2.224, 1023,   1,  -2,   0,  65, -206, 4205, 194, 138, 149, 124, ANGLE_MODE, GPS_FIX_HOME|GPS_FIX|SMALL_ANGLE, IDLE, 1, 1
1696, 41396738,   0,   0,   4,   0,   0,   0,   3,  -2,   0,   0,   0,   3, 1007, 2.224, 1023,  -1,   0,   0,  66, -204, 4207, 130, 122, 128, 158, ANGLE_MODE, GPS_FIX_HOME|GPS_FIX|SMALL_ANGLE, IDLE, 1, 1
1704, 41400793,   0,  -1,   0,   0,   0,   0,   4,  -7,   0,   0,   0,   3, 1015, 2.216, 1023,  -1,   2,   1,  51, -206, 4212, 118, 149, 134, 172, ANGLE_MODE, GPS_FIX_HOME|GPS_FIX|SMALL_ANGLE, IDLE, 1, 1
1712, 41404862,   0,   0,   2,   0,   0,   0,  -4,   4,   0,   0,   0,   3, 1015, 2.216, 1023,   1,  -1,   1,  64, -203, 4208, 165, 130, 133, 123, ANGLE_MODE, GPS_FIX_HOME|GPS_FIX|SMALL_ANGLE, IDLE, 1, 1
1720, 41408947,   0,   0,   7,   0,   0,   0,  -1,   4,   0,   0,   0,   3, 1015, 2.216, 1023,   0,  -1,  -1,  73, -193, 4201, 169, 119, 134, 144, ANGLE_MODE, GPS_FIX_HOME|GPS_FIX|SMALL_ANGLE, IDLE, 1, 1
1728, 41413034,   1,  -1,   3,   0,   0,   0,   5,  -7,   0,   0,   0,   3, 1015, 2.216, 1023,  -1,   2,   1,  67, -199, 4209, 124, 145, 136, 186, ANGLE_MODE, GPS_FIX_HOME|GPS_FIX|SMALL_ANGLE, IDLE, 1, 1
1736, 41417103,   0,   0,   2,   0,   0,   0,  -1,  -1,   0,   0,   0,   3, 1017, 2.216, 1023,   0,   1,   1,  63, -189, 4207, 131, 128, 116, 129, ANGLE_MODE, GPS_FIX_HOME|GPS_FIX|SMALL_ANGLE, IDLE, 1, 1
1744, 41421177,   0,   1,   6,   0,   0,   0,  -4,   8,   0,   0,   0,   3, 1026, 2.224, 1023,   1,  -1,  -1,  74, -185, 4202, 193, 127, 144, 135, ANGLE_MODE, GPS_FIX_HOME|GPS_FIX|SMALL_ANGLE, IDLE, 1, 1
1752, 41425242,   1,   0,   5,   0,   0,   0,   5,  -2,   0,   0,   0,   3, 1026, 2.224, 1023,  -1,   0,   0,  80, -188, 4206, 133, 122, 137, 170, ANGLE_MODE, GPS_FIX_HOME|GPS_FIX|SMALL_ANGLE, IDLE, 1, 1
1760, 41429590,   0,  -1,   0,   0,   0,   0,   1,  -5,   0,   0,   0,   3, 1026, 2.224, 1023,   0,   1,   1,  66, -186, 4209, 119, 143, 122, 155, ANGLE_MODE, GPS_FIX_HOME|GPS_FIX|SMALL_ANGLE, IDLE, 1, 1
1768, 41433653,   0,   1,   3,   0,   0,   0,  -5,   6,   0,   0,   0,   3, 1035, 2.224, 1023,   1,  -1,   0,  80, -187, 4202, 181, 135, 137, 125, ANGLE_MODE, GPS_FIX_HOME|GPS_FIX|SMALL_ANGLE, IDLE, 1, 1
1776, 41437715,   0,   0,   5,   0,   0,   0,   2,   2,   0,   0,   0,   3, 1035, 2.224, 1023,  -1,  -1,   0,  85, -186, 4200, 150, 116, 135, 148, ANGLE_MODE, GPS_FIX_HOME|GPS_FIX|SMALL_ANGLE, IDLE, 1, 1
1784, 41441811,   0,  -1,   1,   0,   0,   0,   4,  -7,   0,   0,   0,   3, 1045, 2.224, 1023,  -1,   1,   1,  71, -193, 4207, 121, 146, 132, 176, ANGLE_MODE, GPS_FIX_HOME|GPS_FIX|SMALL_ANGLE, IDLE, 1, 1
1792, 41445873,   0,   0,   2,   0,   0,   0,  -3,   0,   0,   0,   0,   3, 1045, 2.224, 1023,   1,   0,   1,  74, -188, 4203, 146, 131, 117, 126, ANGLE_MODE, GPS_FIX_HOME|GPS_FIX|SMALL_ANGLE, IDLE, 1, 1
1800, 41449928,   0,   0,   7,   0,   0,   0,  -2,   6,   0,   0,   0,   3, 1045, 2.224, 1023,   0,  -1,  -1,  80, -187, 4199, 179, 120, 138, 142, ANGLE_MODE, GPS_FIX_HOME|GPS_FIX|SMALL_ANGLE, IDLE, 1, 1
1808, 41454057,   0,  -1,   4,   0,   0,   0,   4,  -4,   0,   0,   0,   3, 1054, 2.224, 1023,  -1,   1,   0,  78, -192, 4202, 127, 128, 126, 170, ANGLE_MODE, GPS_FIX_HOME|GPS_FIX|SMALL_ANGLE, IDLE, 1, 1
1816, 41458120,   0,   0,   1,   0,   0,   0,   0,  -3,   0,   0,   0,   3, 1054, 2.224, 1023,   0,   1,   1,  73, -190, 4207, 127, 132, 115, 142, ANGLE_MODE, GPS_FIX_HOME|GPS_FIX|SMALL_ANGLE, IDLE, 1, 1
1824, 41462170,   0,   1,   7,   0,   0,   1,  -3,   7,   0,   0,   0,   3, 1063, 2.224, 1023,   1,  -1,  -1,  81, -194, 4199, 188, 124, 140, 140, ANGLE_MODE, GPS_FIX_HOME|GPS_FIX|SMALL_ANGLE, IDLE, 1, 1
1832, 41466229,   0,   0,   6,   0,   0,   1,   2,   0,   0,   0,   0,   3, 1063, 2.224, 1023,  -1,   0,   0,  80, -191, 4199, 148, 124, 131, 164, ANGLE_MODE, GPS_FIX_HOME|GPS_FIX|SMALL_ANGLE, IDLE, 1, 1
1840, 41470317,   0,   0,   1,   0,   0,   1,   2,  -5,   0,   0,   0,   3, 1063, 2.224, 1023,   0,   1,   1,  70, -193, 4207, 128, 144, 129, 166, ANGLE_MODE, GPS_FIX_HOME|GPS_FIX|SMALL_ANGLE, IDLE, 1, 1
1848, 41474381,   0,   2,   5,   0,   0,   1,  -3,  10,   0,   0,   2,   4, 1070, 2.224, 1023,   0,  -1,   0,  68, -195, 4202, 202, 125, 159, 138, ANGLE_MODE, GPS_FIX_HOME|GPS_FIX|SMALL_ANGLE, IDLE, 1, 1
1856, 41478441,   0,   4,   8,   0,   0,   1,   0,  10,   0,   0,   6,   4, 1070, 2.216, 1023,   0,  -1,  -1,  73, -194, 4203, 212, 115, 177, 156, ANGLE_MODE, GPS_FIX_HOME|GPS_FIX|SMALL_ANGLE, IDLE, 1, 1
1864, 41482538,   0,   3,   0,   0,   0,   1,   3,  -5,   0,   0,   7,   5, 1078, 2.216, 1023,  -1,   1,   3,  65, -198, 4209, 164, 163, 173, 189, ANGLE_MODE, GPS_FIX_HOME|GPS_FIX|SMALL_ANGLE, IDLE, 1, 1
1872, 41486623,   0,   4,   0,   0,   0,   1,  -3,   1,   0,   0,   7,   5, 1078, 2.216, 1023,   1,   0,   3,  62, -194, 4214, 196, 164, 176, 154, ANGLE_MODE, GPS_FIX_HOME|GPS_FIX|SMALL_ANGLE, IDLE, 1, 1
1880, 41490679,   0,   5,   6,   0,   0,   1,  -1,   6,   0,   0,   7,   5, 1087, 2.216, 1023,   0,  -1,   0,  67, -210, 4209, 235, 151, 198, 178, ANGLE_MODE, GPS_FIX_HOME|GPS_FIX|SMALL_ANGLE, IDLE, 1, 1
1888, 41494757,   1,   3,   6,   0,   1,   1,   4,  -5,   0,   0,   7,   7, 1096, 2.216, 1023,  -1,   1,   2,  53, -222, 4211, 211, 183, 204, 237, ANGLE_MODE, GPS_FIX_HOME|GPS_FIX|SMALL_ANGLE, IDLE, 1, 1
1896, 41498830,   0,   3,   4,   0,   1,   1,  -1,  -3,   0,   0,   7,   7, 1096, 2.216, 1023,   0,   1,   2,  47, -223, 4218, 227, 196, 197, 217, ANGLE_MODE, GPS_FIX_HOME|GPS_FIX|SMALL_ANGLE, IDLE, 1, 1
1904, 41502894,   0,   7,   8,   0,   1,   1,  -1,  16,   0,   0,  11,   7, 1104, 2.216, 1023,   0,  -1,   1,  52, -233, 4205, 299, 157, 255, 190, ANGLE_MODE, GPS_FIX_HOME|GPS_FIX|SMALL_ANGLE, IDLE, 1, 1
1912, 41506961,   1,   8,   4,   0,   1,   1,   4,   8,   0,   0,  15,   7, 1104, 2.216, 1023,  -1,   1,   2,  51, -233, 4208, 263, 164, 262, 211, ANGLE_MODE, GPS_FIX_HOME|GPS_FIX|SMALL_ANGLE, IDLE, 1, 1
1920, 41511015,   0,   7,   5,   0,   2,   1,  -2,  -6,   0,   0,  15,   7, 1104, 2.216, 1023,   0,   2,   2,  46, -223, 4213, 251, 206, 215, 229, ANGLE_MODE, GPS_FIX_HOME|GPS_FIX|SMALL_ANGLE, IDLE, 1, 1
1928, 41515085,   0,  10,  11,   0,   2,   2,   0,   6,   0,   0,  15,   7, 1113, 2.216, 1023,  -1,   0,   0,  48, -225, 4205, 308, 177, 256, 234, ANGLE_MODE, GPS_FIX_HOME|GPS_FIX|SMALL_ANGLE, IDLE, 1, 1
1936, 41519390,   1,   9,   6,   0,   3,   2,   5,   1,   0,   0,  15,   7, 1113, 2.216, 1023,  -2,   0,   2,  55, -221, 4205, 275, 184, 270, 246, ANGLE_MODE, GPS_FIX_HOME|GPS_FIX|SMALL_ANGLE, IDLE, 1, 1
1944, 41523477,   0,   9,   4,   0,   3,   2,  -7,  -3,   0,   0,  16,   7, 1114, 2.216, 1023,   1,   1,   2,  61, -210, 4208, 294, 230, 236, 222, ANGLE_MODE, GPS_FIX_HOME|GPS_FIX|SMALL_ANGLE, IDLE, 1, 1
1952, 41527542,   1,  10,   8,   0,   4,   2,   3,   2,   0,   0,  16,   7, 1123, 2.216, 1023,  -2,   0,   1,  55, -212, 4206, 305, 197, 288, 265, ANGLE_MODE, GPS_FIX_HOME|GPS_FIX|SMALL_ANGLE, IDLE, 1, 1
1960, 41531589,   1,   9,   7,   0,   4,   2,   3,   0,   0,   0,  16,   7, 1123, 2.216, 1023,  -1,   1,   1,  59, -204, 4203, 301, 206, 281, 268, ANGLE_MODE, GPS_FIX_HOME|GPS_FIX|SMALL_ANGLE, IDLE, 1, 1
1968, 41535664,   0,  10,   5,   0,   5,   2,  -4,   2,   0,   0,  17,   7, 1130, 2.216, 1023,  -1,   1,   2,  71, -199, 4209, 336, 232, 291, 253, ANGLE_MODE, GPS_FIX_HOME|GPS_FIX|SMALL_ANGLE, IDLE, 1, 1
1976, 41539817,   1,  10,   6,   0,   5,   2,   2,   1,   0,   0,  18,   7, 1130, 2.207, 1023,  -1,   1,   2,  60, -192, 4209, 323, 215, 305, 269, ANGLE_MODE, GPS_FIX_HOME|GPS_FIX|SMALL_ANGLE, IDLE, 1, 1
1984, 41543889,   1,  10,   2,   0,   6,   2,   0,   0,   0,   0,  18,   7, 1130, 2.207, 1023,  -2,   1,   3,  76, -201, 4201, 314, 230, 307, 261, ANGLE_MODE, GPS_FIX_HOME|GPS_FIX|SMALL_ANGLE, IDLE, 1, 1
1992, 41547952,   1,  10,  10,   0,   6,   2,   0,   0,   0,   0,  18,   7, 1131, 2.207, 1023,  -1,   1,   0,  63, -184, 4210, 336, 216, 289, 279, ANGLE_MODE, GPS_FIX_HOME|GPS_FIX|SMALL_ANGLE, IDLE, 1, 1
2000, 41552020,   2,  10,   2,   0,   7,   3,   0,  -1,   0,   0,  18,   7, 1131, 2.207, 1023,  -2,   2,   3,  81, -198, 4207, 316, 231, 308, 265, ANGLE_MODE, GPS_FIX_HOME|GPS_FIX|SMALL_ANGLE, IDLE, 1, 1
2008, 41556094,   2,  11,   8,   0,   7,   3,   3,   8,   0,   0,  21,   8, 1140, 2.207, 1023,  -3,   1,   2,  76, -185, 4207, 364, 207, 345, 277, ANGLE_MODE, GPS_FIX_HOME|GPS_FIX|SMALL_ANGLE, IDLE, 1, 1
2016, 41560162,   1,  13,   4,   1,   8,   3,  -3,   5,   0,   0,  25,   8, 1140, 2.216, 1023,  -1,   3,   3,  82, -197, 4205, 371, 231, 334, 257, ANGLE_MODE, GPS_FIX_HOME|GPS_FIX|SMALL_ANGLE, IDLE, 1, 1
2024, 41564250,   2,  13,   8,   1,   9,   3,   0,   1,   0,   0,  26,   8, 1140, 2.216, 1023,  -2,   3,   1,  92, -178, 4211, 365, 222, 328, 279, ANGLE_MODE, GPS_FIX_HOME|GPS_FIX|SMALL_ANGLE, IDLE, 1, 1
2032, 41568318,   2,  12,   7,   1,   9,   3,   6,  -4,   0,   0,  27,  10, 1147, 2.216, 1023,  -3,   5,   3, 141, -205, 4214, 352, 234, 347, 318, ANGLE_MODE, GPS_FIX_HOME|GPS_FIX|SMALL_ANGLE, IDLE, 1, 1
2040, 41572386,   1,  12,  11,   1,  10,   3,  -4,  -1,   0,   0,  27,  10, 1147, 2.216, 1023,  -2,   5,   2, 228, -245, 4205, 389, 243, 324, 295, ANGLE_MODE, GPS_FIX_HOME|GPS_FIX|SMALL_ANGLE, IDLE, 1, 1
2048, 41576457,   2,  13,   7,   1,  10,   3,   4,   4,   0,   0,  30,  10, 1147, 2.216, 1023,  -3,   6,   3, 240, -225, 4217, 375, 214, 367, 295, ANGLE_MODE, GPS_FIX_HOME|GPS_FIX|SMALL_ANGLE, IDLE, 1, 1
2056, 41580507,   1,  14,   6,   1,  11,   3,  -4,   5,   0,   0,  34,  12, 1157, 2.207, 1023,  -1,   7,   3, 313, -261, 4211, 421, 251, 373, 287, ANGLE_MODE, GPS_FIX_HOME|GPS_FIX|SMALL_ANGLE, IDLE, 1, 1
2064, 41584578,   2,  13,   8,   1,  12,   3,   0,  -3,   0,   0,  34,  12, 1157, 2.207, 1023,  -2,   8,   4, 284, -223, 4214, 395, 259, 359, 319, ANGLE_MODE, GPS_FIX_HOME|GPS_FIX|SMALL_ANGLE, IDLE, 1, 1
2072, 41588635,   3,  12,  16,   1,  13,   4,   7,  -3,   0,   0,  35,  18, 1157, 2.207, 1023,  -4,  10,   4, 335, -243, 4221, 390, 223, 362, 358, ANGLE_MODE, GPS_FIX_HOME|GPS_FIX|SMALL_ANGLE, IDLE, 1, 1
2080, 41592699,   4,  11,  11,   2,  13,   4,   1,  -1,   0,   0,  36,  18, 1157, 2.207, 1023,  -4,  12,   6, 308, -235, 4226, 396, 240, 362, 334, ANGLE_MODE, GPS_FIX_HOME|GPS_FIX|SMALL_ANGLE, IDLE, 1, 1
2088, 41596787,   4,  11,   7,   2,  14,   4,   0,  -4,   0,   0,  36,  18, 1165, 2.207, 1023,  -4,  12,   7, 320, -217, 4246, 403, 270, 380, 343, ANGLE_MODE, GPS_FIX_HOME|GPS_FIX|SMALL_ANGLE, IDLE, 1, 1
2096, 41600853,   4,   7,   0,   2,  14,   4,   1,  -1,   0,   0,  37,  18, 1165, 2.216, 1023,  -4,  17,  10, 313, -224, 4237, 382, 285, 396, 333, ANGLE_MODE, GPS_FIX_HOME|GPS_FIX|SMALL_ANGLE, IDLE, 1, 1
2104, 41604922,   3,   9,   7,   2,  15,   4,  -3,   3,   0,   0,  40,  18, 1165, 2.216, 1023,  -4,  16,   7, 313, -198, 4254, 421, 264, 389, 324, ANGLE_MODE, GPS_FIX_HOME|GPS_FIX|SMALL_ANGLE, IDLE, 1, 1
2112, 41609250,   3,   6,   8,   2,  15,   4,  -1, -10,   0,   0,  42,  20, 1167, 2.216, 1023,  -4,  20,   8, 295, -180, 4255, 392, 293, 362, 367, ANGLE_MODE, GPS_FIX_HOME|GPS_FIX|SMALL_ANGLE, IDLE, 1, 1
2120, 41613321,   4,   4,  11,   3,  15,   4,   5,  -6,   0,   0,  42,  20, 1167, 2.216, 1023,  -4,  22,   7, 317, -202, 4271, 390, 267, 374, 382, ANGLE_MODE, GPS_FIX_HOME|GPS_FIX|SMALL_ANGLE, IDLE, 1, 1
2128, 41617386,   3,   0,  -2,   3,  15,   4,  -5, -13,   0,   0,  42,  20, 1176, 2.207, 1023,  -4,  26,  12, 273, -155, 4277, 379, 356, 378, 373, ANGLE_MODE, GPS_FIX_HOME|GPS_FIX|SMALL_ANGLE, IDLE, 1, 1
2136, 41621519,   3,   0,   2,   3,  15,   4,   0,  -5,   0,   0,  42,  20, 1177, 2.207, 1023,  -3,  28,  10, 299, -183, 4297, 397, 325, 391, 381, ANGLE_MODE, GPS_FIX_HOME|GPS_FIX|SMALL_ANGLE, IDLE, 1, 1
2144, 41625595,   3,  -4,  11,   3,  15,   4,   1, -13,   0,   0,  42,  20, 1177, 2.207, 1023,  -4,  31,   7, 262, -157, 4309, 385, 329, 355, 426, ANGLE_MODE, GPS_FIX_HOME|GPS_FIX|SMALL_ANGLE, IDLE, 1, 1
2152, 41629673,   3,  -6,   2,   3,  15,   5,  -3,  -3,   0,   0,  42,  20, 1187, 2.207, 1023,  -3,  33,  10, 260, -157, 4308, 414, 360, 398, 403, ANGLE_MODE, GPS_FIX_HOME|GPS_FIX|SMALL_ANGLE, IDLE, 1, 1
2160, 41633788,   2,  -8,   3,   3,  15,   5,  -1, -13,   0,   0,  43,  20, 1187, 2.207, 1023,  -2,  36,  10, 288, -148, 4264, 387, 383, 372, 434, ANGLE_MODE, GPS_FIX_HOME|GPS_FIX|SMALL_ANGLE, IDLE, 1, 1
2168, 41637840,   1, -11,   6,   3,  14,   5,  -1,  -5,   0,   0,  44,  20, 1187, 2.207, 1023,  -1,  40,   9, 228, -142, 4275, 405, 369, 372, 429, ANGLE_MODE, GPS_FIX_HOME|GPS_FIX|SMALL_ANGLE, IDLE, 1, 1
2176, 41641893,   0, -12,   0,   3,  13,   5,  -4,  -8,   0,   0,  44,  20, 1196, 2.207, 1023,   0,  41,  11, 199, -122, 4254, 407, 417, 390, 435, ANGLE_MODE, GPS_FIX_HOME|GPS_FIX|SMALL_ANGLE, IDLE, 1, 1
2184, 41645945,   0, -17,   5,   3,  13,   5,  -3, -10,   0,   0,  44,  20, 1196, 2.207, 1023,   1,  46,   9, 222, -110, 4279, 403, 420, 362, 464, ANGLE_MODE, GPS_FIX_HOME|GPS_FIX|SMALL_ANGLE, IDLE, 1, 1
2192, 41650005,  -2, -16,   9,   3,  12,   5,  -6,   0,   0,   0,  44,  20, 1196, 2.207, 1023,   2,  45,   8, 152, -113, 4301, 443, 400, 367, 439, ANGLE_MODE, GPS_FIX_HOME|GPS_FIX|SMALL_ANGLE, IDLE, 1, 1
2200, 41654074,  -3, -18,   2,   3,  11,   5,  -2,  -6,   0,   0,  45,  20, 1205, 2.207, 1023,   3,  47,  10, 142, -72, 4331, 424, 447, 384, 468, ANGLE_MODE, GPS_FIX_HOME|GPS_FIX|SMALL_ANGLE, IDLE, 1, 1
2208, 41658143,  -4, -19,   9,   3,  10,   5,  -3,   1,   0,   0,  46,  20, 1205, 2.207, 1023,   5,  48,   7, 137, -78, 4371, 458, 423, 377, 465, ANGLE_MODE, GPS_FIX_HOME|GPS_FIX|SMALL_ANGLE, IDLE, 1, 1
2216, 41662209,  -6, -16,   1,   3,   9,   5,  -7,   7,   0,   0,  48,  20, 1205, 2.207, 1023,   6,  47,  10, 118, -65, 4415, 468, 435, 397, 423, ANGLE_MODE, GPS_FIX_HOME|GPS_FIX|SMALL_ANGLE, IDLE, 1, 1
2224, 41666287,  -5, -13,  -6,   2,   8,   5,   1,   8,   0,   0,  52,  20, 1205, 2.207, 1023,   6,  46,  13, 102, -38, 4488, 440, 426, 440, 416, ANGLE_MODE, GPS_FIX_HOME|GPS_FIX|SMALL_ANGLE, IDLE, 1, 1
2232, 41670359,  -5, -11,   0,   2,   8,   5,   2,   7,   0,   0,  53,  20, 1205, 2.207, 1023,   5,  46,  11,  99, -33, 4547, 449, 410, 427, 436, ANGLE_MODE, GPS_FIX_HOME|GPS_FIX|SMALL_ANGLE, IDLE, 1, 1
2240, 41674428,  -4, -10,   4,   2,   7,   5,   2,   1,   0,   0,  53,  20, 1205, 2.207, 1023,   4,  45,   9,  93, -35, 4624, 446, 414, 408, 454, ANGLE_MODE, GPS_FIX_HOME|GPS_FIX|SMALL_ANGLE, IDLE, 1, 1
2248, 41678481,  -2, -10,  -2,   2,   7,   5,   6,   0,   0,   0,  53,  20, 1205, 2.198, 1023,   2,  45,  12,  81, -28, 4704, 418, 417, 431, 456, ANGLE_MODE, GPS_FIX_HOME|GPS_FIX|SMALL_ANGLE, IDLE, 1, 1
2256, 41682562,  -2, -10,  -3,   2,   6,   5,   0,   1,   0,   0,  53,  20, 1207, 2.198, 1023,   3,  45,  12,  79, -19, 4783, 435, 438, 425, 441, ANGLE_MODE, GPS_FIX_HOME|GPS_FIX|SMALL_ANGLE, IDLE, 1, 1
2264, 41686632,  -3, -10,  -1,   2,   6,   5,  -2,   0,   0,   0,  53,  20, 1207, 2.198, 1023,   4,  45,  11,  63, -14, 4858, 439, 446, 409, 444, ANGLE_MODE, GPS_FIX_HOME|GPS_FIX|SMALL_ANGLE, IDLE, 1, 1
2272, 41690688,  -2, -11,   1,   1,   5,   5,   1,  -2,   0,   0,  53,  20, 1207, 2.198, 1023,   2,  45,  10,  61,   1, 4936, 430, 434, 409, 465, ANGLE_MODE, GPS_FIX_HOME|GPS_FIX|SMALL_ANGLE, IDLE, 1, 1
2280, 41694770,  -2, -11,  17,   1,   5,   5,   0,  -1,   0,   0,  53,  29, 1216, 2.198, 1023,   3,  46,  10,  56,  -5, 5026, 486, 426, 390, 510, ANGLE_MODE, GPS_FIX_HOME|GPS_FIX|SMALL_ANGLE, IDLE, 1, 1
2288, 41699112,  -2, -12,   7,   1,   4,   5,   0,  -2,   0,   0,  53,  29, 1216, 2.207, 1023,   3,  47,  13,  14,   1, 5120, 459, 449, 405, 498, ANGLE_MODE, GPS_FIX_HOME|GPS_FIX|SMALL_ANGLE, IDLE, 1, 1
2296, 41703183,  -1, -11,  -3,   1,   3,   5,   4,   0,   0,   0,  53,  30, 1216, 2.207, 1023,   1,  46,  18, -39,  -3, 5231, 434, 454, 445, 479, ANGLE_MODE, GPS_FIX_HOME|GPS_FIX|SMALL_ANGLE, IDLE, 1, 1
2304, 41707286,  -2, -10,  -5,   1,   3,   5,  -1,   4,   0,   0,  54,  30, 1224, 2.207, 1023,   2,  44,  18, -71,  -3, 5320, 470, 475, 461, 470, ANGLE_MODE, GPS_FIX_HOME|GPS_FIX|SMALL_ANGLE, IDLE, 1, 1
2312, 41711342,   0,  -8,  -2,   1,   2,   5,   2,   5,   0,   0,  54,  30, 1224, 2.207, 1023,   0,  43,  17, -88,  -4, 5405, 468, 454, 472, 483, ANGLE_MODE, GPS_FIX_HOME|GPS_FIX|SMALL_ANGLE, IDLE, 1, 1
2320, 41715401,   0,  -6,  18,   1,   2,   5,   6,   7,   0,   0,  54,  39, 1224, 2.207, 1023,  -1,  40,  15, -87, -16, 5495, 507, 395, 446, 528, ANGLE_MODE, GPS_FIX_HOME|GPS_FIX|SMALL_ANGLE, IDLE, 1, 1
2328, 41719460,   1,  -4,  12,   1,   2,   5,   2,   3,   0,   0,  54,  39, 1224, 2.207, 1023,  -2,  39,  17, -78, -36, 5591, 495, 419, 448, 514, ANGLE_MODE, GPS_FIX_HOME|GPS_FIX|SMALL_ANGLE, IDLE, 1, 1
2336, 41723547,   3,  -4,  -4,   1,   2,   5,   5,   1,   0,   0,  53,  39, 1234, 2.207, 1023,  -4,  38,  23, -78, -49, 5686, 470, 467, 504, 516, ANGLE_MODE, GPS_FIX_HOME|GPS_FIX|SMALL_ANGLE, IDLE, 1, 1
2344, 41727610,   2,  -4,  -6,   1,   1,   5,  -1,   1,   0,   0,  52,  40, 1234, 2.207, 1023,  -3,  38,  24, -65, -63, 5771, 480, 486, 495, 497, ANGLE_MODE, GPS_FIX_HOME|GPS_FIX|SMALL_ANGLE, IDLE, 1, 1
2352, 41731659,   0,  -4,  -1,   1,   1,   5,  -6,   2,   0,   0,  52,  40, 1234, 2.207, 1023,  -1,  37,  22, -65, -53, 5853, 506, 489, 472, 491, ANGLE_MODE, GPS_FIX_HOME|GPS_FIX|SMALL_ANGLE, IDLE, 1, 1
2360, 41735714,   1,  -2,  23,   1,   1,   5,  -1,   4,   0,   0,  52,  50, 1234, 2.207, 1023,  -1,  36,  19, -53, -41, 5945, 552, 420, 441, 545, ANGLE_MODE, GPS_FIX_HOME|GPS_FIX|SMALL_ANGLE, IDLE, 1, 1
2368, 41739767,   0,   0,  15,   1,   1,   6,   0,   4,   0,   0,  52,  50, 1234, 2.189, 1023,  -1,  34,  22, -31, -21, 6040, 536, 429, 464, 528, ANGLE_MODE, GPS_FIX_HOME|GPS_FIX|SMALL_ANGLE, IDLE, 1, 1
2376, 41743832,   0,   0,  -7,   1,   1,   6,  -2,   2,   0,   0,  51,  50, 1244, 2.189, 1023,   0,  32,  30,   7, -42, 6135, 517, 504, 522, 496, ANGLE_MODE, GPS_FIX_HOME|GPS_FIX|SMALL_ANGLE, IDLE, 1, 1
2384, 41747892,   1,   1, -15,   1,   1,   6,   2,   5,   0,   0,  51,  50, 1244, 2.189, 1023,  -1,  31,  33,  46, -55, 6237, 496, 502, 557, 485, ANGLE_MODE, GPS_FIX_HOME|GPS_FIX|SMALL_ANGLE, IDLE, 1, 1
2392, 41751959,   1,   3,  -5,   2,   1,   5,   3,   2,   0,   0,  51,  50, 1244, 2.189, 1023,  -1,  29,  29,  63, -80, 6343, 511, 480, 536, 513, ANGLE_MODE, GPS_FIX_HOME|GPS_FIX|SMALL_ANGLE, IDLE, 1, 1
2400, 41756024,   3,   4,   3,   2,   1,   6,   5,   8,   0,   0,  51,  50, 1244, 2.189, 1023,  -4,  28,  26,  64, -89, 6454, 534, 441, 542, 522, ANGLE_MODE, GPS_FIX_HOME|GPS_FIX|SMALL_ANGLE, IDLE, 1, 1
2408, 41760085,   6,   5,   1,   2,   2,   6,  10,   6,   0,   0,  51,  50, 1244, 2.198, 1023,  -6,  27,  27,  54, -97, 6567, 514, 429, 560, 536, ANGLE_MODE, GPS_FIX_HOME|GPS_FIX|SMALL_ANGLE, IDLE, 1, 1
2416, 41764155,   4,   5,  -3,   2,   2,   6,  -3,   1,   0,   0,  50,  50, 1246, 2.198, 1023,  -5,  27,  28,  60, -104, 6665, 530, 483, 533, 510, ANGLE_MODE, GPS_FIX_HOME|GPS_FIX|SMALL_ANGLE, IDLE, 1, 1
2424, 41768227,   5,   5,   1,   3,   2,   5,  -2,   2,   0,   0,  50,  51, 1254, 2.198, 1023,  -5,  26,  27,  74, -111, 6765, 556, 483, 548, 533, ANGLE_MODE, GPS_FIX_HOME|GPS_FIX|SMALL_ANGLE, IDLE, 1, 1
2432, 41772292,   5,   3,   7,   3,   2,   5,   0,  -7,   0,   0,  50,  51, 1254, 2.198, 1023,  -5,  28,  25,  84, -125, 6847, 538, 486, 520, 577, ANGLE_MODE, GPS_FIX_HOME|GPS_FIX|SMALL_ANGLE, IDLE, 1, 1
2440, 41776349,   3,   4,  -2,   3,   3,   5,  -6,  -2,   0,   0,  50,  51, 1254, 2.198, 1023,  -3,  27,  29, -190,   4, 6933, 548, 513, 533, 526, ANGLE_MODE, GPS_FIX_HOME|GPS_FIX|SMALL_ANGLE, IDLE, 1, 1
2448, 41780433,   0,   5,  -5,   3,   3,   5,  -5,   0,   0,   0,  49,  51, 1254, 2.189, 1023,  -1,  26,  30, -374,  73, 7006, 550, 517, 544, 510, ANGLE_MODE, GPS_FIX_HOME|GPS_FIX|SMALL_ANGLE, IDLE, 1, 1
2456, 41784506,  -2,   3, -10,   3,   3,   5,  -5,  -4,   0,   0,  48,  51, 1254, 2.189, 1023,   2,  27,  31, -484, 103, 7077, 535, 543, 535, 507, ANGLE_MODE, GPS_FIX_HOME|GPS_FIX|SMALL_ANGLE, IDLE, 1, 1
2464, 41788846,  -7,   2, -27,   3,   3,   5, -12,  -5,   0,   0,  48,  51, 1264, 2.189, 1023,   7,  28,  37, -531, 113, 7143, 539, 629, 561, 473, ANGLE_MODE, GPS_FIX_HOME|GPS_FIX|SMALL_ANGLE, IDLE, 1, 1
2472, 41792904,  -7,   1, -12,   2,   3,   5,  -8,   0,   0,   0,  48,  51, 1264, 2.189, 1023,   8,  29,  32, -555, 119, 7191, 573, 582, 548, 499, ANGLE_MODE, GPS_FIX_HOME|GPS_FIX|SMALL_ANGLE, IDLE, 1, 1
2480, 41796975,  -5,   0,  -6,   2,   3,   5,   7,  -4,   0,   0,  48,  51, 1264, 2.189, 1023,   5,  30,  30, -566, 111, 7241, 538, 544, 559, 561, ANGLE_MODE, GPS_FIX_HOME|GPS_FIX|SMALL_ANGLE, IDLE, 1, 1
2488, 41801037,  -4,  -1, -11,   2,   3,   5,   4,  -2,   0,   0,  47,  52, 1266, 2.189, 1023,   4,  32,  32, -566,  92, 7292, 539, 561, 570, 548, ANGLE_MODE, GPS_FIX_HOME|GPS_FIX|SMALL_ANGLE, IDLE, 1, 1
2496, 41805108,  -1,  -2,  -6,   2,   3,   5,   6,  -2,   0,   0,  47,  52, 1266, 2.189, 1023,   2,  33,  30, -537,  72, 7333, 535, 545, 567, 571, ANGLE_MODE, GPS_FIX_HOME|GPS_FIX|SMALL_ANGLE, IDLE, 1, 1
2504, 41809171,   0,  -3,  -3,   2,   3,   5,   3,   0,   0,   0,  47,  52, 1273, 2.189, 1023,   1,  33,  29, -506,  51, 7370, 562, 555, 573, 584, ANGLE_MODE, GPS_FIX_HOME|GPS_FIX|SMALL_ANGLE, IDLE, 1, 1
2512, 41813262,   0,  -2,   6,   2,   3,   5,  -1,   2,   0,   0,  47,  52, 1273, 2.189, 1023,   1,  32,  26, -415, -14, 7419, 600, 538, 552, 585, ANGLE_MODE, GPS_FIX_HOME|GPS_FIX|SMALL_ANGLE, IDLE, 1, 1
2520, 41817330,   0,  -5,  26,   2,   3,   5,   1,  -8,   0,   0,  43,  54, 1273, 2.189, 1023,   0,  33,  20, -375, -25, 7452, 603, 521, 492, 660, ANGLE_MODE, GPS_FIX_HOME|GPS_FIX|SMALL_ANGLE, IDLE, 1, 1
2528, 41821379,   0,  -8,  15,   2,   2,   5,   0,  -6,   0,   0,  39,  54, 1273, 2.189, 1023,   0,  34,  24, -343, -36, 7501, 582, 551, 505, 637, ANGLE_MODE, GPS_FIX_HOME|GPS_FIX|SMALL_ANGLE, IDLE, 1, 1
2536, 41825433,   0, -10,   6,   1,   2,   5,  -1,  -4,   0,   0,  39,  54, 1273, 2.189, 1023,   0,  35,  27, -316, -37, 7549, 568, 567, 523, 618, ANGLE_MODE, GPS_FIX_HOME|GPS_FIX|SMALL_ANGLE, IDLE, 1, 1
2544, 41829487,  -1,  -9,  19,   1,   2,   5,  -1,   1,   0,   0,  38,  63, 1273, 2.189, 1023,   1,  34,  28, -277, -34, 7601, 606, 532, 508, 629, ANGLE_MODE, GPS_FIX_HOME|GPS_FIX|SMALL_ANGLE, IDLE, 1, 1
2552, 41833559,  -1,  -7,  26,   1,   1,   5,  -4,   4,   0,   0,  38,  63, 1273, 2.189, 1023,   2,  32,  25, -245, -31, 7652, 638, 518, 492, 627, ANGLE_MODE, GPS_FIX_HOME|GPS_FIX|SMALL_ANGLE, IDLE, 1, 1
2560, 41837625,   0,  -6,  11,   1,   1,   5,   7,   5,   0,   0,  38,  63, 1282, 2.180, 1023,  -1,  31,  30, -211, -15, 7700, 603, 533, 573, 639, ANGLE_MODE, GPS_FIX_HOME|GPS_FIX|SMALL_ANGLE, IDLE, 1, 1
2568, 41841703,   0,  -4,   4,   1,   1,   5,   2,   6,   0,   0,  38,  63, 1282, 2.180, 1023,   0,  29,  33, -212, -26, 7745, 605, 553, 581, 609, ANGLE_MODE, GPS_FIX_HOME|GPS_FIX|SMALL_ANGLE, IDLE, 1, 1
2576, 41845777,  -2,  -3,   0,   1,   0,   5,  -6,   4,   0,   0,  38,  63, 1282, 2.180, 1023,   2,  27,  35, -219, -24, 7806, 614, 587, 569, 578, ANGLE_MODE, GPS_FIX_HOME|GPS_FIX|SMALL_ANGLE, IDLE, 1, 1
