loopIteration, time (us), axisP[0], axisP[1], axisP[2], axisI[0], axisI[1], axisI[2], axisD[0], axisD[1], axisD[2], rcCommand[0], rcCommand[1], rcCommand[2], rcCommand[3], vbatLatest (V), rssi, gyroADC[0], gyroADC[1], gyroADC[2], accSmooth[0], accSmooth[1], accSmooth[2], motor[0], motor[1], motor[2], motor[3], flightModeFlags (flags), stateFlags (flags), failsafePhase (flags), rxSignalReceived, rxFlightChannelsValid
  0, 92894489,   1,   0,   0,   0,   0,   0,   1,   0,   0,   0,   0,   0, 1000, 1.834, 1002,  -1,   0,   0, 185, -142, 4133, 116, 121, 131, 131, 0, 0, IDLE, 0, 0
256, 93025091,   2,   0,  -2,   0,   0,   0,   8,  -2,   0,   0,   0,   0, 1000, 1.834, 1012,  -2,   1,   1, 179, -132, 4141, 116, 136, 165, 169, ANGLE_MODE, GPS_FIX_HOME|GPS_FIX|SMALL_ANGLE, IDLE, 1, 1
264, 93029148,   1,   0,   0,   0,   0,   0,   3,  -1,   0,   0,   0,   0, 1000, 1.834, 1012,  -2,   1,   0, 178, -151, 4144, 116, 125, 140, 149, ANGLE_MODE, GPS_FIX_HOME|GPS_FIX|SMALL_ANGLE, IDLE, 1, 1
272, 93033483,   0,   0,   1,   0,   0,   0,  -8,   2,   0,   0,   0,   0, 1000, 1.834, 1012,   1,   0,  -1, 181, -138, 4141, 168, 152, 123, 120, ANGLE_MODE, GPS_FIX_HOME|GPS_FIX|SMALL_ANGLE, IDLE, 1, 1
280, 93037535,  -1,   0,   0,   0,   0,   0,  -5,   1,   0,   0,   0,   0, 1000, 1.834, 1012,   2,   0,   0, 183, -117, 4137, 152, 143, 121, 118, ANGLE_MODE, GPS_FIX_HOME|GPS_FIX|SMALL_ANGLE, IDLE, 1, 1
288, 93041598,   0,   0,  -2,   0,   0,   0,   4,  -1,   0,   0,   0,   0, 1000, 1.834, 1012,  -1,   0,   1, 186, -116, 4138, 116, 130, 144, 141, ANGLE_MODE, GPS_FIX_HOME|GPS_FIX|SMALL_ANGLE, IDLE, 1, 1
296, 93045659,   2,   0,  -1,   0,   0,   0,   8,  -2,   0,   0,   0,   0, 1000, 1.834, 1012,  -3,   1,   0, 174, -121, 4138, 116, 132, 165, 174, ANGLE_MODE, GPS_FIX_HOME|GPS_FIX|SMALL_ANGLE, IDLE, 1, 1
304, 93049724,   0,   0,   2,   0,   0,   0,  -1,   0,   0,   0,   0,   0, 1000, 1.834, 1012,  -1,   0,  -1, 166, -113, 4138, 131, 120, 117, 125, ANGLE_MODE, GPS_FIX_HOME|GPS_FIX|SMALL_ANGLE, IDLE, 1, 1
312, 93053824,  -1,   0,   0,   0,   0,   0,  -9,   3,   0,   0,   0,   0, 1000, 1.834, 1012,   2,   0,   0, 165, -74, 4132, 178, 161, 131, 117, ANGLE_MODE, GPS_FIX_HOME|GPS_FIX|SMALL_ANGLE, IDLE, 1, 1
320, 93057896,  -1,   0,  -2,   0,   0,   0,  -2,   0,   0,   0,   0,   0, 1000, 1.834, 1012,   1,   0,   1, 168, -67, 4133, 133, 138, 127, 116, ANGLE_MODE, GPS_FIX_HOME|GPS_FIX|SMALL_ANGLE, IDLE, 1, 1
328, 93061979,   2,   0,  -2,   0,   0,   0,  10,  -3,   0,   0,   0,   0, 1000, 1.834, 1012,  -2,   1,   1, 164, -86, 4137, 116, 138, 170, 178, ANGLE_MODE, GPS_FIX_HOME|GPS_FIX|SMALL_ANGLE, IDLE, 1, 1
336, 93066055,   2,   0,   0,   0,   0,   0,   5,  -1,   0,   0,   0,   0, 1000, 1.834, 1012,  -2,   1,   0, 164, -111, 4142, 118, 124, 145, 158, ANGLE_MODE, GPS_FIX_HOME|GPS_FIX|SMALL_ANGLE, IDLE, 1, 1
344, 93070110,   0,   0,   0,   0,   0,   0,  -7,   2,   0,   0,   0,   0, 1000, 1.834, 1012,   0,   0,   0, 168, -96, 4140, 161, 146, 127, 118, ANGLE_MODE, GPS_FIX_HOME|GPS_FIX|SMALL_ANGLE, IDLE, 1, 1
352, 93074157,  -2,   0,   0,   0,   0,   0,  -7,   1,   0,   0,   0,   0, 1000, 1.834, 1012,   2,   0,   0, 174, -80, 4139, 168, 156, 124, 118, ANGLE_MODE, GPS_FIX_HOME|GPS_FIX|SMALL_ANGLE, IDLE, 1, 1
360, 93078221,   0,   0,   0,   0,   0,   0,   2,  -1,   0,   0,   0,   0, 1000, 1.834, 1012,   0,   0,   0, 177, -90, 4142, 116, 125, 129, 132, ANGLE_MODE, GPS_FIX_HOME|GPS_FIX|SMALL_ANGLE, IDLE, 1, 1
368, 93082282,   2,   0,   0,   0,   0,   0,  11,  -2,   0,   0,   0,   0, 1000, 1.834, 1012,  -3,   1,   0, 173, -123, 4144, 116, 131, 174, 187, ANGLE_MODE, GPS_FIX_HOME|GPS_FIX|SMALL_ANGLE, IDLE, 1, 1
376, 93086348,   1,   0,   0,   0,   0,   0,   0,   0,   0,   0,   0,   0, 1000, 1.834, 1012,  -1,   0,   0, 172, -133, 4144, 116, 119, 124, 126, ANGLE_MODE, GPS_FIX_HOME|GPS_FIX|SMALL_ANGLE, IDLE, 1, 1
384, 93090433,  -1,   0,   0,   0,   0,   0, -10,   3,   0,   0,   0,   0, 1000, 1.834, 1002,   2,  -1,   0, 179, -115, 4140, 184, 167, 136, 116, ANGLE_MODE, GPS_FIX_HOME|GPS_FIX|SMALL_ANGLE, IDLE, 1, 1
392, 93094485,  -1,   0,  -2,   0,   0,   0,  -4,   0,   0,   0,   0,   0, 1000, 1.834, 1002,   2,   0,   1, 182, -101, 4140, 144, 149, 129, 116, ANGLE_MODE, GPS_FIX_HOME|GPS_FIX|SMALL_ANGLE, IDLE, 1, 1
400, 93098563,   1,   0,  -1,   0,   0,   0,   8,  -3,   0,   0,   0,   0, 1000, 1.834, 1002,  -2,   1,   0, 179, -121, 4142, 116, 136, 161, 173, ANGLE_MODE, GPS_FIX_HOME|GPS_FIX|SMALL_ANGLE, IDLE, 1, 1
408, 93102622,   2,   0,   1,   0,   0,   0,   9,  -1,   0,   0,   0,   0, 1000, 1.834, 1002,  -3,   1,   0, 177, -146, 4143, 119, 123, 162, 175, ANGLE_MODE, GPS_FIX_HOME|GPS_FIX|SMALL_ANGLE, IDLE, 1, 1
416, 93106694,   0,   0,   0,   0,   0,   0,  -7,   2,   0,   0,   0,   0, 1000, 1.834, 1002,   0,   0,   0, 179, -139, 4140, 159, 146, 127, 117, ANGLE_MODE, GPS_FIX_HOME|GPS_FIX|SMALL_ANGLE, IDLE, 1, 1
424, 93110775,  -1,   0,   0,   0,   0,   0,  -9,   2,   0,   0,   0,   0, 1000, 1.834, 1002,   2,  -1,   0, 187, -108, 4137, 175, 164, 130, 116, ANGLE_MODE, GPS_FIX_HOME|GPS_FIX|SMALL_ANGLE, IDLE, 1, 1
432, 93114813,   0,   0,   0,   0,   0,   0,   2,  -1,   0,   0,   0,   0, 1000, 1.834, 1002,   0,   0,   0, 188, -115, 4139, 116, 126, 128, 135, ANGLE_MODE, GPS_FIX_HOME|GPS_FIX|SMALL_ANGLE, IDLE, 1, 1
440, 93118853,   3,   0,   0,   0,   0,   0,  11,  -2,   0,   0,   0,   0, 1000, 1.834, 1002,  -3,   1,   0, 185, -133, 4142, 117, 131, 176, 191, ANGLE_MODE, GPS_FIX_HOME|GPS_FIX|SMALL_ANGLE, IDLE, 1, 1
448, 93122913,   1,   0,   0,   0,   0,   0,   0,   0,   0,   0,   0,   0, 1000, 1.834, 1002,  -1,   0,   0, 185, -136, 4141, 119, 117, 123, 120, ANGLE_MODE, GPS_FIX_HOME|GPS_FIX|SMALL_ANGLE, IDLE, 1, 1
456, 93126976,  -1,   0,   0,   0,   0,   0, -11,   3,   0,   0,   0,   0, 1000, 1.834, 1002,   2,  -1,   0, 193, -104, 4139, 187, 173, 136, 116, ANGLE_MODE, GPS_FIX_HOME|GPS_FIX|SMALL_ANGLE, IDLE, 1, 1
464, 93131321,  -1,   0,   0,   0,   0,   0,  -2,   0,   0,   0,   0,   0, 1000, 1.834, 1002,   1,   0,   0, 193, -101, 4140, 134, 136, 116, 121, ANGLE_MODE, GPS_FIX_HOME|GPS_FIX|SMALL_ANGLE, IDLE, 1, 1
472, 93135375,   2,   0,   0,   0,   0,   0,  10,  -3,   0,   0,   0,   0, 1000, 1.834, 1002,  -2,   1,   0, 187, -123, 4144, 118, 135, 166, 188, ANGLE_MODE, GPS_FIX_HOME|GPS_FIX|SMALL_ANGLE, IDLE, 1, 1
480, 93139432,   2,   0,   0,   0,   0,   0,   6,   0,   0,   0,   0,   0, 1000, 1.834, 1002,  -2,   1,   0, 185, -144, 4146, 116, 124, 151, 157, ANGLE_MODE, GPS_FIX_HOME|GPS_FIX|SMALL_ANGLE, IDLE, 1, 1
488, 93143529,   0,   0,  -1,   0,   0,   0,  -9,   3,   0,   0,   0,   0, 1000, 1.834, 1002,   1,   0,   0, 189, -126, 4145, 174, 163, 136, 116, ANGLE_MODE, GPS_FIX_HOME|GPS_FIX|SMALL_ANGLE, IDLE, 1, 1
496, 93147589,  -1,   0,   0,   0,   0,   0,  -7,   1,   0,   0,   0,   0, 1000, 1.834, 1002,   2,   0,   0, 194, -106, 4139, 160, 153, 121, 117, ANGLE_MODE, GPS_FIX_HOME|GPS_FIX|SMALL_ANGLE, IDLE, 1, 1
504, 93151653,   0,   0,   1,   0,   0,   0,   6,  -3,   0,   0,   0,   0, 1000, 1.834, 1002,  -1,   1,  -1, 189, -120, 4141, 120, 129, 142, 165, ANGLE_MODE, GPS_FIX_HOME|GPS_FIX|SMALL_ANGLE, IDLE, 1, 1
512, 93155757,   2,  -1,   0,   0,   0,   0,  10,  -2,   0,   0,   0,   0, 1000, 1.834, 1002,  -3,   1,   0, 181, -143, 4142, 116, 129, 169, 182, ANGLE_MODE, GPS_FIX_HOME|GPS_FIX|SMALL_ANGLE, IDLE, 1, 1
520, 93159830,   0,   0,  -2,   0,   0,   0,  -5,   3,   0,   0,   0,   0, 1000, 1.834, 1002,   0,   0,   1, 181, -143, 4142, 149, 144, 136, 116, ANGLE_MODE, GPS_FIX_HOME|GPS_FIX|SMALL_ANGLE, IDLE, 1, 1
528, 93163898,  -2,   0,  -1,   0,   0,   0,  -9,   2,   0,   0,   0,  -1, 1000, 1.834, 1002,   2,  -1,   0, 188, -116, 4137, 175, 168, 135, 116, ANGLE_MODE, GPS_FIX_HOME|GPS_FIX|SMALL_ANGLE, IDLE, 1, 1
536, 93167951,   0,   0,   0,   0,   0,   0,   2,  -2,   0,   0,   0,  -1, 1000, 1.834, 1002,   0,   0,  -1, 185, -118, 4137, 117, 127, 125, 139, ANGLE_MODE, GPS_FIX_HOME|GPS_FIX|SMALL_ANGLE, IDLE, 1, 1
544, 93172002,   2,  -1,   0,   0,   0,   0,  10,  -3,   0,   0,   0,  -1, 1000, 1.834, 1002,  -3,   1,   0, 175, -138, 4140, 116, 134, 170, 185, ANGLE_MODE, GPS_FIX_HOME|GPS_FIX|SMALL_ANGLE, IDLE, 1, 1
552, 93176063,   0,   0,  -2,   0,   0,   0,   0,   1,   0,   0,   0,  -1, 1000, 1.834, 1002,  -1,   0,   0, 173, -149, 4142, 120, 126, 130, 117, ANGLE_MODE, GPS_FIX_HOME|GPS_FIX|SMALL_ANGLE, IDLE, 1, 1
560, 93180121,  -1,   0,  -2,   0,   0,   0,  -9,   3,   0,   0,   0,  -1, 1000, 1.834, 1002,   2,   0,   0, 179, -126, 4139, 172, 166, 137, 116, ANGLE_MODE, GPS_FIX_HOME|GPS_FIX|SMALL_ANGLE, IDLE, 1, 1
568, 93184175,   0,   0,   0,   0,   0,   0,  -1,  -1,   0,   0,   0,  -1, 1000, 1.834, 1002,   1,   0,   0, 180, -115, 4139, 125, 135, 118, 123, ANGLE_MODE, GPS_FIX_HOME|GPS_FIX|SMALL_ANGLE, IDLE, 1, 1
576, 93188243,   1,   0,  -1,   0,   0,   0,   8,  -2,   0,   0,   0,  -1, 1000, 1.834, 1002,  -2,   1,   0, 174, -134, 4141, 116, 134, 158, 169, ANGLE_MODE, GPS_FIX_HOME|GPS_FIX|SMALL_ANGLE, IDLE, 1, 1
584, 93192300,   1,   0,  -3,   0,   0,   0,   3,   0,   0,   0,   0,  -1, 1000, 1.834, 1002,  -1,   0,   1, 172, -149, 4143, 117, 131, 154, 138, ANGLE_MODE, GPS_FIX_HOME|GPS_FIX|SMALL_ANGLE, IDLE, 1, 1
592, 93196353,  -1,   0,  -4,   0,   0,   0,  -8,   3,   0,   0,   0,  -1, 1000, 1.834, 1002,   1,   0,   1, 177, -137, 4143, 164, 167, 141, 116, ANGLE_MODE, GPS_FIX_HOME|GPS_FIX|SMALL_ANGLE, IDLE, 1, 1
600, 93200411,  -1,   0,   0,   0,   0,   0,  -3,   0,   0,   0,   0,  -1, 1000, 1.834, 1002,   1,   0,   0, 184, -117, 4138, 138, 137, 120, 116, ANGLE_MODE, GPS_FIX_HOME|GPS_FIX|SMALL_ANGLE, IDLE, 1, 1
608, 93204467,   0,   0,   1,   0,   0,   0,   6,  -3,   0,   0,   0,  -1, 1000, 1.834, 1002,  -1,   1,  -1, 193, -127, 4135, 120, 130, 142, 164, ANGLE_MODE, GPS_FIX_HOME|GPS_FIX|SMALL_ANGLE, IDLE, 1, 1
616, 93208540,   2,   0,  -2,   0,   0,   0,   6,  -1,   0,   0,   0,  -1, 1000, 1.834, 1002,  -2,   1,   0, 201, -133, 4134, 116, 130, 156, 155, ANGLE_MODE, GPS_FIX_HOME|GPS_FIX|SMALL_ANGLE, IDLE, 1, 1
624, 93212587,   0,   0,  -3,   0,   0,   0,  -6,   3,   0,   0,   0,  -1, 1000, 1.834, 1002,   1,   0,   1, 212, -123, 4131, 150, 152, 138, 116, ANGLE_MODE, GPS_FIX_HOME|GPS_FIX|SMALL_ANGLE, IDLE, 1, 1
632, 93216641,  -1,   0,  -1,   0,   0,   0,  -6,   1,   0,   0,   0,  -1, 1000, 1.834, 1002,   1,   0,   0, 220, -99, 4127, 151, 149, 128, 116, ANGLE_MODE, GPS_FIX_HOME|GPS_FIX|SMALL_ANGLE, IDLE, 1, 1
640, 93220702,   0,   0,   0,   0,   0,   0,   4,  -3,   0,   0,   0,  -1, 1000, 1.834, 1002,  -1,   1,  -1, 215, -106, 4125, 118, 131, 135, 154, ANGLE_MODE, GPS_FIX_HOME|GPS_FIX|SMALL_ANGLE, IDLE, 1, 1
648, 93225053,   2,   0,  -1,   0,   0,   0,   6,  -1,   0,   0,   0,  -1, 1000, 1.834, 1002,  -2,   1,   0, 210, -119, 4126, 116, 129, 157, 158, ANGLE_MODE, GPS_FIX_HOME|GPS_FIX|SMALL_ANGLE, IDLE, 1, 1
656, 93229116,   0,   0,  -3,   0,   0,   0,  -2,   2,   0,   0,   0,  -1, 1000, 1.834, 1002,   0,   0,   1, 209, -123, 4127, 131, 134, 135, 116, ANGLE_MODE, GPS_FIX_HOME|GPS_FIX|SMALL_ANGLE, IDLE, 1, 1
664, 93233186,  -1,   0,  -2,   0,   0,   0,  -7,   2,   0,   0,   0,  -1, 1000, 1.834, 1002,   1,  -1,   0, 210, -103, 4124, 157, 157, 132, 116, ANGLE_MODE, GPS_FIX_HOME|GPS_FIX|SMALL_ANGLE, IDLE, 1, 1
672, 93237263,   0,   0,   0,   0,   0,   0,   1,  -1,   0,   0,   0,  -1, 1000, 1.834, 1002,   0,   0,  -1, 204, -104, 4122, 118, 125, 123, 136, ANGLE_MODE, GPS_FIX_HOME|GPS_FIX|SMALL_ANGLE, IDLE, 1, 1
680, 93241326,   1,  -1,   0,   0,   0,   0,   7,  -2,   0,   0,   0,  -1, 1000, 1.834, 1002,  -2,   1,   0, 196, -124, 4126, 116, 133, 155, 168, ANGLE_MODE, GPS_FIX_HOME|GPS_FIX|SMALL_ANGLE, IDLE, 1, 1
688, 93245382,   0,   0,  -2,   0,   0,   0,   0,   0,   0,   0,   0,  -1, 1000, 1.834, 1002,  -1,   0,   0, 191, -131, 4130, 117, 127, 130, 119, ANGLE_MODE, GPS_FIX_HOME|GPS_FIX|SMALL_ANGLE, IDLE, 1, 1
696, 93249459,  -1,   0,  -4,   0,   0,   0,  -7,   2,   0,   0,   0,  -1, 1000, 1.834, 1002,   1,  -1,   1, 193, -123, 4131, 156, 164, 138, 116, ANGLE_MODE, GPS_FIX_HOME|GPS_FIX|SMALL_ANGLE, IDLE, 1, 1
704, 93253560,   0,   0,  -1,   0,   0,   0,  -1,   0,   0,   0,   0,  -1, 1000, 1.834, 1002,   1,   0,   0, 192, -114, 4130, 122, 135, 119, 120, ANGLE_MODE, GPS_FIX_HOME|GPS_FIX|SMALL_ANGLE, IDLE, 1, 1
712, 93257617,   1,  -1,   0,   0,   0,   0,   6,  -2,   0,   0,   0,  -1, 1000, 1.834, 1002,  -2,   1,  -1, 187, -131, 4132, 118, 131, 148, 168, ANGLE_MODE, GPS_FIX_HOME|GPS_FIX|SMALL_ANGLE, IDLE, 1, 1
720, 93261692,   1,   0,  -1,   0,   0,   0,   3,   0,   0,   0,   0,  -1, 1000, 1.834, 1002,  -1,   0,   0, 185, -140, 4134, 116, 123, 141, 136, ANGLE_MODE, GPS_FIX_HOME|GPS_FIX|SMALL_ANGLE, IDLE, 1, 1
728, 93265752,   0,   0,  -4,   0,   0,   0,  -6,   2,   0,   0,   0,  -1, 1000, 1.834, 1002,   1,   0,   1, 186, -135, 4134, 152, 161, 139, 116, ANGLE_MODE, GPS_FIX_HOME|GPS_FIX|SMALL_ANGLE, IDLE, 1, 1
736, 93269815,  -1,   0,  -3,   0,   0,   0,  -3,   1,   0,   0,   0,  -1, 1000, 1.834, 1002,   1,   0,   1, 180, -132, 4133, 140, 148, 133, 116, ANGLE_MODE, GPS_FIX_HOME|GPS_FIX|SMALL_ANGLE, IDLE, 1, 1
744, 93273873,   0,   0,   0,   0,   0,   0,   4,  -2,   0,   0,   0,  -1, 1000, 1.834, 1002,  -1,   1,  -1, 169, -148, 4136, 117, 131, 135, 150, ANGLE_MODE, GPS_FIX_HOME|GPS_FIX|SMALL_ANGLE, IDLE, 1, 1
752, 93277948,   1,  -1,   0,   0,   0,   0,   6,   0,   0,   0,   0,  -1, 1000, 1.834, 1002,  -2,   1,  -1, 164, -160, 4138, 117, 124, 148, 156, ANGLE_MODE, GPS_FIX_HOME|GPS_FIX|SMALL_ANGLE, IDLE, 1, 1
760, 93282008,   0,   0,  -2,   0,   0,   0,  -3,   2,   0,   0,   0,  -1, 1000, 1.834, 1002,   0,   0,   0, 165, -156, 4139, 134, 138, 133, 116, ANGLE_MODE, GPS_FIX_HOME|GPS_FIX|SMALL_ANGLE, IDLE, 1, 1
768, 93286097,  -1,   0,  -4,   0,   0,   0,  -5,   1,   0,   0,   0,  -1, 1000, 1.834, 1012,   1,   0,   1, 170, -136, 4137, 144, 155, 136, 115, ANGLE_MODE, GPS_FIX_HOME|GPS_FIX|SMALL_ANGLE, IDLE, 1, 1
776, 93290285,   0,   0,  -1,   0,   0,   0,   1,   0,   0,   0,   0,  -1, 1000, 1.834, 1012,   0,   0,   0, 169, -142, 4137, 115, 124, 124, 122, ANGLE_MODE, GPS_FIX_HOME|GPS_FIX|SMALL_ANGLE, IDLE, 1, 1
784, 93294334,   2,   0,   0,   0,   0,   0,   7,  -2,   0,   0,   0,  -1, 1000, 1.834, 1012,  -2,   1,   0, 167, -148, 4139, 115, 127, 156, 165, ANGLE_MODE, GPS_FIX_HOME|GPS_FIX|SMALL_ANGLE, IDLE, 1, 1
792, 93298378,   0,   0,   0,   0,   0,   0,   0,   0,   0,   0,   0,  -1, 1000, 1.834, 1012,  -1,   0,   0, 168, -151, 4139, 116, 118, 121, 118, ANGLE_MODE, GPS_FIX_HOME|GPS_FIX|SMALL_ANGLE, IDLE, 1, 1
800, 93302461,   0,   0,  -4,   0,   0,   0,  -6,   2,   0,   0,   0,  -1, 1000, 1.834, 1012,   1,   0,   1, 172, -127, 4136, 148, 158, 137, 115, ANGLE_MODE, GPS_FIX_HOME|GPS_FIX|SMALL_ANGLE, IDLE, 1, 1
808, 93306639,   0,   0,  -3,   0,   0,   0,  -1,   0,   0,   0,   0,  -1, 1000, 1.834, 1012,   0,   0,   1, 173, -123, 4134, 121, 137, 128, 116, ANGLE_MODE, GPS_FIX_HOME|GPS_FIX|SMALL_ANGLE, IDLE, 1, 1
816, 93310735,   1,   0,   0,   0,   0,   0,   5,  -2,   0,   0,   0,  -1, 1000, 1.834, 1012,  -2,   1,   0, 173, -129, 4136, 115, 127, 146, 155, ANGLE_MODE, GPS_FIX_HOME|GPS_FIX|SMALL_ANGLE, IDLE, 1, 1
824, 93314775,   1,   0,   0,   0,   0,   0,   3,   0,   0,   0,   0,  -1, 1000, 1.834, 1012,  -1,   0,  -1, 172, -140, 4137, 117, 121, 132, 144, ANGLE_MODE, GPS_FIX_HOME|GPS_FIX|SMALL_ANGLE, IDLE, 1, 1
832, 93319088,   0,   0,  -2,   0,   0,   0,  -5,   2,   0,   0,   0,  -1, 1000, 1.834, 1012,   0,   0,   0, 176, -132, 4138, 142, 143, 129, 115, ANGLE_MODE, GPS_FIX_HOME|GPS_FIX|SMALL_ANGLE, IDLE, 1, 1
840, 93323184,   0,   0,  -4,   0,   0,   0,  -3,   0,   0,   0,   0,  -1, 1000, 1.834, 1012,   1,   0,   1, 181, -119, 4136, 134, 152, 136, 115, ANGLE_MODE, GPS_FIX_HOME|GPS_FIX|SMALL_ANGLE, IDLE, 1, 1
848, 93327252,   0,   0,  -2,   0,   0,   0,   2,  -1,   0,   0,   0,  -1, 1000, 1.834, 1012,  -1,   0,   0, 183, -128, 4137, 115, 130, 133, 134, ANGLE_MODE, GPS_FIX_HOME|GPS_FIX|SMALL_ANGLE, IDLE, 1, 1
856, 93331343,   1,  -1,   1,   0,   0,   0,   4,  -1,   0,   0,   0,  -1, 1000, 1.834, 1012,  -1,   1,  -1, 179, -140, 4137, 117, 124, 139, 154, ANGLE_MODE, GPS_FIX_HOME|GPS_FIX|SMALL_ANGLE, IDLE, 1, 1
864, 93335385,   0,   0,   0,   0,   0,   0,  -3,   1,   0,   0,   0,  -1, 1000, 1.834, 1012,   0,   0,   0, 179, -144, 4139, 132, 128, 121, 115, ANGLE_MODE, GPS_FIX_HOME|GPS_FIX|SMALL_ANGLE, IDLE, 1, 1
872, 93339470,  -1,   0,  -4,   0,   0,   0,  -5,   1,   0,   0,   0,  -1, 1000, 1.834, 1012,   1,   0,   1, 181, -127, 4138, 144, 157, 138, 115, ANGLE_MODE, GPS_FIX_HOME|GPS_FIX|SMALL_ANGLE, IDLE, 1, 1
880, 93343524,   0,  -1,  -3,   0,   0,   0,   0,  -1,   0,   0,   0,  -1, 1000, 1.834, 1023,   0,   0,   1, 183, -132, 4138, 115, 140, 131, 126, ANGLE_MODE, GPS_FIX_HOME|GPS_FIX|SMALL_ANGLE, IDLE, 1, 1
888, 93347591,   1,  -1,   0,   0,   0,   0,   5,  -1,   0,   0,   0,  -1, 1000, 1.834, 1023,  -1,   1,   0, 182, -137, 4138, 115, 129, 142, 155, ANGLE_MODE, GPS_FIX_HOME|GPS_FIX|SMALL_ANGLE, IDLE, 1, 1
896, 93351670,   0,   0,   1,   0,   0,   0,   0,   0,   0,   0,   0,  -1, 1000, 1.834, 1023,  -1,   0,  -1, 181, -146, 4139, 121, 116, 117, 125, ANGLE_MODE, GPS_FIX_HOME|GPS_FIX|SMALL_ANGLE, IDLE, 1, 1
904, 93355791,   0,   0,  -2,   0,   0,   0,  -3,   1,   0,   0,   0,  -1, 1000, 1.834, 1023,   1,   0,   0, 181, -128, 4135, 135, 138, 126, 115, ANGLE_MODE, GPS_FIX_HOME|GPS_FIX|SMALL_ANGLE, IDLE, 1, 1
912, 93359870,   0,   0,  -5,   0,   0,   0,  -2,   0,   0,   0,   0,  -1, 1000, 1.834, 1023,   1,   0,   1, 181, -127, 4135, 125, 148, 134, 117, ANGLE_MODE, GPS_FIX_HOME|GPS_FIX|SMALL_ANGLE, IDLE, 1, 1
920, 93363930,   0,  -1,  -3,   0,   0,   0,   4,  -1,   0,   0,   0,  -1, 1000, 1.834, 1023,  -1,   1,   1, 181, -133, 4136, 115, 136, 147, 143, ANGLE_MODE, GPS_FIX_HOME|GPS_FIX|SMALL_ANGLE, IDLE, 1, 1
928, 93368000,   1,  -1,   0,   0,   0,   0,   3,   0,   0,   0,   0,  -1, 1000, 1.834, 1023,  -1,   0,  -1, 178, -141, 4137, 117, 119, 131, 139, ANGLE_MODE, GPS_FIX_HOME|GPS_FIX|SMALL_ANGLE, IDLE, 1, 1
936, 93372179,   0,   0,   1,   0,   0,   0,  -2,   1,   0,   0,   0,  -1, 1000, 1.834, 1023,   0,   0,  -1, 176, -129, 4135, 132, 125, 116, 120, ANGLE_MODE, GPS_FIX_HOME|GPS_FIX|SMALL_ANGLE, IDLE, 1, 1
944, 93376243,   0,   0,  -3,   0,   0,   0,  -3,   1,   0,   0,   0,  -1, 1000, 1.834, 1023,   1,   0,   1, 179, -120, 4134, 135, 145, 133, 115, ANGLE_MODE, GPS_FIX_HOME|GPS_FIX|SMALL_ANGLE, IDLE, 1, 1
952, 93380307,   0,   0,  -5,   0,   0,   0,   1,   0,   0,   0,   0,  -1, 1000, 1.834, 1023,   0,   0,   1, 179, -121, 4135, 115, 138, 141, 124, ANGLE_MODE, GPS_FIX_HOME|GPS_FIX|SMALL_ANGLE, IDLE, 1, 1
960, 93384395,   1,   0,  -1,   0,   0,   0,   5,  -2,   0,   0,   0,  -1, 1000, 1.834, 1023,  -2,   1,   0, 177, -132, 4136, 115, 131, 146, 152, ANGLE_MODE, GPS_FIX_HOME|GPS_FIX|SMALL_ANGLE, IDLE, 1, 1
968, 93388445,   0,   0,   1,   0,   0,   0,  -1,   0,   0,   0,   0,  -1, 1000, 1.834, 1023,  -1,   0,  -1, 177, -131, 4135, 122, 116, 116, 119, ANGLE_MODE, GPS_FIX_HOME|GPS_FIX|SMALL_ANGLE, IDLE, 1, 1
976, 93392511,   0,   0,  -1,   0,   0,   0,  -4,   1,   0,   0,   0,  -1, 1000, 1.834, 1023,   1,   0,   0, 180, -120, 4133, 142, 139, 126, 115, ANGLE_MODE, GPS_FIX_HOME|GPS_FIX|SMALL_ANGLE, IDLE, 1, 1
984, 93396583,   0,   0,  -5,   0,   0,   0,   0,   0,   0,   0,   0,  -1, 1000, 1.834, 1023,   0,   0,   1, 185, -119, 4134, 120, 142, 137, 115, ANGLE_MODE, GPS_FIX_HOME|GPS_FIX|SMALL_ANGLE, IDLE, 1, 1
992, 93400644,   1,   0,  -4,   0,   0,   0,   4,  -2,   0,   0,   0,  -1, 1000, 1.834, 1023,  -1,   1,   1, 186, -130, 4137, 115, 141, 151, 144, ANGLE_MODE, GPS_FIX_HOME|GPS_FIX|SMALL_ANGLE, IDLE, 1, 1
1000, 93404693,   1,   0,   0,   0,   0,   0,   2,   0,   0,   0,   0,  -1, 1000, 1.834, 1023,  -1,   0,  -1, 185, -142, 4141, 118, 117, 129, 135, ANGLE_MODE, GPS_FIX_HOME|GPS_FIX|SMALL_ANGLE, IDLE, 1, 1
1008, 93408753,   0,   0,   1,   0,   0,   0,  -4,   1,   0,   0,   0,  -1, 1000, 1.834, 1023,   0,   0,  -1, 185, -134, 4143, 141, 132, 117, 120, ANGLE_MODE, GPS_FIX_HOME|GPS_FIX|SMALL_ANGLE, IDLE, 1, 1
1016, 93412807,  -1,   0,  -2,   0,   0,   0,  -4,   1,   0,   0,   0,  -1, 1000, 1.834, 1023,   1,   0,   0, 190, -125, 4143, 140, 145, 129, 115, ANGLE_MODE, GPS_FIX_HOME|GPS_FIX|SMALL_ANGLE, IDLE, 1, 1
1024, 93417160,   0,   0,  -5,   0,   0,   0,   1,   0,   0,   0,   0,  -1, 1000, 1.834, 1023,   0,   0,   2, 192, -125, 4145, 116, 142, 146, 127, ANGLE_MODE, GPS_FIX_HOME|GPS_FIX|SMALL_ANGLE, IDLE, 1, 1
1032, 93421235,   1,   0,  -2,   0,   0,   0,   6,  -2,   0,   0,   0,  -1, 1000, 1.834, 1023,  -2,   1,   0, 188, -142, 4148, 116, 134, 153, 153, ANGLE_MODE, GPS_FIX_HOME|GPS_FIX|SMALL_ANGLE, IDLE, 1, 1
1040, 93425308,   0,   0,   1,   0,   0,   0,   0,   0,   0,   0,   0,  -1, 1000, 1.834, 1023,  -1,   0,  -1, 185, -144, 4150, 122, 116, 119, 121, ANGLE_MODE, GPS_FIX_HOME|GPS_FIX|SMALL_ANGLE, IDLE, 1, 1
1048, 93429381,  -1,   0,   0,   0,   0,   0,  -6,   1,   0,   0,   0,  -1, 1000, 1.834, 1023,   1,   0,  -1, 178, -131, 4151, 152, 145, 121, 117, ANGLE_MODE, GPS_FIX_HOME|GPS_FIX|SMALL_ANGLE, IDLE, 1, 1
1056, 93433439,   0,   0,  -4,   0,   0,   0,  -1,   0,   0,   0,   0,  -1, 1000, 1.834, 1023,   1,   0,   1, 177, -123, 4152, 126, 141, 136, 116, ANGLE_MODE, GPS_FIX_HOME|GPS_FIX|SMALL_ANGLE, IDLE, 1, 1
1064, 93437488,   1,   0,  -5,   0,   0,   0,   6,  -1,   0,   0,   0,  -1, 1000, 1.834, 1023,  -1,   1,   1, 173, -135, 4155, 116, 143, 163, 152, ANGLE_MODE, GPS_FIX_HOME|GPS_FIX|SMALL_ANGLE, IDLE, 1, 1
1072, 93441561,   1,   0,   0,   0,   0,   0,   4,  -1,   0,   0,   0,  -1, 1000, 1.834, 1023,  -2,   1,   0, 169, -150, 4159, 116, 125, 143, 150, ANGLE_MODE, GPS_FIX_HOME|GPS_FIX|SMALL_ANGLE, IDLE, 1, 1
1080, 93445624,   0,   0,   1,   0,   0,   0,  -4,   1,   0,   0,   0,  -1, 1000, 1.834, 1023,   0,   0,  -1, 167, -137, 4157, 146, 132, 120, 120, ANGLE_MODE, GPS_FIX_HOME|GPS_FIX|SMALL_ANGLE, IDLE, 1, 1
1088, 93449677,  -1,   0,  -2,   0,   0,   0,  -6,   2,   0,   0,   0,  -1, 1000, 1.834, 1023,   2,   0,   0, 170, -121, 4153, 156, 155, 130, 116, ANGLE_MODE, GPS_FIX_HOME|GPS_FIX|SMALL_ANGLE, IDLE, 1, 1
1096, 93453780,   0,   0,  -6,   0,   0,   0,   2,   0,   0,   0,   0,  -1, 1000, 1.834, 1023,   0,   0,   2, 172, -119, 4151, 116, 145, 152, 130, ANGLE_MODE, GPS_FIX_HOME|GPS_FIX|SMALL_ANGLE, IDLE, 1, 1
1104, 93457931,   2,   0,  -1,   0,   0,   0,   7,  -1,   0,   0,   0,   0, 1000, 1.834, 1023,  -2,   1,   1, 171, -138, 4151, 116, 129, 161, 164, ANGLE_MODE, GPS_FIX_HOME|GPS_FIX|SMALL_ANGLE, IDLE, 1, 1
1112, 93461984,   1,   0,   3,   0,   0,   0,   0,   0,   0,   0,   0,   0, 1000, 1.834, 1023,  -1,   0,  -1, 168, -146, 4149, 129, 118, 125, 143, ANGLE_MODE, GPS_FIX_HOME|GPS_FIX|SMALL_ANGLE, IDLE, 1, 1
1120, 93466076,  -1,   0,   2,   0,   0,   0,  -8,   2,   0,   0,   0,   0, 1000, 1.834, 1023,   1,   0,  -1, 173, -133, 4142, 173, 153, 123, 121, ANGLE_MODE, GPS_FIX_HOME|GPS_FIX|SMALL_ANGLE, IDLE, 1, 1
1128, 93470135,  -1,   0,  -3,   0,   0,   0,  -4,   1,   0,   0,   0,   0, 1000, 1.834, 1023,   1,   0,   1, 179, -115, 4139, 142, 151, 133, 116, ANGLE_MODE, GPS_FIX_HOME|GPS_FIX|SMALL_ANGLE, IDLE, 1, 1
1136, 93474195,   1,   0,  -4,   0,   0,   0,   7,  -2,   0,   0,   0,   0, 1000, 1.834, 1023,  -1,   1,   2, 181, -123, 4139, 116, 143, 165, 157, ANGLE_MODE, GPS_FIX_HOME|GPS_FIX|SMALL_ANGLE, IDLE, 1, 1
1144, 93478288,   2,   0,   1,   0,   0,   0,   7,  -1,   0,   0,   0,   0, 1000, 1.834, 1023,  -3,   1,   0, 179, -147, 4143, 119, 123, 155, 168, ANGLE_MODE, GPS_FIX_HOME|GPS_FIX|SMALL_ANGLE, IDLE, 1, 1
1152, 93482356,   0,   0,   3,   0,   0,   0,  -4,   0,   0,   0,   0,   0, 1000, 1.834, 1023,   0,   0,  -1, 177, -147, 4142, 147, 133, 117, 129, ANGLE_MODE, GPS_FIX_HOME|GPS_FIX|SMALL_ANGLE, IDLE, 1, 1
1160, 93486446,  -2,   2,   0,   0,   0,   0, -10,  13,   0,   0,   3,   0, 1000, 1.834, 1023,   2,   0,   0, 185, -118, 4136, 234, 168, 180, 117, ANGLE_MODE, GPS_FIX_HOME|GPS_FIX|SMALL_ANGLE, IDLE, 1, 1
1168, 93490515,   0,   4,  -5,   0,   0,   0,   1,   1,   0,   0,   7,   0, 1000, 1.834, 1023,   1,   0,   2, 186, -111, 4136, 140, 139, 166, 117, ANGLE_MODE, GPS_FIX_HOME|GPS_FIX|SMALL_ANGLE, IDLE, 1, 1
1176, 93494568,   2,   4,  -5,   0,   0,   0,  11,  -1,   0,   0,   7,   0, 1000, 1.834, 1023,  -3,   1,   2, 181, -138, 4143, 121, 136, 203, 169, ANGLE_MODE, GPS_FIX_HOME|GPS_FIX|SMALL_ANGLE, IDLE, 1, 1
1184, 93498634,   2,   4,   1,   0,   0,   0,   4,   0,   0,   0,   7,   0, 1000, 1.834, 1023,  -3,   1,  -1, 180, -151, 4142, 134, 116, 155, 148, ANGLE_MODE, GPS_FIX_HOME|GPS_FIX|SMALL_ANGLE, IDLE, 1, 1
1192, 93502700,   0,   5,   5,   0,   0,   0,  -9,   2,   0,   0,   7,   0, 1000, 1.834, 1023,   1,   0,  -2, 180, -134, 4136, 201, 148, 138, 127, ANGLE_MODE, GPS_FIX_HOME|GPS_FIX|SMALL_ANGLE, IDLE, 1, 1
1200, 93506769,  -2,   7,   1,   0,   0,   0,  -9,  11,   0,   0,  12,   0, 1000, 1.834, 1023,   2,   0,   0, 184, -106, 4135, 243, 160, 191, 119, ANGLE_MODE, GPS_FIX_HOME|GPS_FIX|SMALL_ANGLE, IDLE, 1, 1
1208, 93511090,   0,   9,  -4,   0,   0,   0,   6,   0,   0,   0,  16,   1, 1000, 1.834, 1023,  -1,   1,   2, 177, -106, 4144, 145, 126, 191, 135, ANGLE_MODE, GPS_FIX_HOME|GPS_FIX|SMALL_ANGLE, IDLE, 1, 1
1216, 93515142,   3,   9,  -1,   0,   0,   0,  12,   0,   0,   0,  16,   1, 1000, 1.834, 1023,  -4,   1,   1, 173, -119, 4150, 153, 120, 225, 178, ANGLE_MODE, GPS_FIX_HOME|GPS_FIX|SMALL_ANGLE, IDLE, 1, 1
1224, 93519197,   1,  10,   5,   0,   0,   0,  -2,   1,   0,   0,  16,   1, 1000, 1.834, 1023,  -1,   0,  -1, 170, -114, 4149, 193, 120, 163, 137, ANGLE_MODE, GPS_FIX_HOME|GPS_FIX|SMALL_ANGLE, IDLE, 1, 1
1232, 93523276,  -1,  10,   4,   0,   0,   0, -11,   2,   0,   0,  17,   1, 1000, 1.834, 1023,   2,   0,  -1, 176, -83, 4149, 231, 158, 160, 126, ANGLE_MODE, GPS_FIX_HOME|GPS_FIX|SMALL_ANGLE, IDLE, 1, 1
1240, 93527346,  -1,  11,   0,   0,   0,   0,  -4,   1,   0,   0,  18,   1, 1000, 1.834, 1023,   2,   0,   0, 178, -70, 4150, 192, 140, 168, 117, ANGLE_MODE, GPS_FIX_HOME|GPS_FIX|SMALL_ANGLE, IDLE, 1, 1
1248, 93531411,   1,  11,   0,   0,   0,   0,  10,  -1,   0,   0,  18,   1, 1000, 1.834, 1023,  -2,   1,   1, 174, -92, 4153, 158, 117, 206, 164, ANGLE_MODE, GPS_FIX_HOME|GPS_FIX|SMALL_ANGLE, IDLE, 1, 1
1256, 93535470,   2,  11,   3,   0,   0,   0,   7,   0,   0,   0,  18,   1, 1000, 1.834, 1023,  -2,   0,  -1, 174, -122, 4151, 176, 116, 199, 163, ANGLE_MODE, GPS_FIX_HOME|GPS_FIX|SMALL_ANGLE, IDLE, 1, 1
1264, 93539542,   0,  13,   6,   0,   0,   0,  -7,   9,   0,   0,  22,   3, 1000, 1.834, 1023,   1,   0,  -1, 177, -111, 4149, 257, 138, 197, 129, ANGLE_MODE, GPS_FIX_HOME|GPS_FIX|SMALL_ANGLE, IDLE, 1, 1
1272, 93543624,  -2,  15,   0,   0,   1,   0,  -9,   0,   0,   0,  25,   3, 1009, 1.834, 1023,   2,   0,   2, 181, -92, 4145, 234, 162, 186, 117, ANGLE_MODE, GPS_FIX_HOME|GPS_FIX|SMALL_ANGLE, IDLE, 1, 1
1280, 93547684,   0,  15,  -1,   0,   2,   0,   4,   0,   0,   0,  25,   3, 1009, 1.834, 1023,   0,   0,   2, 182, -105, 4148, 187, 119, 210, 129, ANGLE_MODE, GPS_FIX_HOME|GPS_FIX|SMALL_ANGLE, IDLE, 1, 1
1288, 93551749,   2,  17,   5,   0,   2,   0,   9,   9,   0,   0,  28,   3, 1010, 1.834, 1023,  -2,   1,   0, 184, -134, 4150, 244, 115, 271, 176, ANGLE_MODE, GPS_FIX_HOME|GPS_FIX|SMALL_ANGLE, IDLE, 1, 1
1296, 93555806,   1,  20,  10,   0,   3,   0,   0,  10,   0,   0,  33,   3, 1010, 1.834, 1023,  -1,   1,  -2, 180, -137, 4147, 295, 115, 256, 161, ANGLE_MODE, GPS_FIX_HOME|GPS_FIX|SMALL_ANGLE, IDLE, 1, 1
1304, 93559891,  -1,  21,   9,   0,   4,   0, -10,   1,   0,   0,  34,   3, 1017, 1.834, 1023,   2,   0,  -2, 184, -116, 4142, 298, 147, 206, 136, ANGLE_MODE, GPS_FIX_HOME|GPS_FIX|SMALL_ANGLE, IDLE, 1, 1
1312, 93563949,   0,  21,   1,   0,   5,   0,  -1,  10,   0,   0,  35,   3, 1026, 1.826, 1023,   1,   0,   1, 190, -109, 4140, 282, 122, 265, 119, ANGLE_MODE, GPS_FIX_HOME|GPS_FIX|SMALL_ANGLE, IDLE, 1, 1
1320, 93568030,   1,  23,   1,   0,   6,   0,  10,   7,   0,   0,  40,   3, 1026, 1.826, 1023,  -2,   1,   1, 191, -134, 4147, 271, 115, 312, 167, ANGLE_MODE, GPS_FIX_HOME|GPS_FIX|SMALL_ANGLE, IDLE, 1, 1
1328, 93572096,   1,  25,   7,   0,   8,   0,   2,   0,   0,   0,  42,   3, 1034, 1.826, 1023,  -1,   1,  -1, 184, -148, 4148, 272, 115, 255, 155, ANGLE_MODE, GPS_FIX_HOME|GPS_FIX|SMALL_ANGLE, IDLE, 1, 1
1336, 93576161,  -1,  26,   8,   0,   9,   0,  -9,   4,   0,   0,  42,   3, 1034, 1.826, 1023,   2,   0,  -1, 187, -139, 4140, 343, 140, 262, 134, ANGLE_MODE, GPS_FIX_HOME|GPS_FIX|SMALL_ANGLE, IDLE, 1, 1
1344, 93580232,  -2,  27,   2,   0,  10,   0,  -6,   2,   0,   0,  43,   3, 1034, 1.826, 1023,   3,   1,   1, 193, -118, 4135, 324, 147, 270, 123, ANGLE_MODE, GPS_FIX_HOME|GPS_FIX|SMALL_ANGLE, IDLE, 1, 1
1352, 93584295,   0,  26,  -2,   0,  12,   0,   5,   4,   0,   0,  46,   3, 1045, 1.826, 1023,   0,   2,   2, 202, -122, 4145, 287, 119, 313, 132, ANGLE_MODE, GPS_FIX_HOME|GPS_FIX|SMALL_ANGLE, IDLE, 1, 1
1360, 93588363,   1,  29,   0,   0,  13,   0,  10,   7,   0,   0,  50,   3, 1045, 1.826, 1023,  -2,   2,   1, 251, -131, 4140, 320, 115, 363, 167, ANGLE_MODE, GPS_FIX_HOME|GPS_FIX|SMALL_ANGLE, IDLE, 1, 1
1368, 93592430,   0,  31,  11,   0,  15,   0,  -4,   4,   0,   0,  52,   3, 1045, 1.826, 1023,   1,   1,  -2, 277, -111, 4141, 379, 126, 311, 153, ANGLE_MODE, GPS_FIX_HOME|GPS_FIX|SMALL_ANGLE, IDLE, 1, 1
1376, 93596491,  -3,  31,   7,   0,  16,   0, -11,   2,   0,   0,  54,   3, 1045, 1.826, 1023,   3,   2,  -1, 298, -91, 4140, 399, 157, 304, 133, ANGLE_MODE, GPS_FIX_HOME|GPS_FIX|SMALL_ANGLE, IDLE, 1, 1
1384, 93600813,  -2,  33,   0,   0,  18,   1,   0,   5,   0,   0,  58,   3, 1045, 1.826, 1023,   3,   3,   2, 311, -81, 4145, 356, 128, 343, 116, ANGLE_MODE, GPS_FIX_HOME|GPS_FIX|SMALL_ANGLE, IDLE, 1, 1
1392, 93604892,   0,  34,   0,   0,  19,   1,   4,  -2,   0,   0,  60,   4, 1056, 1.826, 1023,   1,   4,   2, 317, -110, 4147, 323, 115, 330, 131, ANGLE_MODE, GPS_FIX_HOME|GPS_FIX|SMALL_ANGLE, IDLE, 1, 1
1400, 93608952,   0,  34,   6,   0,  21,   1,   6,   1,   0,   0,  60,   4, 1056, 1.826, 1023,   0,   4,   0, 314, -123, 4147, 363, 115, 357, 157, ANGLE_MODE, GPS_FIX_HOME|GPS_FIX|SMALL_ANGLE, IDLE, 1, 1
1408, 93613046,  -3,  34,   7,   0,  23,   1,  -8,   0,   0,   0,  60,   4, 1056, 1.826, 1023,   3,   4,  -1, 318, -133, 4145, 411, 146, 325, 134, ANGLE_MODE, GPS_FIX_HOME|GPS_FIX|SMALL_ANGLE, IDLE, 1, 1
1416, 93617105,  -4,  33,   8,   0,  24,   1,  -6,   7,   0,   0,  62,   5, 1065, 1.826, 1023,   4,   5,   0, 322, -121, 4155, 447, 142, 360, 136, ANGLE_MODE, GPS_FIX_HOME|GPS_FIX|SMALL_ANGLE, IDLE, 1, 1
1424, 93621180,  -4,  34,   7,   0,  26,   1,  -1,   4,   0,   0,  66,   5, 1065, 1.826, 1023,   4,   7,   0, 314, -123, 4160, 426, 129, 364, 138, ANGLE_MODE, GPS_FIX_HOME|GPS_FIX|SMALL_ANGLE, IDLE, 1, 1
1432, 93625298,  -1,  35,   3,  -1,  28,   1,   7,  -3,   0,   0,  69,   5, 1074, 1.826, 1023,   2,   8,   2, 314, -142, 4167, 369, 115, 368, 144, ANGLE_MODE, GPS_FIX_HOME|GPS_FIX|SMALL_ANGLE, IDLE, 1, 1
1440, 93629375,   0,  34,   6,  -1,  30,   1,   5,  -2,   0,   0,  69,   5, 1074, 1.826, 1023,   1,  10,   0, 318, -161, 4172, 391, 115, 374, 156, ANGLE_MODE, GPS_FIX_HOME|GPS_FIX|SMALL_ANGLE, IDLE, 1, 1
1448, 93633438,  -2,  34,  12,  -1,  31,   1,  -2,  -1,   0,   0,  69,   7, 1074, 1.826, 1023,   2,  10,   0, 345, -161, 4175, 441, 128, 360, 158, ANGLE_MODE, GPS_FIX_HOME|GPS_FIX|SMALL_ANGLE, IDLE, 1, 1
1456, 93637502,  -4,  31,  14,  -1,  33,   1,  -6,  -7,   0,   0,  69,   7, 1084, 1.826, 1023,   4,  13,  -1, 347, -159, 4182, 435, 140, 318, 158, ANGLE_MODE, GPS_FIX_HOME|GPS_FIX|SMALL_ANGLE, IDLE, 1, 1
1464, 93641568,  -4,  28,   8,  -1,  34,   2,  -1,  -8,   0,   0,  69,   7, 1084, 1.834, 1023,   4,  15,   1, 363, -147, 4185, 397, 131, 322, 143, ANGLE_MODE, GPS_FIX_HOME|GPS_FIX|SMALL_ANGLE, IDLE, 1, 1
1472, 93645668,  -4,  26,   8,  -1,  36,   2,  -1,  -9,   0,   0,  69,   7, 1086, 1.834, 1023,   5,  18,   1, 358, -137, 4205, 391, 132, 314, 144, ANGLE_MODE, GPS_FIX_HOME|GPS_FIX|SMALL_ANGLE, IDLE, 1, 1
1480, 93649723,  -3,  25,   6,  -1,  37,   2,   1,  -3,   0,   0,  69,   7, 1086, 1.834, 1023,   4,  19,   1, 398, -143, 4200, 397, 123, 345, 144, ANGLE_MODE, GPS_FIX_HOME|GPS_FIX|SMALL_ANGLE, IDLE, 1, 1
1488, 93653777,  -2,  23,  14,  -2,  38,   2,   5,  -6,   0,   0,  69,   7, 1093, 1.834, 1023,   3,  21,  -1, 406, -141, 4213, 407, 115, 341, 185, ANGLE_MODE, GPS_FIX_HOME|GPS_FIX|SMALL_ANGLE, IDLE, 1, 1
1496, 93657876,  -2,  20,  14,  -2,  39,   2,   0,  -8,   0,   0,  69,   8, 1101, 1.834, 1023,   3,  24,  -1, 436, -153, 4209, 406, 126, 315, 176, ANGLE_MODE, GPS_FIX_HOME|GPS_FIX|SMALL_ANGLE, IDLE, 1, 1
1504, 93661949,  -3,  18,  13,  -2,  40,   2,  -1,  -8,   0,   0,  69,   8, 1101, 1.826, 1023,   3,  26,   0, 430, -136, 4228, 397, 129, 305, 167, ANGLE_MODE, GPS_FIX_HOME|GPS_FIX|SMALL_ANGLE, IDLE, 1, 1
1512, 93666008,  -4,  16,  12,  -2,  41,   3,  -4,  -7,   0,   0,  69,   8, 1102, 1.826, 1023,   5,  28,   0, 453, -129, 4226, 408, 139, 297, 157, ANGLE_MODE, GPS_FIX_HOME|GPS_FIX|SMALL_ANGLE, IDLE, 1, 1
1520, 93670101,  -4,  15,  15,  -2,  42,   3,  -1,  -2,   0,   0,  69,   8, 1110, 1.826, 1023,   5,  29,  -1, 461, -120, 4230, 430, 134, 318, 173, ANGLE_MODE, GPS_FIX_HOME|GPS_FIX|SMALL_ANGLE, IDLE, 1, 1
1528, 93674164,  -3,  13,  16,  -3,  43,   3,   3,  -7,   0,   0,  69,   8, 1110, 1.826, 1023,   3,  31,  -1, 476, -143, 4222, 399, 121, 306, 190, ANGLE_MODE, GPS_FIX_HOME|GPS_FIX|SMALL_ANGLE, IDLE, 1, 1
1536, 93678227,  -2,   9,  15,  -3,  43,   3,   3, -12,   0,   0,  69,  10, 1120, 1.826, 1023,   3,  35,   0, 459, -159, 4240, 383, 142, 294, 211, ANGLE_MODE, GPS_FIX_HOME|GPS_FIX|SMALL_ANGLE, IDLE, 1, 1
1544, 93682299,  -3,   7,  11,  -3,  43,   4,  -4,  -6,   0,   0,  69,  10, 1120, 1.826, 1023,   4,  37,   1, 473, -167, 4241, 403, 158, 294, 176, ANGLE_MODE, GPS_FIX_HOME|GPS_FIX|SMALL_ANGLE, IDLE, 1, 1
1552, 93686640,  -3,   6,  13,  -3,  44,   4,   1,  -5,   0,   0,  69,  10, 1128, 1.826, 1023,   3,  38,   1, 462, -159, 4245, 412, 159, 316, 209, ANGLE_MODE, GPS_FIX_HOME|GPS_FIX|SMALL_ANGLE, IDLE, 1, 1
1560, 93690707,  -3,   3,  13,  -3,  44,   4,   0,  -6,   0,   0,  69,  10, 1128, 1.826, 1023,   4,  41,   1, 472, -176, 4231, 410, 169, 305, 212, ANGLE_MODE, GPS_FIX_HOME|GPS_FIX|SMALL_ANGLE, IDLE, 1, 1
1568, 93694756,  -3,   0,   8,  -3,  44,   4,   0, -11,   0,   0,  69,  10, 1128, 1.826, 1023,   4,  44,   2, 442, -165, 4240, 382, 193, 301, 221, ANGLE_MODE, GPS_FIX_HOME|GPS_FIX|SMALL_ANGLE, IDLE, 1, 1
1576, 93698827,  -4,  -1,   8,  -4,  44,   4,  -2,  -9,   0,   0,  69,  12, 1142, 1.826, 1023,   5,  46,   3, 447, -161, 4238, 420, 231, 319, 240, ANGLE_MODE, GPS_FIX_HOME|GPS_FIX|SMALL_ANGLE, IDLE, 1, 1
1584, 93702895,  -4,  -3,  18,  -4,  44,   5,  -2,  -2,   0,   0,  69,  12, 1142, 1.826, 1023,   5,  48,   0, 436, -155, 4243, 451, 200, 311, 248, ANGLE_MODE, GPS_FIX_HOME|GPS_FIX|SMALL_ANGLE, IDLE, 1, 1
1592, 93707008,  -2,  -5,  14,  -4,  44,   5,   5,  -9,   0,   0,  69,  12, 1151, 1.826, 1023,   3,  50,   1, 436, -148, 4228, 423, 227, 335, 299, ANGLE_MODE, GPS_FIX_HOME|GPS_FIX|SMALL_ANGLE, IDLE, 1, 1
1600, 93711081,  -3,  -9,   5,  -4,  43,   5,   1,  -9,   0,   0,  69,  13, 1151, 1.826, 1023,   4,  54,   5, 417, -147, 4234, 407, 261, 336, 280, ANGLE_MODE, GPS_FIX_HOME|GPS_FIX|SMALL_ANGLE, IDLE, 1, 1
1608, 93715126,  -4, -10,   4,  -4,  43,   5,  -6,  -5,   0,   0,  69,  13, 1151, 1.826, 1023,   5,  54,   5, 416, -140, 4229, 429, 279, 322, 252, ANGLE_MODE, GPS_FIX_HOME|GPS_FIX|SMALL_ANGLE, IDLE, 1, 1
1616, 93719170,  -3, -13,  15,  -5,  42,   5,   3,  -7,   0,   0,  69,  13, 1160, 1.826, 1023,   3,  57,   2, 398, -137, 4234, 433, 262, 333, 328, ANGLE_MODE, GPS_FIX_HOME|GPS_FIX|SMALL_ANGLE, IDLE, 1, 1
1624, 93723249,  -3, -15,   9,  -5,  42,   5,   1,  -8,   0,   0,  68,  13, 1167, 1.826, 1023,   4,  59,   4, 394, -133, 4209, 423, 285, 331, 318, ANGLE_MODE, GPS_FIX_HOME|GPS_FIX|SMALL_ANGLE, IDLE, 1, 1
1632, 93727316,  -4, -20,  11,  -5,  41,   6,  -3, -17,   0,   0,  63,  13, 1167, 1.826, 1023,   4,  61,   3, 357, -113, 4229, 423, 336, 299, 355, ANGLE_MODE, GPS_FIX_HOME|GPS_FIX|SMALL_ANGLE, IDLE, 1, 1
1640, 93731387,  -3, -25,  10,  -5,  40,   6,   2, -10,   0,   0,  60,  14, 1168, 1.826, 1023,   3,  64,   4, 271, -108, 4267, 409, 328, 317, 367, ANGLE_MODE, GPS_FIX_HOME|GPS_FIX|SMALL_ANGLE, IDLE, 1, 1
1648, 93735439,  -3, -26,  12,  -5,  38,   6,   2,  -5,   0,   0,  58,  14, 1168, 1.826, 1023,   3,  64,   3, 220, -96, 4284, 420, 316, 319, 366, ANGLE_MODE, GPS_FIX_HOME|GPS_FIX|SMALL_ANGLE, IDLE, 1, 1
1656, 93739492,  -3, -28,   6,  -5,  37,   6,  -1,  -7,   0,   0,  58,  14, 1177, 1.826, 1023,   3,  66,   5, 174, -82, 4289, 423, 368, 328, 375, ANGLE_MODE, GPS_FIX_HOME|GPS_FIX|SMALL_ANGLE, IDLE, 1, 1
1664, 93743557,  -2, -29,   6,  -6,  35,   6,   0,  -1,   0,   0,  57,  14, 1187, 1.817, 1023,   3,  67,   5, 138, -85, 4285, 446, 375, 361, 394, ANGLE_MODE, GPS_FIX_HOME|GPS_FIX|SMALL_ANGLE, IDLE, 1, 1
1672, 93747615,  -2, -33,   3,  -6,  34,   6,   2, -13,   0,   0,  53,  14, 1187, 1.817, 1023,   2,  67,   6, 105, -74, 4277, 403, 411, 336, 426, ANGLE_MODE, GPS_FIX_HOME|GPS_FIX|SMALL_ANGLE, IDLE, 1, 1
1680, 93751679,  -2, -36,   9,  -6,  32,   6,   1,  -5,   0,   0,  50,  16, 1187, 1.817, 1023,   2,  69,   6,  86, -63, 4279, 420, 397, 327, 431, ANGLE_MODE, GPS_FIX_HOME|GPS_FIX|SMALL_ANGLE, IDLE, 1, 1
1688, 93755735,  -1, -37,   5,  -6,  30,   6,   2,  -1,   0,   0,  50,  16, 1187, 1.817, 1023,   1,  70,   7,  57, -76, 4253, 411, 396, 344, 426, ANGLE_MODE, GPS_FIX_HOME|GPS_FIX|SMALL_ANGLE, IDLE, 1, 1
1696, 93759835,  -1, -38,   4,  -6,  28,   6,   1,  -7,   0,   0,  49,  16, 1196, 1.817, 1023,   1,  70,   7,  37, -56, 4237, 414, 435, 344, 456, ANGLE_MODE, GPS_FIX_HOME|GPS_FIX|SMALL_ANGLE, IDLE, 1, 1
1704, 93763898,   0, -41,  -3,  -6,  26,   6,   0,  -9,   0,   0,  47,  16, 1197, 1.817, 1023,   1,  72,  10,   5, -69, 4211, 387, 472, 343, 454, ANGLE_MODE, GPS_FIX_HOME|GPS_FIX|SMALL_ANGLE, IDLE, 1, 1
1712, 93767966,   0, -42,   1,  -6,  24,   6,   2,  -8,   0,   0,  43,  16, 1197, 1.817, 1023,   0,  70,   8,  -7, -64, 4193, 387, 457, 339, 474, ANGLE_MODE, GPS_FIX_HOME|GPS_FIX|SMALL_ANGLE, IDLE, 1, 1
1720, 93772043,   0, -45,  -3,  -6,  22,   6,   1,  -4,   0,   0,  41,  16, 1208, 1.817, 1023,  -1,  72,  10, -58, -37, 4185, 399, 490, 368, 489, ANGLE_MODE, GPS_FIX_HOME|GPS_FIX|SMALL_ANGLE, IDLE, 1, 1
1728, 93776114,   0, -43,  -4,  -6,  20,   6,   1,   6,   0,   0,  41,  16, 1208, 1.817, 1023,  -1,  70,  10, -38, -55, 4156, 417, 473, 390, 466, ANGLE_MODE, GPS_FIX_HOME|GPS_FIX|SMALL_ANGLE, IDLE, 1, 1
1736, 93780428,   2, -43,   9,  -6,  18,   7,   4,  -9,   0,   0,  36,  25, 1208, 1.808, 1023,  -3,  68,  10, -88, -26, 4164, 396, 472, 335, 543, ANGLE_MODE, GPS_FIX_HOME|GPS_FIX|SMALL_ANGLE, IDLE, 1, 1
1744, 93784494,   3, -47,   3,  -6,  16,   7,   1,   0,   0,   0,  33,  25, 1216, 1.808, 1023,  -3,  69,  12, -90, -21, 4123, 415, 496, 368, 532, ANGLE_MODE, GPS_FIX_HOME|GPS_FIX|SMALL_ANGLE, IDLE, 1, 1
1752, 93788608,   3, -43,  -8,  -6,  13,   7,   6,   6,   0,   0,  32,  25, 1216, 1.808, 1023,  -4,  64,  16, -129, -35, 4150, 397, 493, 416, 506, ANGLE_MODE, GPS_FIX_HOME|GPS_FIX|SMALL_ANGLE, IDLE, 1, 1
1760, 93792693,   5, -44,  -9,  -5,  11,   7,   0,   1,   0,   0,  32,  25, 1224, 1.808, 1023,  -5,  65,  17, -172, -17, 4137, 402, 538, 408, 528, ANGLE_MODE, GPS_FIX_HOME|GPS_FIX|SMALL_ANGLE, IDLE, 1, 1
1768, 93796755,   5, -40,  -9,  -5,   9,   6,   4,  15,   0,   0,  32,  25, 1230, 1.808, 1023,  -6,  61,  17, -200, -48, 4149, 424, 494, 454, 504, ANGLE_MODE, GPS_FIX_HOME|GPS_FIX|SMALL_ANGLE, IDLE, 1, 1
1776, 93800821,   6, -35,  -2,  -5,   7,   6,   2,   6,   0,   0,  32,  25, 1230, 1.808, 1023,  -6,  56,  15, -220, -66, 4208, 438, 508, 438, 541, ANGLE_MODE, GPS_FIX_HOME|GPS_FIX|SMALL_ANGLE, IDLE, 1, 1
1784, 93804910,   7, -33,   0,  -4,   6,   6,   1,  14,   0,   0,  31,  25, 1231, 1.808, 1023,  -7,  54,  13, -223, -83, 4233, 465, 489, 448, 532, ANGLE_MODE, GPS_FIX_HOME|GPS_FIX|SMALL_ANGLE, IDLE, 1, 1
1792, 93808998,   6, -25,  -7,  -4,   4,   6,  -1,  16,   0,   0,  30,  25, 1231, 1.808, 1023,  -7,  45,  16, -226, -94, 4260, 471, 492, 479, 492, ANGLE_MODE, GPS_FIX_HOME|GPS_FIX|SMALL_ANGLE, IDLE, 1, 1
1800, 93813046,   5, -23,   1,  -4,   3,   6,   0,  12,   0,   0,  29,  26, 1242, 1.808, 1023,  -6,  42,  14, -215, -60, 4279, 505, 504, 475, 538, ANGLE_MODE, GPS_FIX_HOME|GPS_FIX|SMALL_ANGLE, IDLE, 1, 1
1808, 93817119,   6, -21,  -2,  -3,   2,   6,   1,  14,   0,   0,  28,  27, 1242, 1.808, 1023,  -7,  40,  15, -228, -72, 4308, 496, 497, 497, 533, ANGLE_MODE, GPS_FIX_HOME|GPS_FIX|SMALL_ANGLE, IDLE, 1, 1
1816, 93821189,   8, -20,  -4,  -3,   1,   6,   2,  -5,   0,   0,  24,  27, 1242, 1.799, 1023,  -8,  37,  16, -210, -77, 4358, 446, 535, 467, 575, ANGLE_MODE, GPS_FIX_HOME|GPS_FIX|SMALL_ANGLE, IDLE, 1, 1
1824, 93825265,   7, -20,  -2,  -3,   0,   6,   2,   9,   0,   0,  22,  27, 1252, 1.799, 1023,  -8,  35,  16, -228, -87, 4406, 498, 524, 511, 571, ANGLE_MODE, GPS_FIX_HOME|GPS_FIX|SMALL_ANGLE, IDLE, 1, 1
1832, 93829348,   8, -12,  -7,  -2,   0,   6,   0,  16,   0,   0,  22,  27, 1252, 1.799, 1023,  -9,  27,  17, -238, -97, 4444, 520, 508, 546, 530, ANGLE_MODE, GPS_FIX_HOME|GPS_FIX|SMALL_ANGLE, IDLE, 1, 1
1840, 93833406,   7,  -9,  -6,  -2,  -1,   6,  -2,  14,   0,   0,  22,  27, 1252, 1.799, 1023,  -7,  24,  17, -186, -81, 4491, 527, 514, 540, 523, ANGLE_MODE, GPS_FIX_HOME|GPS_FIX|SMALL_ANGLE, IDLE, 1, 1
1848, 93837471,   4,  -3,  -5,  -1,  -1,   6,  -5,  22,   0,   0,  22,  27, 1263, 1.799, 1023,  -5,  18,  16, -165, -87, 4553, 591, 515, 576, 511, ANGLE_MODE, GPS_FIX_HOME|GPS_FIX|SMALL_ANGLE, IDLE, 1, 1
1856, 93841529,   5,   0,  -1,  -1,  -1,   6,  -5,  10,   0,   0,  22,  27, 1263, 1.808, 1023,  -6,  14,  15, -144, -96, 4612, 579, 523, 555, 537, ANGLE_MODE, GPS_FIX_HOME|GPS_FIX|SMALL_ANGLE, IDLE, 1, 1
1864, 93845614,   3,   0,   0,  -1,  -1,   6,  -2,   6,   0,   0,  21,  29, 1270, 1.808, 1023,  -3,  14,  16, -107, -97, 4660, 588, 539, 559, 564, ANGLE_MODE, GPS_FIX_HOME|GPS_FIX|SMALL_ANGLE, IDLE, 1, 1
1872, 93849685,   3,   3,  -5,  -1,  -1,   6,  -4,   3,   0,   0,  20,  29, 1270, 1.808, 1023,  -3,  10,  18, -98, -70, 4745, 579, 556, 568, 548, ANGLE_MODE, GPS_FIX_HOME|GPS_FIX|SMALL_ANGLE, IDLE, 1, 1
1880, 93853725,   4,   3,  -3,  -1,  -1,   6,   2,   1,   0,   0,  20,  29, 1270, 1.808, 1023,  -5,  10,  17, -78, -77, 4838, 562, 538, 576, 574, ANGLE_MODE, GPS_FIX_HOME|GPS_FIX|SMALL_ANGLE, IDLE, 1, 1
1888, 93857820,   3,   4,   0,   0,   0,   6,   0,   4,   0,   0,  19,  29, 1270, 1.808, 1023,  -3,   9,  16, -51, -112, 4943, 584, 530, 571, 565, ANGLE_MODE, GPS_FIX_HOME|GPS_FIX|SMALL_ANGLE, IDLE, 1, 1
1896, 93861881,   1,   4,   3,   0,   0,   6,  -5,  -1,   0,   0,  19,  29, 1270, 1.799, 1023,  -2,   8,  14, -58, -103, 5049, 597, 547, 538, 568, ANGLE_MODE, GPS_FIX_HOME|GPS_FIX|SMALL_ANGLE, IDLE, 1, 1
1904, 93865936,   2,   3,  -2,   0,   0,   6,   0,   0,   0,   0,  19,  30, 1280, 1.799, 1023,  -3,   8,  17, -71, -62, 5149, 595, 562, 588, 587, ANGLE_MODE, GPS_FIX_HOME|GPS_FIX|SMALL_ANGLE, IDLE, 1, 1
1912, 93870272,   3,   5,  -6,   0,   0,   6,   1,   3,   0,   0,  19,  38, 1280, 1.799, 1023,  -3,   7,  19,  -7, -124, 5269, 589, 560, 608, 575, ANGLE_MODE, GPS_FIX_HOME|GPS_FIX|SMALL_ANGLE, IDLE, 1, 1
1920, 93874399,   2,   4,   9,   0,   0,   6,   0,   0,   0,   0,  19,  38, 1280, 1.799, 1023,  -3,   7,  17,  96, -229, 5400, 619, 539, 565, 610, ANGLE_MODE, GPS_FIX_HOME|GPS_FIX|SMALL_ANGLE, IDLE, 1, 1
1928, 93878454,   3,   3,   2,   0,   0,   6,   1,  -1,   0,   0,  19,  38, 1281, 1.799, 1023,  -4,   8,  20, 149, -311, 5521, 601, 551, 581, 607, ANGLE_MODE, GPS_FIX_HOME|GPS_FIX|SMALL_ANGLE, IDLE, 1, 1
1936, 93882521,   3,   2,  -5,   0,   0,   6,   0,  -4,   0,   0,  19,  38, 1281, 1.781, 1023,  -3,   9,  23, 159, -339, 5629, 576, 579, 589, 597, ANGLE_MODE, GPS_FIX_HOME|GPS_FIX|SMALL_ANGLE, IDLE, 1, 1
1944, 93886577,   2,   0,   0,   0,   0,   6,  -2,  -8,   0,   0,  19,  38, 1289, 1.781, 1023,  -3,  12,  21, 130, -329, 5729, 596, 607, 572, 629, ANGLE_MODE, GPS_FIX_HOME|GPS_FIX|SMALL_ANGLE, IDLE, 1, 1
1952, 93890651,   1,   0,   6,   0,   0,   6,  -1,  -3,   0,   0,  19,  38, 1289, 1.781, 1023,  -2,  13,  18,  83, -298, 5835, 621, 581, 569, 635, ANGLE_MODE, GPS_FIX_HOME|GPS_FIX|SMALL_ANGLE, IDLE, 1, 1
1960, 93894711,   1,   0,  11,   0,   0,   6,  -2,  -1,   0,   0,  19,  38, 1289, 1.781, 1023,  -2,  13,  16,  40, -287, 5926, 636, 569, 559, 641, ANGLE_MODE, GPS_FIX_HOME|GPS_FIX|SMALL_ANGLE, IDLE, 1, 1
1968, 93898775,   0,   0,   4,   0,   0,   6,  -1,   2,   0,   0,  18,  39, 1289, 1.781, 1023,  -1,  12,  20,  11, -277, 6025, 630, 574, 584, 617, ANGLE_MODE, GPS_FIX_HOME|GPS_FIX|SMALL_ANGLE, IDLE, 1, 1
1976, 93902838,   0,   0,  -8,   0,   0,   6,  -3,  -1,   0,   0,  18,  39, 1289, 1.790, 1023,  -1,  13,  24, -29, -251, 6121, 599, 615, 595, 596, ANGLE_MODE, GPS_FIX_HOME|GPS_FIX|SMALL_ANGLE, IDLE, 1, 1
1984, 93906904,   0,  -2,   8,   0,   0,   6,  -1,  -6,   0,   0,  18,  47, 1296, 1.790, 1023,   0,  15,  23, -86, -215, 6216, 631, 604, 566, 661, ANGLE_MODE, GPS_FIX_HOME|GPS_FIX|SMALL_ANGLE, IDLE, 1, 1
1992, 93910986,   2,  -5,   9,   0,   0,   6,   6,  -5,   0,   0,  18,  47, 1296, 1.790, 1023,  -3,  17,  22, -146, -184, 6311, 607, 587, 580, 688, ANGLE_MODE, GPS_FIX_HOME|GPS_FIX|SMALL_ANGLE, IDLE, 1, 1
2000, 93915030,   4,  -4,   3,   0,   0,   6,   9,  -3,   0,   0,  18,  47, 1296, 1.790, 1023,  -5,  17,  24, -190, -155, 6400, 590, 583, 606, 683, ANGLE_MODE, GPS_FIX_HOME|GPS_FIX|SMALL_ANGLE, IDLE, 1, 1
2008, 93919086,   3,  -4,   6,   0,   0,   6,   0,   3,   0,   0,  18,  47, 1297, 1.790, 1023,  -4,  16,  23, -199, -131, 6492, 633, 586, 597, 654, ANGLE_MODE, GPS_FIX_HOME|GPS_FIX|SMALL_ANGLE, IDLE, 1, 1
2016, 93923142,   4,  -1,   5,   0,   0,   6,   0,   7,   0,   0,  18,  47, 1297, 1.781, 1023,  -5,  13,  24, -198, -97, 6572, 641, 570, 615, 643, ANGLE_MODE, GPS_FIX_HOME|GPS_FIX|SMALL_ANGLE, IDLE, 1, 1
2024, 93927204,   5,   0,   3,   1,   0,   6,   5,   3,   0,   0,  18,  48, 1305, 1.781, 1023,  -7,  13,  25, -202, -89, 6639, 634, 585, 640, 676, ANGLE_MODE, GPS_FIX_HOME|GPS_FIX|SMALL_ANGLE, IDLE, 1, 1
2032, 93931267,   2,   2,  -8,   1,   0,   7,  -7,  16,   0,   0,  20,  48, 1305, 1.781, 1023,  -3,  10,  29, -210, -104, 6711, 677, 608, 664, 586, ANGLE_MODE, GPS_FIX_HOME|GPS_FIX|SMALL_ANGLE, IDLE, 1, 1
2040, 93935316,  -1,   6, -16,   1,   0,   6, -15,  16,   0,   0,  25,  48, 1305, 1.781, 1023,   1,   9,  32, -220, -97, 6771, 691, 639, 665, 540, ANGLE_MODE, GPS_FIX_HOME|GPS_FIX|SMALL_ANGLE, IDLE, 1, 1
2048, 93939379,  -3,   8,  -9,   1,   0,   6,  -6,   0,   0,   0,  27,  48, 1307, 1.781, 1023,   2,   9,  29, -72, -253, 6817, 667, 643, 642, 599, ANGLE_MODE, GPS_FIX_HOME|GPS_FIX|SMALL_ANGLE, IDLE, 1, 1
2056, 93943429,  -3,   6,   1,   1,   0,   6,  -3,  -2,   0,   0,  27,  48, 1307, 1.781, 1023,   3,  11,  26,  20, -337, 6862, 676, 623, 620, 633, ANGLE_MODE, GPS_FIX_HOME|GPS_FIX|SMALL_ANGLE, IDLE, 1, 1
2064, 93947527,  -3,   4,   7,   0,   0,   6,   1,  -7,   0,   0,  27,  48, 1315, 1.781, 1023,   3,  13,  24,  52, -359, 6910, 679, 633, 619, 686, ANGLE_MODE, GPS_FIX_HOME|GPS_FIX|SMALL_ANGLE, IDLE, 1, 1
2072, 93951832,  -1,   2,   8,   0,   0,   6,   4,   1,   0,   0,  30,  50, 1315, 1.781, 1023,   2,  16,  24,  54, -332, 6940, 687, 607, 640, 683, ANGLE_MODE, GPS_FIX_HOME|GPS_FIX|SMALL_ANGLE, IDLE, 1, 1
2080, 93955942,  -4,   5,   8,   0,   0,   6,  -3,   7,   0,   0,  35,  50, 1315, 1.781, 1023,   4,  17,  24,  39, -313, 6983, 725, 611, 638, 643, ANGLE_MODE, GPS_FIX_HOME|GPS_FIX|SMALL_ANGLE, IDLE, 1, 1
2088, 93960008,  -5,   3,   2,   0,   1,   6,  -7,  -3,   0,   0,  36,  50, 1316, 1.781, 1023,   5,  19,  26,  18, -287, 7030, 703, 659, 615, 648, ANGLE_MODE, GPS_FIX_HOME|GPS_FIX|SMALL_ANGLE, IDLE, 1, 1
2096, 93964075,  -5,   0,   0,   0,   1,   6,   0,  -7,   0,   0,  37,  51, 1316, 1.781, 1023,   5,  23,  27,   3, -255, 7076, 666, 665, 623, 671, ANGLE_MODE, GPS_FIX_HOME|GPS_FIX|SMALL_ANGLE, IDLE, 1, 1
2104, 93968139,  -4,   1,   0,   0,   1,   7,   1,  -2,   0,   0,  40,  51, 1316, 1.781, 1023,   4,  24,  28, -18, -223, 7132, 679, 648, 636, 662, ANGLE_MODE, GPS_FIX_HOME|GPS_FIX|SMALL_ANGLE, IDLE, 1, 1
2112, 93972208,  -4,   0,  -3,   0,   1,   7,   0,  -5,   0,   0,  42,  51, 1316, 1.781, 1023,   4,  26,  29, -41, -179, 7184, 665, 665, 633, 661, ANGLE_MODE, GPS_FIX_HOME|GPS_FIX|SMALL_ANGLE, IDLE, 1, 1
2120, 93976274,  -2,   0,   0,   0,   1,   7,   4,  -4,   0,   0,  42,  51, 1316, 1.781, 1023,   3,  27,  28, -79, -123, 7234, 663, 643, 638, 681, ANGLE_MODE, GPS_FIX_HOME|GPS_FIX|SMALL_ANGLE, IDLE, 1, 1
2128, 93980340,  -2,   0,   4,   0,   1,   7,   0,   0,   0,   0,  43,  51, 1316, 1.790, 1023,   3,  28,  26, -129, -86, 7268, 690, 638, 625, 671, ANGLE_MODE, GPS_FIX_HOME|GPS_FIX|SMALL_ANGLE, IDLE, 1, 1
2136, 93984436,   0,   0,   1,   0,   1,   7,   4,   4,   0,   0,  45,  52, 1316, 1.790, 1023,   0,  29,  28, -146, -54, 7310, 679, 619, 657, 669, ANGLE_MODE, GPS_FIX_HOME|GPS_FIX|SMALL_ANGLE, IDLE, 1, 1
2144, 93988499,   0,   0,  -1,   0,   1,   7,   8,   2,   0,   0,  49,  52, 1316, 1.790, 1023,  -1,  31,  29, -169, -32, 7351, 661, 619, 669, 676, ANGLE_MODE, GPS_FIX_HOME|GPS_FIX|SMALL_ANGLE, IDLE, 1, 1
2152, 93992565,   0,   0,  -7,   0,   1,   7,  -1,  -2,   0,   0,  52,  52, 1316, 1.790, 1023,   0,  33,  31, -201, -22, 7382, 658, 663, 649, 654, ANGLE_MODE, GPS_FIX_HOME|GPS_FIX|SMALL_ANGLE, IDLE, 1, 1
2160, 93996649,   0,  -2,  -8,   0,   1,   7,   0,  -4,   0,   0,  53,  52, 1316, 1.790, 1023,  -1,  36,  31, -226, -14, 7415, 644, 668, 648, 664, ANGLE_MODE, GPS_FIX_HOME|GPS_FIX|SMALL_ANGLE, IDLE, 1, 1
2168, 94000725,   1,   0,   6,   0,   1,   7,   5,   5,   0,   0,  58,  60, 1316, 1.790, 1023,  -2,  37,  30, -242,  -8, 7446, 683, 602, 653, 687, ANGLE_MODE, GPS_FIX_HOME|GPS_FIX|SMALL_ANGLE, IDLE, 1, 1
2176, 94004780,   3,   2,  15,   0,   1,   7,   1,   0,   0,   0,  62,  61, 1316, 1.790, 1023,  -3,  37,  28, -236,  -4, 7465, 702, 595, 625, 702, ANGLE_MODE, GPS_FIX_HOME|GPS_FIX|SMALL_ANGLE, IDLE, 1, 1
2184, 94008846,   5,   2,  23,   0,   1,   7,   6,   2,   0,   0,  62,  61, 1316, 1.790, 1023,  -5,  37,  25, -177,  92, 7468, 711, 556, 630, 728, ANGLE_MODE, GPS_FIX_HOME|GPS_FIX|SMALL_ANGLE, IDLE, 1, 1
2192, 94012908,   4,   2,  13,   0,   1,   7,   2,   0,   0,   0,  63,  61, 1316, 1.790, 1023,  -4,  38,  29, -147, 318, 7462, 693, 595, 634, 702, ANGLE_MODE, GPS_FIX_HOME|GPS_FIX|SMALL_ANGLE, IDLE, 1, 1
2200, 94016977,   3,   2,  13,   0,   1,   7,  -4,   0,   0,   0,  64,  61, 1316, 1.790, 1023,  -3,  38,  29, -116, 485, 7470, 708, 610, 619, 687, ANGLE_MODE, GPS_FIX_HOME|GPS_FIX|SMALL_ANGLE, IDLE, 1, 1
2208, 94021034,   2,   2,   3,   0,   1,   7,  -1,   2,   0,   0,  68,  61, 1316, 1.790, 1023,  -2,  40,  32, -93, 592, 7470, 692, 618, 649, 666, ANGLE_MODE, GPS_FIX_HOME|GPS_FIX|SMALL_ANGLE, IDLE, 1, 1
2216, 94025126,   0,   2,   0,   0,   2,   7,  -6,  -6,   0,   0,  70,  61, 1307, 1.790, 1023,   0,  42,  33, -69, 633, 7466, 662, 637, 606, 646, ANGLE_MODE, GPS_FIX_HOME|GPS_FIX|SMALL_ANGLE, IDLE, 1, 1
2224, 94029195,   0,   0,   0,   0,   2,   7,  -2,  -5,   0,   0,  70,  61, 1307, 1.790, 1023,   0,  45,  33, -52, 635, 7467, 652, 634, 612, 653, ANGLE_MODE, GPS_FIX_HOME|GPS_FIX|SMALL_ANGLE, IDLE, 1, 1
2232, 94033254,   0,   0,  -2,   0,   2,   7,   0,   6,   0,   0,  75,  61, 1307, 1.790, 1023,  -1,  47,  34, -33, 595, 7462, 663, 606, 648, 634, ANGLE_MODE, GPS_FIX_HOME|GPS_FIX|SMALL_ANGLE, IDLE, 1, 1
2240, 94037336,   1,   3,  -5,   0,   2,   7,   1,   7,   0,   0,  80,  61, 1307, 1.790, 1023,  -2,  48,  35,  -7, 536, 7456, 660, 600, 666, 625, ANGLE_MODE, GPS_FIX_HOME|GPS_FIX|SMALL_ANGLE, IDLE, 1, 1
2248, 94041465,   2,   1,  -2,   0,   2,   7,   3,  -4,   0,   0,  81,  61, 1307, 1.781, 1023,  -3,  50,  34,  24, 471, 7444, 635, 614, 641, 662, ANGLE_MODE, GPS_FIX_HOME|GPS_FIX|SMALL_ANGLE, IDLE, 1, 1
2256, 94045791,   2,   0,   3,   0,   2,   7,   1,  -5,   0,   0,  82,  63, 1307, 1.781, 1023,  -2,  52,  33,  56, 409, 7429, 648, 612, 616, 675, ANGLE_MODE, GPS_FIX_HOME|GPS_FIX|SMALL_ANGLE, IDLE, 1, 1
2264, 94049861,   1,  -1,   3,   0,   2,   7,  -2,  -5,   0,   0,  82,  63, 1307, 1.781, 1023,  -2,  54,  33,  79, 361, 7414, 651, 626, 605, 669, ANGLE_MODE, GPS_FIX_HOME|GPS_FIX|SMALL_ANGLE, IDLE, 1, 1
2272, 94053954,   0,  -2,   0,   0,   2,   7,  -3,  -6,   0,   0,  82,  63, 1307, 1.781, 1023,   0,  56,  35,  88, 310, 7388, 644, 643, 603, 662, ANGLE_MODE, GPS_FIX_HOME|GPS_FIX|SMALL_ANGLE, IDLE, 1, 1
2280, 94058030,   0,  -2,  -5,   0,   2,   7,   0,  -2,   0,   0,  82,  63, 1297, 1.781, 1023,   0,  56,  36,  93, 256, 7364, 615, 618, 608, 629, ANGLE_MODE, GPS_FIX_HOME|GPS_FIX|SMALL_ANGLE, IDLE, 1, 1
2288, 94062095,   0,  -2,  -7,   0,   1,   7,   0,   2,   0,   0,  82,  63, 1297, 1.799, 1023,  -1,  55,  37,  92, 199, 7339, 619, 608, 625, 619, ANGLE_MODE, GPS_FIX_HOME|GPS_FIX|SMALL_ANGLE, IDLE, 1, 1
2296, 94066176,   0,  -1,  -3,   0,   1,   8,   0,   4,   0,   0,  83,  63, 1297, 1.799, 1023,  -1,  55,  35,  99, 154, 7306, 634, 596, 620, 621, ANGLE_MODE, GPS_FIX_HOME|GPS_FIX|SMALL_ANGLE, IDLE, 1, 1
2304, 94070247,   1,  -1,  -1,   0,   1,   8,   1,   2,   0,   0,  84,  63, 1297, 1.799, 1023,  -1,  55,  35, 103, 132, 7273, 631, 592, 615, 632, ANGLE_MODE, GPS_FIX_HOME|GPS_FIX|SMALL_ANGLE, IDLE, 1, 1
2312, 94074335,   1,   0,  -1,   0,   1,   8,   1,   1,   0,   0,  84,  63, 1290, 1.799, 1023,  -2,  55,  35, 122, 120, 7229, 614, 578, 602, 620, ANGLE_MODE, GPS_FIX_HOME|GPS_FIX|SMALL_ANGLE, IDLE, 1, 1
2320, 94078406,   1,   0,   9,   0,   1,   8,   1,   1,   0,   0,  85,  64, 1289, 1.799, 1023,  -2,  55,  32, 139, 106, 7189, 633, 553, 579, 641, ANGLE_MODE, GPS_FIX_HOME|GPS_FIX|SMALL_ANGLE, IDLE, 1, 1
2328, 94082468,   0,  -1,  19,   1,   1,   8,  -1,   0,   0,   0,  85,  64, 1289, 1.799, 1023,  -1,  56,  28, 152,  79, 7138, 656, 543, 547, 658, ANGLE_MODE, GPS_FIX_HOME|GPS_FIX|SMALL_ANGLE, IDLE, 1, 1
2336, 94086553,   0,  -1,  10,   1,   1,   8,   0,  -1,   0,   0,  85,  64, 1289, 1.799, 1023,  -1,  56,  31, 151,  42, 7087, 633, 563, 566, 643, ANGLE_MODE, GPS_FIX_HOME|GPS_FIX|SMALL_ANGLE, IDLE, 1, 1
2344, 94090618,   0,  -1,  -2,   1,   1,   8,   0,  -1,   0,   0,  85,  64, 1280, 1.799, 1023,  -2,  57,  36,  17, 258, 6994, 585, 569, 573, 604, ANGLE_MODE, GPS_FIX_HOME|GPS_FIX|SMALL_ANGLE, IDLE, 1, 1
2352, 94094669,   0,  -1,  -3,   1,   1,   8,  -2,   0,   0,   0,  85,  64, 1280, 1.799, 1023,  -1,  57,  36, -86, 385, 6911, 594, 575, 571, 592, ANGLE_MODE, GPS_FIX_HOME|GPS_FIX|SMALL_ANGLE, IDLE, 1, 1
2360, 94098725,   0,  -1,  -4,   1,   1,   8,   0,  -1,   0,   0,  85,  65, 1277, 1.799, 1023,  -2,  57,  37, -145, 458, 6837, 575, 570, 570, 593, ANGLE_MODE, GPS_FIX_HOME|GPS_FIX|SMALL_ANGLE, IDLE, 1, 1
2368, 94102775,   1,  -3,   1,   1,   1,   8,   1,  -2,   0,   0,  85,  65, 1277, 1.799, 1023,  -2,  58,  35, -178, 499, 6763, 577, 558, 558, 615, ANGLE_MODE, GPS_FIX_HOME|GPS_FIX|SMALL_ANGLE, IDLE, 1, 1
2376, 94106843,   1,  -2,   2,   1,   1,   8,   0,   1,   0,   0,  86,  65, 1277, 1.799, 1023,  -2,  58,  35, -190, 500, 6688, 592, 551, 560, 605, ANGLE_MODE, GPS_FIX_HOME|GPS_FIX|SMALL_ANGLE, IDLE, 1, 1
2384, 94110905,   1,  -2,   3,   1,   1,   8,   0,   1,   0,   0,  87,  74, 1277, 1.799, 1023,  -2,  58,  34, -195, 472, 6615, 597, 545, 559, 606, ANGLE_MODE, GPS_FIX_HOME|GPS_FIX|SMALL_ANGLE, IDLE, 1, 1
2392, 94114957,   1,  -1,  19,   1,   0,   8,   1,   1,   0,   0,  87,  74, 1277, 1.799, 1023,  -2,  58,  34, -187, 429, 6541, 627, 510, 529, 641, ANGLE_MODE, GPS_FIX_HOME|GPS_FIX|SMALL_ANGLE, IDLE, 1, 1
2400, 94119015,   1,  -1,   9,   1,   0,   8,   0,   1,   0,  -1,  87,  74, 1277, 1.799, 1023,  -2,  58,  37, -161, 380, 6475, 612, 533, 546, 616, ANGLE_MODE, GPS_FIX_HOME|GPS_FIX|SMALL_ANGLE, IDLE, 1, 1
2408, 94123139,   0,  -1,   4,   1,   0,   8,  -3,   0,   0,  -2,  87,  74, 1277, 1.790, 1023,  -2,  58,  39, -113, 319, 6414, 605, 554, 547, 601, ANGLE_MODE, GPS_FIX_HOME|GPS_FIX|SMALL_ANGLE, IDLE, 1, 1
2416, 94127477,   0,   0,  -3,   1,   0,   8,  -1,   2,   0,  -2,  87,  74, 1276, 1.790, 1023,  -1,  57,  42, -76, 245, 6346, 591, 559, 569, 580, ANGLE_MODE, GPS_FIX_HOME|GPS_FIX|SMALL_ANGLE, IDLE, 1, 1
2424, 94131558,   0,   0,   2,   1,   0,   8,   0,   0,   0,  -2,  87,  74, 1276, 1.790, 1023,  -2,  57,  40, -20, 177, 6295, 599, 548, 556, 596, ANGLE_MODE, GPS_FIX_HOME|GPS_FIX|SMALL_ANGLE, IDLE, 1, 1
2432, 94135605,   0,   0,  -1,   1,   0,   8,   2,   0,   0,  -2,  87,  74, 1276, 1.790, 1023,  -3,  56,  41,  23,  97, 6250, 583, 547, 573, 596, ANGLE_MODE, GPS_FIX_HOME|GPS_FIX|SMALL_ANGLE, IDLE, 1, 1
2440, 94139643,   0,   0,   0,   1,   0,   9,   0,   0,   0,  -2,  87,  74, 1275, 1.790, 1023,  -2,  56,  40,  45,  35, 6212, 587, 546, 560, 598, ANGLE_MODE, GPS_FIX_HOME|GPS_FIX|SMALL_ANGLE, IDLE, 1, 1
2448, 94143691,   0,   0,   1,   1,   0,   9,   0,   0,   0,  -2,  87,  74, 1275, 1.799, 1023,  -3,  56,  40,  59,  16, 6179, 590, 546, 556, 599, ANGLE_MODE, GPS_FIX_HOME|GPS_FIX|SMALL_ANGLE, IDLE, 1, 1
2456, 94147742,   0,   0,  10,   1,   0,   9,   0,   0,   0,  -2,  87,  74, 1266, 1.799, 1023,  -3,  57,  37,  62,  25, 6142, 588, 507, 521, 602, ANGLE_MODE, GPS_FIX_HOME|GPS_FIX|SMALL_ANGLE, IDLE, 1, 1
2464, 94151833,   0,   0,   7,   1,   0,   9,   0,   0,   0,  -2,  87,  74, 1266, 1.799, 1023,  -2,  57,  38,  65,  23, 6106, 586, 517, 523, 591, ANGLE_MODE, GPS_FIX_HOME|GPS_FIX|SMALL_ANGLE, IDLE, 1, 1
2472, 94155911,   0,   0,   1,   1,   0,   9,   0,   0,   0,  -2,  87,  74, 1266, 1.799, 1023,  -2,  57,  40,  79,  -5, 6074, 571, 532, 534, 581, ANGLE_MODE, GPS_FIX_HOME|GPS_FIX|SMALL_ANGLE, IDLE, 1, 1
2480, 94159974,   0,  -1,   0,   1,   0,   9,  -2,  -1,   0,  -3,  87,  74, 1257, 1.799, 1023,  -2,  57,  41, 105, -37, 6043, 553, 526, 512, 554, ANGLE_MODE, GPS_FIX_HOME|GPS_FIX|SMALL_ANGLE, IDLE, 1, 1
2488, 94164035,   0,   0,   0,   1,   0,   9,  -3,   0,   0,  -4,  87,  74, 1257, 1.808, 1023,  -2,  57,  41, 122, -60, 6006, 557, 524, 511, 553, ANGLE_MODE, GPS_FIX_HOME|GPS_FIX|SMALL_ANGLE, IDLE, 1, 1
2496, 94168094,  -3,  -1,   0,   1,   0,   9,  -9,   0,   0,  -8,  87,  74, 1257, 1.808, 1023,  -2,  58,  40, 116, -65, 5956, 576, 543, 492, 534, ANGLE_MODE, GPS_FIX_HOME|GPS_FIX|SMALL_ANGLE, IDLE, 1, 1
2504, 94172173,  -4,  -1,   4,   1,   0,   9,   0,   0,   0, -11,  87,  74, 1257, 1.808, 1023,  -2,  58,  39,  92, -42, 5906, 567, 518, 498, 562, ANGLE_MODE, GPS_FIX_HOME|GPS_FIX|SMALL_ANGLE, IDLE, 1, 1
2512, 94176255,  -4,  -1,   9,   1,   0,   9,   1,   0,   0, -11,  87,  74, 1257, 1.808, 1023,  -3,  58,  37,  82, -16, 5853, 574, 507, 489, 575, ANGLE_MODE, GPS_FIX_HOME|GPS_FIX|SMALL_ANGLE, IDLE, 1, 1
2520, 94180339,  -3,  -2,   4,   0,   0,   9,   3,  -1,   0, -11,  87,  74, 1247, 1.808, 1023,  -4,  59,  39,  97, -17, 5794, 537, 492, 481, 553, ANGLE_MODE, GPS_FIX_HOME|GPS_FIX|SMALL_ANGLE, IDLE, 1, 1
2528, 94184403,  -2,  -2,   0,   0,   0,   9,   5,   0,   0, -11,  87,  74, 1247, 1.808, 1023,  -5,  58,  40,  28, 193, 5690, 525, 492, 499, 548, ANGLE_MODE, GPS_FIX_HOME|GPS_FIX|SMALL_ANGLE, IDLE, 1, 1
2536, 94188476,  -1,  -1,   2,   0,   0,   9,   1,   1,   0, -11,  87,  74, 1247, 1.808, 1023,  -6,  58,  40, -13, 285, 5603, 540, 489, 493, 541, ANGLE_MODE, GPS_FIX_HOME|GPS_FIX|SMALL_ANGLE, IDLE, 1, 1
2544, 94192535,  -1,  -1,   5,   0,   0,   9,   1,   1,   0, -11,  87,  74, 1247, 1.808, 1023,  -6,  57,  39, -58, 338, 5527, 544, 485, 487, 547, ANGLE_MODE, GPS_FIX_HOME|GPS_FIX|SMALL_ANGLE, IDLE, 1, 1
2552, 94196601,   0,  -1,   1,   0,   0,   9,   4,   0,   0, -11,  87,  74, 1247, 1.808, 1023,  -8,  58,  40, -77, 402, 5453, 525, 486, 499, 554, ANGLE_MODE, GPS_FIX_HOME|GPS_FIX|SMALL_ANGLE, IDLE, 1, 1
2560, 94200669,   0,   0,   3,   0,   0,   9,   1,   1,   0, -11,  87,  74, 1247, 1.799, 1023,  -8,  57,  39, -82, 431, 5381, 538, 483, 494, 549, ANGLE_MODE, GPS_FIX_HOME|GPS_FIX|SMALL_ANGLE, IDLE, 1, 1
2568, 94204734,   0,   0,  11,   0,   0,   9,   0,   0,   0, -11,  87,  76, 1246, 1.799, 1023,  -8,  57,  38, -72, 401, 5327, 553, 469, 472, 562, ANGLE_MODE, GPS_FIX_HOME|GPS_FIX|SMALL_ANGLE, IDLE, 1, 1
2576, 94208898,   1,   0,   4,   0,   0,   9,   2,   0,   0, -11,  87,  76, 1246, 1.799, 1023,  -9,  57,  40, -45, 335, 5279, 532, 478, 491, 554, ANGLE_MODE, GPS_FIX_HOME|GPS_FIX|SMALL_ANGLE, IDLE, 1, 1
2584, 94212951,   0,  -1,   3,   0,   0,  10,   0,   0,   0, -11,  87,  76, 1246, 1.799, 1023,  -9,  57,  41, -31, 279, 5226, 535, 486, 489, 545, ANGLE_MODE, GPS_FIX_HOME|GPS_FIX|SMALL_ANGLE, IDLE, 1, 1
