loopIteration, time (us), axisP[0], axisP[1], axisP[2], axisI[0], axisI[1], axisI[2], axisD[0], axisD[1], axisD[2], rcCommand[0], rcCommand[1], rcCommand[2], rcCommand[3], vbatLatest (V), rssi, gyroADC[0], gyroADC[1], gyroADC[2], accSmooth[0], accSmooth[1], accSmooth[2], motor[0], motor[1], motor[2], motor[3], flightModeFlags (flags), stateFlags (flags), failsafePhase (flags), rxSignalReceived, rxFlightChannelsValid
  0, 103398351,   0,   0,   4,   0,   0,   0,  -2,   0,   0,   0,  -1,   0, 1000, 1.852, 1023,   0,   0,  -1,  -3,  -5, 4238, 142, 126, 115, 132, 0, 0, IDLE, 0, 0
256, 103528646,  -2,   0,   0,   0,   0,   0,  -5,   0,   0,   0,   0,   0, 1000, 1.852, 1023,   2,   0,   0, -20,  11, 4235, 147, 151, 119, 116, ANGLE_MODE, GPS_FIX_HOME|GPS_FIX|SMALL_ANGLE, IDLE, 1, 1
264, 103532695,   0,   0,   0,   0,   0,   0,   5,  -2,   0,   0,   0,   0, 1000, 1.852, 1023,  -1,   0,   0, -28,   7, 4232, 116, 128, 137, 151, ANGLE_MODE, GPS_FIX_HOME|GPS_FIX|SMALL_ANGLE, IDLE, 1, 1
272, 103537006,   3,  -1,   0,   0,   0,   0,  11,  -1,   0,   0,   0,   0, 1000, 1.852, 1023,  -3,   0,   0, -31, -18, 4230, 115, 125, 172, 182, ANGLE_MODE, GPS_FIX_HOME|GPS_FIX|SMALL_ANGLE, IDLE, 1, 1
280, 103541050,   1,   0,  -2,   0,   0,   0,  -1,   1,   0,   0,   0,   0, 1000, 1.852, 1023,  -1,   0,   1, -22, -34, 4234, 122, 125, 131, 115, ANGLE_MODE, GPS_FIX_HOME|GPS_FIX|SMALL_ANGLE, IDLE, 1, 1
288, 103545148,  -1,   0,  -1,   0,   0,   0,  -9,   1,   0,   0,   0,   0, 1000, 1.852, 1023,   1,   0,   0, -10, -14, 4233, 163, 162, 125, 115, ANGLE_MODE, GPS_FIX_HOME|GPS_FIX|SMALL_ANGLE, IDLE, 1, 1
296, 103549209,  -1,   0,   2,   0,   0,   0,  -4,   0,   0,   0,   0,   0, 1000, 1.852, 1023,   2,   0,  -1, -12,   5, 4228, 148, 144, 115, 126, ANGLE_MODE, GPS_FIX_HOME|GPS_FIX|SMALL_ANGLE, IDLE, 1, 1
304, 103553281,   0,  -1,   2,   0,   0,   0,   6,  -3,   0,   0,   0,   0, 1000, 1.852, 1023,  -1,   1,  -1, -18,  -1, 4224, 120, 129, 138, 166, ANGLE_MODE, GPS_FIX_HOME|GPS_FIX|SMALL_ANGLE, IDLE, 1, 1
312, 103557356,   2,   0,   0,   0,   0,   0,   8,   0,   0,   0,   0,   0, 1000, 1.852, 1023,  -3,   0,   0, -19, -20, 4228, 115, 121, 161, 162, ANGLE_MODE, GPS_FIX_HOME|GPS_FIX|SMALL_ANGLE, IDLE, 1, 1
320, 103561428,   1,   0,  -1,   0,   0,   0,  -1,   3,   0,   0,   0,   0, 1000, 1.852, 1023,  -1,   0,   1, -10, -33, 4234, 129, 124, 134, 115, ANGLE_MODE, GPS_FIX_HOME|GPS_FIX|SMALL_ANGLE, IDLE, 1, 1
328, 103565492,  -1,   0,   0,   0,   0,   0,  -8,   0,   0,   0,   0,   0, 1000, 1.852, 1023,   1,   0,   0,  -7, -30, 4233, 156, 155, 115, 117, ANGLE_MODE, GPS_FIX_HOME|GPS_FIX|SMALL_ANGLE, IDLE, 1, 1
336, 103569576,  -1,  -1,   0,   0,   0,   0,  -4,  -2,   0,   0,   0,   0, 1000, 1.852, 1023,   2,   0,   0, -14, -36, 4224, 143, 152, 115, 131, ANGLE_MODE, GPS_FIX_HOME|GPS_FIX|SMALL_ANGLE, IDLE, 1, 1
344, 103573651,   0,  -1,   0,   0,   0,   0,   7,   0,   0,   0,   0,   0, 1000, 1.852, 1023,  -1,   0,   0, -14, -55, 4226, 117, 121, 146, 156, ANGLE_MODE, GPS_FIX_HOME|GPS_FIX|SMALL_ANGLE, IDLE, 1, 1
352, 103577719,   1,   0,  -2,   0,   0,   0,   6,   0,   0,   0,   0,   0, 1000, 1.843, 1023,  -2,   0,   1,  -9, -73, 4231, 115, 124, 158, 150, ANGLE_MODE, GPS_FIX_HOME|GPS_FIX|SMALL_ANGLE, IDLE, 1, 1
360, 103581828,   0,   0,  -1,   0,   0,   0,  -3,   0,   0,   0,   0,   0, 1000, 1.843, 1023,   0,   0,   1,  -5, -65, 4235, 125, 134, 121, 117, ANGLE_MODE, GPS_FIX_HOME|GPS_FIX|SMALL_ANGLE, IDLE, 1, 1
368, 103585898,  -1,   0,   0,   0,   0,   0,  -6,   0,   0,   0,   0,   0, 1000, 1.843, 1023,   1,   0,   0, -12, -44, 4232, 147, 151, 115, 122, ANGLE_MODE, GPS_FIX_HOME|GPS_FIX|SMALL_ANGLE, IDLE, 1, 1
376, 103589965,  -1,   0,   1,   0,   0,   0,  -1,   0,   0,   0,   0,   0, 1000, 1.843, 1023,   1,   0,   0, -13, -36, 4227, 130, 128, 115, 121, ANGLE_MODE, GPS_FIX_HOME|GPS_FIX|SMALL_ANGLE, IDLE, 1, 1
384, 103594024,   1,   0,   0,   0,   0,   0,   6,   0,   0,   0,   0,   0, 1000, 1.843, 1023,  -1,   0,   0, -10, -45, 4231, 119, 116, 145, 149, ANGLE_MODE, GPS_FIX_HOME|GPS_FIX|SMALL_ANGLE, IDLE, 1, 1
392, 103598116,   1,   0,  -2,   0,   0,   0,   5,  -1,   0,   0,   0,   0, 1000, 1.843, 1023,  -2,   0,   1,  -8, -48, 4238, 115, 129, 148, 150, ANGLE_MODE, GPS_FIX_HOME|GPS_FIX|SMALL_ANGLE, IDLE, 1, 1
400, 103602191,   0,   0,  -3,   0,   0,   0,  -5,   0,   0,   0,   0,   0, 1000, 1.843, 1023,   0,   0,   1, -16, -38, 4237, 137, 150, 128, 116, ANGLE_MODE, GPS_FIX_HOME|GPS_FIX|SMALL_ANGLE, IDLE, 1, 1
408, 103606255,  -1,   0,   0,   0,   0,   0,  -5,   0,   0,   0,   0,   0, 1000, 1.843, 1023,   1,   0,   0, -22, -20, 4231, 143, 141, 116, 116, ANGLE_MODE, GPS_FIX_HOME|GPS_FIX|SMALL_ANGLE, IDLE, 1, 1
416, 103610314,   0,   0,   2,   0,   0,   0,   0,   1,   0,   0,  -1,   0, 1000, 1.843, 1012,   0,  -1,  -1, -22, -16, 4229, 132, 115, 123, 127, ANGLE_MODE, GPS_FIX_HOME|GPS_FIX|SMALL_ANGLE, IDLE, 1, 1
424, 103614375,   1,   0,   0,   0,   0,   0,   6,  -2,   0,   0,  -1,   0, 1000, 1.843, 1012,  -2,   0,   0, -18, -24, 4234, 115, 128, 148, 159, ANGLE_MODE, GPS_FIX_HOME|GPS_FIX|SMALL_ANGLE, IDLE, 1, 1
432, 103618454,   1,  -1,  -1,   0,   0,   0,   2,  -1,   0,   0,  -1,   0, 1000, 1.852, 1012,  -1,   0,   0, -21, -28, 4239, 115, 129, 136, 141, ANGLE_MODE, GPS_FIX_HOME|GPS_FIX|SMALL_ANGLE, IDLE, 1, 1
440, 103622518,   0,   0,  -1,   0,   0,   0,  -5,   1,   0,   0,  -1,   0, 1000, 1.852, 1012,   1,   0,   1, -26, -20, 4234, 142, 146, 123, 115, ANGLE_MODE, GPS_FIX_HOME|GPS_FIX|SMALL_ANGLE, IDLE, 1, 1
448, 103626588,   0,   0,   0,   0,   0,   0,  -3,   1,   0,   0,  -1,   0, 1000, 1.852, 1012,   1,   0,   0, -28,  -5, 4233, 144, 133, 121, 117, ANGLE_MODE, GPS_FIX_HOME|GPS_FIX|SMALL_ANGLE, IDLE, 1, 1
456, 103630686,   0,   0,   1,   0,   0,   0,   3,   0,   0,   0,  -1,   0, 1000, 1.852, 1012,  -1,   0,   0, -21,  -2, 4234, 119, 116, 132, 139, ANGLE_MODE, GPS_FIX_HOME|GPS_FIX|SMALL_ANGLE, IDLE, 1, 1
464, 103635018,   1,  -1,  -1,   0,   0,   0,   4,  -2,   0,   0,  -1,   0, 1000, 1.852, 1023,  -2,   1,   1, -19, -14, 4238, 115, 133, 145, 154, ANGLE_MODE, GPS_FIX_HOME|GPS_FIX|SMALL_ANGLE, IDLE, 1, 1
472, 103639104,   0,   0,  -2,   0,   0,   0,   0,   0,   0,   0,  -1,   0, 1000, 1.852, 1023,  -1,   0,   1, -25, -15, 4238, 115, 129, 126, 119, ANGLE_MODE, GPS_FIX_HOME|GPS_FIX|SMALL_ANGLE, IDLE, 1, 1
480, 103643177,   0,   0,   0,   0,   0,   0,  -5,   2,   0,   0,  -1,   0, 1000, 1.852, 1023,   1,  -1,   0, -28, -11, 4236, 148, 142, 126, 115, ANGLE_MODE, GPS_FIX_HOME|GPS_FIX|SMALL_ANGLE, IDLE, 1, 1
488, 103647242,   0,   0,   2,   0,   0,   0,   0,   1,   0,   0,  -1,   0, 1000, 1.852, 1023,   0,  -1,  -1, -22,  -1, 4237, 128, 115, 121, 126, ANGLE_MODE, GPS_FIX_HOME|GPS_FIX|SMALL_ANGLE, IDLE, 1, 1
496, 103651300,   1,   0,   1,   0,   0,   0,   3,  -1,   0,   0,  -1,   0, 1000, 1.852, 1023,  -1,   0,   0, -18,  -4, 4239, 118, 121, 132, 146, ANGLE_MODE, GPS_FIX_HOME|GPS_FIX|SMALL_ANGLE, IDLE, 1, 1
504, 103655398,   1,  -1,  -1,   0,   0,   0,   2,  -1,   0,   0,  -1,   0, 1000, 1.852, 1023,  -2,   1,   1, -19, -13, 4240, 115, 131, 137, 142, ANGLE_MODE, GPS_FIX_HOME|GPS_FIX|SMALL_ANGLE, IDLE, 1, 1
512, 103659460,   0,   0,  -2,   0,   0,   0,  -2,   0,   0,   0,  -1,   0, 1000, 1.852, 1023,   0,   0,   1, -22, -15, 4238, 123, 137, 122, 118, ANGLE_MODE, GPS_FIX_HOME|GPS_FIX|SMALL_ANGLE, IDLE, 1, 1
520, 103663524,   0,   0,   0,   0,   0,   0,  -3,   2,   0,   0,  -1,   0, 1000, 1.852, 1023,   0,   0,   0, -19,  -9, 4236, 137, 129, 124, 115, ANGLE_MODE, GPS_FIX_HOME|GPS_FIX|SMALL_ANGLE, IDLE, 1, 1
528, 103667587,   0,   0,   3,   0,   0,   0,   1,   0,   0,   0,  -1,   0, 1000, 1.852, 1023,  -1,   0,  -1, -10,  -9, 4234, 127, 117, 124, 140, ANGLE_MODE, GPS_FIX_HOME|GPS_FIX|SMALL_ANGLE, IDLE, 1, 1
536, 103671655,   0,   0,   0,   0,   0,   0,   0,  -1,   0,   0,  -1,   0, 1000, 1.852, 1023,  -1,   0,   0,   0, -16, 4225, 117, 123, 120, 133, ANGLE_MODE, GPS_FIX_HOME|GPS_FIX|SMALL_ANGLE, IDLE, 1, 1
544, 103675726,   0,   0,  -1,   0,   0,   0,   0,   0,   0,   0,  -1,   0, 1000, 1.852, 1023,  -1,   0,   1,   4, -22, 4219, 115, 124, 127, 123, ANGLE_MODE, GPS_FIX_HOME|GPS_FIX|SMALL_ANGLE, IDLE, 1, 1
552, 103679806,   0,   0,  -2,   0,   0,   0,  -2,   0,   0,   0,  -1,   0, 1000, 1.852, 1023,   0,   0,   1,   7, -23, 4218, 125, 136, 126, 116, ANGLE_MODE, GPS_FIX_HOME|GPS_FIX|SMALL_ANGLE, IDLE, 1, 1
560, 103683864,   0,   0,   0,   0,   0,   0,  -1,   1,   0,   0,  -1,   0, 1000, 1.852, 1023,   0,   0,   0,   8, -28, 4217, 125, 119, 117, 117, ANGLE_MODE, GPS_FIX_HOME|GPS_FIX|SMALL_ANGLE, IDLE, 1, 1
568, 103687916,   0,   0,   2,   0,   0,   0,   1,  -1,   0,   0,  -1,   0, 1000, 1.852, 1023,   0,   0,  -1,   9, -31, 4217, 123, 121, 118, 137, ANGLE_MODE, GPS_FIX_HOME|GPS_FIX|SMALL_ANGLE, IDLE, 1, 1
576, 103691960,   0,   0,   0,   0,   0,   0,  -1,   0,   0,   0,  -1,   0, 1000, 1.852, 1023,   1,   0,   0,  11, -27, 4221, 126, 124, 115, 120, ANGLE_MODE, GPS_FIX_HOME|GPS_FIX|SMALL_ANGLE, IDLE, 1, 1
584, 103696004,   0,   0,  -1,   0,   0,   0,  -2,   0,   0,   0,  -1,   0, 1000, 1.852, 1023,   1,   0,   1,   6, -25, 4224, 127, 135, 123, 116, ANGLE_MODE, GPS_FIX_HOME|GPS_FIX|SMALL_ANGLE, IDLE, 1, 1
592, 103700060,   0,   0,   0,   0,   0,   0,   2,   0,   0,   0,  -1,   0, 1000, 1.852, 1023,   0,   0,   0,   1, -32, 4229, 115, 125, 130, 134, ANGLE_MODE, GPS_FIX_HOME|GPS_FIX|SMALL_ANGLE, IDLE, 1, 1
600, 103704159,   0,  -1,   1,   0,   0,   0,   2,   0,   0,   0,  -1,   0, 1000, 1.852, 1023,  -1,   1,   0,   0, -45, 4228, 118, 120, 126, 139, ANGLE_MODE, GPS_FIX_HOME|GPS_FIX|SMALL_ANGLE, IDLE, 1, 1
608, 103708223,   0,  -1,   0,   0,   0,   0,  -2,   0,   0,   0,  -1,   0, 1000, 1.852, 1023,   1,   1,   0,  -1, -37, 4231, 130, 136, 115, 125, ANGLE_MODE, GPS_FIX_HOME|GPS_FIX|SMALL_ANGLE, IDLE, 1, 1
616, 103712269,  -2,   0,   0,   0,   0,   0,  -5,   1,   0,   0,  -1,   0, 1000, 1.852, 1023,   2,   0,   0,   1, -17, 4233, 147, 150, 120, 115, ANGLE_MODE, GPS_FIX_HOME|GPS_FIX|SMALL_ANGLE, IDLE, 1, 1
624, 103716318,  -1,   0,  -1,   0,   0,   0,   0,   1,   0,   0,  -1,   0, 1000, 1.852, 1023,   1,   0,   0,  -6, -14, 4236, 121, 124, 121, 115, ANGLE_MODE, GPS_FIX_HOME|GPS_FIX|SMALL_ANGLE, IDLE, 1, 1
632, 103720395,   1,  -1,   1,   0,   0,   0,   8,  -1,   0,   0,  -1,   0, 1000, 1.852, 1023,  -2,   1,   0, -14, -32, 4235, 118, 125, 154, 171, ANGLE_MODE, GPS_FIX_HOME|GPS_FIX|SMALL_ANGLE, IDLE, 1, 1
640, 103724448,   1,  -1,   0,   0,   0,   0,   3,   0,   0,   0,  -1,   0, 1000, 1.852, 1023,  -1,   1,   0, -11, -43, 4236, 115, 125, 136, 139, ANGLE_MODE, GPS_FIX_HOME|GPS_FIX|SMALL_ANGLE, IDLE, 1, 1
648, 103728494,   0,   0,  -2,   0,   0,   0,  -7,   1,   0,   0,  -1,   0, 1000, 1.852, 1023,   1,   0,   1, -14, -29, 4238, 149, 158, 127, 115, ANGLE_MODE, GPS_FIX_HOME|GPS_FIX|SMALL_ANGLE, IDLE, 1, 1
656, 103732817,  -3,   0,  -2,   0,   0,   0,  -8,   0,   0,   0,  -1,   0, 1000, 1.852, 1023,   3,   0,   1, -18,   1, 4237, 161, 171, 127, 115, ANGLE_MODE, GPS_FIX_HOME|GPS_FIX|SMALL_ANGLE, IDLE, 1, 1
664, 103736891,  -1,   0,   0,   0,   0,   0,   1,   0,   0,   0,  -1,   0, 1000, 1.852, 1023,   1,   0,   0, -22,   4, 4233, 115, 117, 117, 116, ANGLE_MODE, GPS_FIX_HOME|GPS_FIX|SMALL_ANGLE, IDLE, 1, 1
672, 103740941,   2,   0,   1,   0,   0,   0,  13,  -1,   0,   0,  -1,   0, 1000, 1.852, 1023,  -3,   0,  -1, -25, -21, 4234, 119, 122, 177, 193, ANGLE_MODE, GPS_FIX_HOME|GPS_FIX|SMALL_ANGLE, IDLE, 1, 1
680, 103745008,   2,  -1,   0,   0,   0,   0,   4,   0,   0,   0,  -1,   0, 1000, 1.852, 1023,  -3,   0,   0, -24, -29, 4240, 115, 123, 147, 151, ANGLE_MODE, GPS_FIX_HOME|GPS_FIX|SMALL_ANGLE, IDLE, 1, 1
688, 103749095,  -1,   0,  -4,   0,   0,   0, -10,   1,   0,   0,  -1,   0, 1000, 1.852, 1023,   1,   0,   1, -12,   7, 4243, 163, 177, 132, 115, ANGLE_MODE, GPS_FIX_HOME|GPS_FIX|SMALL_ANGLE, IDLE, 1, 1
696, 103753175,  -3,   0,   0,   0,   0,   0, -10,   1,   0,   0,  -1,   0, 1000, 1.852, 1023,   3,  -1,   0, -13,  41, 4238, 175, 170, 124, 115, ANGLE_MODE, GPS_FIX_HOME|GPS_FIX|SMALL_ANGLE, IDLE, 1, 1
704, 103757236,   0,   0,   3,   0,   0,   0,   4,   0,   0,   0,  -1,   0, 1000, 1.852, 1023,   0,   0,  -1, -12,  42, 4233, 127, 117, 132, 147, ANGLE_MODE, GPS_FIX_HOME|GPS_FIX|SMALL_ANGLE, IDLE, 1, 1
712, 103761295,   3,   0,   2,   0,   0,   0,  13,  -1,   0,   0,  -1,   0, 1000, 1.852, 1023,  -3,   0,  -1,  -5,  20, 4237, 120, 121, 177, 196, ANGLE_MODE, GPS_FIX_HOME|GPS_FIX|SMALL_ANGLE, IDLE, 1, 1
720, 103765354,   2,  -1,  -3,   0,   0,   0,   3,  -1,   0,   0,  -1,   0, 1000, 1.852, 1023,  -3,   1,   1,  -5,   4, 4245, 115, 136, 148, 145, ANGLE_MODE, GPS_FIX_HOME|GPS_FIX|SMALL_ANGLE, IDLE, 1, 1
728, 103769421,  -1,   0,  -4,   0,   0,   0, -11,   1,   0,   0,  -1,   0, 1000, 1.852, 1023,   1,   0,   2,  -7,  22, 4243, 167, 180, 135, 115, ANGLE_MODE, GPS_FIX_HOME|GPS_FIX|SMALL_ANGLE, IDLE, 1, 1
736, 103773481,  -2,   0,   1,   0,   0,   0,  -8,   2,   0,   0,  -1,   0, 1000, 1.852, 1023,   2,  -1,   0,  -6,  44, 4232, 168, 154, 123, 118, ANGLE_MODE, GPS_FIX_HOME|GPS_FIX|SMALL_ANGLE, IDLE, 1, 1
744, 103777537,   1,   0,   4,   0,   0,   0,   8,   0,   0,   0,  -1,   0, 1000, 1.852, 1023,  -1,   0,  -2,  -7,  30, 4230, 132, 118, 150, 174, ANGLE_MODE, GPS_FIX_HOME|GPS_FIX|SMALL_ANGLE, IDLE, 1, 1
752, 103781591,   3,  -1,  -1,   0,   0,   0,  10,  -3,   0,   0,  -1,   0, 1000, 1.852, 1023,  -3,   1,   0,  -4,  10, 4238, 115, 137, 174, 188, ANGLE_MODE, GPS_FIX_HOME|GPS_FIX|SMALL_ANGLE, IDLE, 1, 1
760, 103785656,   1,   0,  -4,   0,   0,   0,  -3,   0,   0,   0,  -1,   0, 1000, 1.852, 1023,  -1,   0,   2,  -9,  -2, 4244, 122, 144, 132, 117, ANGLE_MODE, GPS_FIX_HOME|GPS_FIX|SMALL_ANGLE, IDLE, 1, 1
768, 103789717,  -1,   0,   0,   0,   0,   0,  -9,   3,   0,   0,  -1,   0, 1000, 1.852, 1023,   1,  -1,   0, -12,   5, 4237, 174, 157, 130, 116, ANGLE_MODE, GPS_FIX_HOME|GPS_FIX|SMALL_ANGLE, IDLE, 1, 1
776, 103793777,   0,   0,   5,   0,   0,   0,   0,   1,   0,   0,  -1,   0, 1000, 1.852, 1023,   0,  -1,  -2, -13,  15, 4232, 145, 116, 122, 138, ANGLE_MODE, GPS_FIX_HOME|GPS_FIX|SMALL_ANGLE, IDLE, 1, 1
784, 103798007,   1,   0,   2,   0,   0,   0,   6,  -3,   0,   0,  -1,   0, 1000, 1.843, 1023,  -2,   0,  -1, -14,   2, 4235, 120, 128, 146, 173, ANGLE_MODE, GPS_FIX_HOME|GPS_FIX|SMALL_ANGLE, IDLE, 1, 1
792, 103802050,   1,  -1,  -3,   0,   0,   0,   1,  -1,   0,   0,  -1,   0, 1000, 1.843, 1023,  -1,   1,   1, -19, -14, 4244, 115, 137, 136, 133, ANGLE_MODE, GPS_FIX_HOME|GPS_FIX|SMALL_ANGLE, IDLE, 1, 1
800, 103806136,   0,   0,  -2,   0,   0,   0,  -6,   2,   0,   0,  -1,   0, 1000, 1.843, 1023,   1,  -1,   1, -18, -14, 4241, 148, 148, 131, 115, ANGLE_MODE, GPS_FIX_HOME|GPS_FIX|SMALL_ANGLE, IDLE, 1, 1
808, 103810212,   0,   0,   2,   0,   0,   0,  -1,   2,   0,   0,  -1,   0, 1000, 1.843, 1023,   0,  -1,  -1, -19, -14, 4236, 138, 118, 122, 125, ANGLE_MODE, GPS_FIX_HOME|GPS_FIX|SMALL_ANGLE, IDLE, 1, 1
816, 103814285,   1,   0,   3,   0,   0,   0,   4,  -2,   0,   0,  -1,   0, 1000, 1.843, 1023,  -1,   0,  -1, -14, -18, 4239, 123, 122, 131, 157, ANGLE_MODE, GPS_FIX_HOME|GPS_FIX|SMALL_ANGLE, IDLE, 1, 1
824, 103818350,   0,  -1,  -2,   0,   0,   0,   0,  -2,   0,   0,  -1,   0, 1000, 1.852, 1023,  -1,   1,   1, -17, -24, 4245, 115, 142, 127, 132, ANGLE_MODE, GPS_FIX_HOME|GPS_FIX|SMALL_ANGLE, IDLE, 1, 1
832, 103822691,   0,   0,  -4,   0,   0,   0,  -3,   0,   0,   0,  -1,   0, 1000, 1.852, 1023,   0,   0,   1, -20, -29, 4245, 130, 145, 133, 115, ANGLE_MODE, GPS_FIX_HOME|GPS_FIX|SMALL_ANGLE, IDLE, 1, 1
840, 103826769,   0,   0,   1,   0,   0,   0,   0,   1,   0,   0,  -1,   0, 1000, 1.852, 1023,   0,   0,   0, -26, -42, 4240, 127, 117, 119, 119, ANGLE_MODE, GPS_FIX_HOME|GPS_FIX|SMALL_ANGLE, IDLE, 1, 1
848, 103830835,   1,   0,   4,   0,   0,   0,   4,  -1,   0,   0,   0,   0, 1000, 1.852, 1023,  -1,   0,  -1, -20, -43, 4243, 129, 119, 133, 157, ANGLE_MODE, GPS_FIX_HOME|GPS_FIX|SMALL_ANGLE, IDLE, 1, 1
856, 103834964,   0,   0,   0,   0,   0,   0,  -2,   0,   0,   0,   0,   0, 1000, 1.852, 1023,   0,   1,   0, -22, -40, 4245, 124, 133, 117, 121, ANGLE_MODE, GPS_FIX_HOME|GPS_FIX|SMALL_ANGLE, IDLE, 1, 1
864, 103839036,  -1,   0,  -3,   0,   0,   0,  -4,   0,   0,   0,   0,   0, 1000, 1.852, 1023,   1,   0,   1, -19, -35, 4242, 138, 156, 130, 117, ANGLE_MODE, GPS_FIX_HOME|GPS_FIX|SMALL_ANGLE, IDLE, 1, 1
872, 103843110,   0,   0,   0,   0,   0,   0,   3,   1,   0,   0,   0,   0, 1000, 1.852, 1023,   0,   0,   0, -24, -45, 4240, 119, 115, 132, 130, ANGLE_MODE, GPS_FIX_HOME|GPS_FIX|SMALL_ANGLE, IDLE, 1, 1
880, 103847187,   1,  -1,   4,   0,   0,   0,   4,  -1,   0,   0,   0,   0, 1000, 1.852, 1023,  -1,   0,  -1, -18, -51, 4243, 127, 122, 133, 163, ANGLE_MODE, GPS_FIX_HOME|GPS_FIX|SMALL_ANGLE, IDLE, 1, 1
888, 103851246,   0,   0,   0,   0,   0,   0,  -2,   0,   0,   0,   0,   0, 1000, 1.852, 1023,   0,   0,   0, -19, -38, 4247, 129, 127, 116, 117, ANGLE_MODE, GPS_FIX_HOME|GPS_FIX|SMALL_ANGLE, IDLE, 1, 1
896, 103855312,  -1,   0,  -5,   0,   0,   0,  -6,   0,   0,   0,   0,   0, 1000, 1.852, 1023,   2,   0,   2, -17, -21, 4243, 151, 172, 135, 116, ANGLE_MODE, GPS_FIX_HOME|GPS_FIX|SMALL_ANGLE, IDLE, 1, 1
904, 103859383,   0,   0,  -1,   0,   0,   0,   1,   0,   0,   0,   0,   0, 1000, 1.852, 1023,   1,   0,   1, -24, -21, 4243, 115, 126, 124, 122, ANGLE_MODE, GPS_FIX_HOME|GPS_FIX|SMALL_ANGLE, IDLE, 1, 1
912, 103863467,   1,  -1,   2,   0,   0,   0,   8,  -1,   0,   0,   0,   0, 1000, 1.852, 1023,  -2,   1,  -1, -18, -41, 4240, 121, 123, 153, 178, ANGLE_MODE, GPS_FIX_HOME|GPS_FIX|SMALL_ANGLE, IDLE, 1, 1
920, 103867554,   1,   0,   3,   0,   0,   0,   1,   1,   0,   0,   0,   0, 1000, 1.852, 1023,  -1,   0,  -1, -18, -41, 4244, 130, 115, 128, 138, ANGLE_MODE, GPS_FIX_HOME|GPS_FIX|SMALL_ANGLE, IDLE, 1, 1
928, 103871620,  -1,   0,  -3,   0,   0,   0,  -9,   1,   0,   0,   0,   0, 1000, 1.852, 1023,   2,   0,   1, -15, -15, 4241, 163, 173, 129, 115, ANGLE_MODE, GPS_FIX_HOME|GPS_FIX|SMALL_ANGLE, IDLE, 1, 1
936, 103875701,  -1,   0,  -1,   0,   0,   0,  -5,   0,   0,   0,   0,   0, 1000, 1.852, 1023,   2,   0,   1, -21,   2, 4240, 144, 150, 123, 115, ANGLE_MODE, GPS_FIX_HOME|GPS_FIX|SMALL_ANGLE, IDLE, 1, 1
944, 103879765,   1,  -1,   1,   0,   0,   0,   9,  -2,   0,   0,   0,   0, 1000, 1.852, 1023,  -1,   1,  -1, -25, -11, 4234, 118, 127, 155, 176, ANGLE_MODE, GPS_FIX_HOME|GPS_FIX|SMALL_ANGLE, IDLE, 1, 1
952, 103883850,   2,   0,   1,   0,   0,   0,   8,   0,   0,   0,   0,   0, 1000, 1.852, 1023,  -3,   0,   0, -23, -32, 4239, 118, 120, 159, 170, ANGLE_MODE, GPS_FIX_HOME|GPS_FIX|SMALL_ANGLE, IDLE, 1, 1
960, 103887917,   0,   0,  -3,   0,   0,   0,  -5,   1,   0,   0,  -1,   0, 1000, 1.852, 1023,   0,   0,   1, -17, -23, 4242, 140, 152, 132, 115, ANGLE_MODE, GPS_FIX_HOME|GPS_FIX|SMALL_ANGLE, IDLE, 1, 1
968, 103891971,  -2,   0,  -2,   0,   0,   0, -10,   1,   0,   0,  -1,   0, 1000, 1.852, 1023,   3,  -1,   1, -18,   3, 4242, 173, 177, 131, 115, ANGLE_MODE, GPS_FIX_HOME|GPS_FIX|SMALL_ANGLE, IDLE, 1, 1
976, 103896051,   0,   0,   2,   0,   0,   0,   1,   0,   0,   0,  -1,   0, 1000, 1.852, 1023,   0,   0,  -1, -22,  15, 4234, 122, 118, 118, 131, ANGLE_MODE, GPS_FIX_HOME|GPS_FIX|SMALL_ANGLE, IDLE, 1, 1
984, 103900150,   2,  -1,   3,   0,   0,   0,  12,  -2,   0,   0,  -1,   0, 1000, 1.852, 1023,  -3,   0,  -1, -16,  13, 4234, 123, 122, 172, 199, ANGLE_MODE, GPS_FIX_HOME|GPS_FIX|SMALL_ANGLE, IDLE, 1, 1
992, 103904240,   1,   0,   0,   0,   0,   0,   2,   0,   0,   0,  -1,   1, 1000, 1.852, 1023,  -2,   0,   0,  -9,  17, 4239, 117, 118, 130, 136, ANGLE_MODE, GPS_FIX_HOME|GPS_FIX|SMALL_ANGLE, IDLE, 1, 1
1000, 103908327,  -1,   0,   0,   0,   0,   0, -11,   1,   0,   0,  -1,   3, 1000, 1.852, 1023,   1,   0,   2,  -3,  46, 4240, 173, 165, 122, 116, ANGLE_MODE, GPS_FIX_HOME|GPS_FIX|SMALL_ANGLE, IDLE, 1, 1
1008, 103912393,  -1,   0,   5,   0,   0,   0,  -5,   1,   0,   0,  -1,   3, 1000, 1.852, 1023,   2,   0,   0,  -3,  63, 4230, 169, 145, 117, 134, ANGLE_MODE, GPS_FIX_HOME|GPS_FIX|SMALL_ANGLE, IDLE, 1, 1
1016, 103916490,   1,   0,  16,   0,   0,   0,   9,  -2,   0,   0,  -1,  10, 1000, 1.852, 1023,  -2,   0,   0,  -4,  44, 4227, 175, 122, 154, 232, ANGLE_MODE, GPS_FIX_HOME|GPS_FIX|SMALL_ANGLE, IDLE, 1, 1
1024, 103920809,   2,  -1,   8,   0,   0,   0,   8,  -1,   0,   0,  -1,  10, 1000, 1.843, 1023,  -3,   1,   3,  -2,  23, 4235, 142, 121, 154, 198, ANGLE_MODE, GPS_FIX_HOME|GPS_FIX|SMALL_ANGLE, IDLE, 1, 1
1032, 103924868,   0,   0,  -1,   0,   0,   0,  -9,   1,   0,   0,  -1,  10, 1000, 1.843, 1023,   1,   0,   6,  -1,  21, 4242, 160, 159, 124, 115, ANGLE_MODE, GPS_FIX_HOME|GPS_FIX|SMALL_ANGLE, IDLE, 1, 1
1040, 103928929,  -2,   0,   5,   0,   0,   0,  -8,   3,   0,   0,  -1,  10, 1000, 1.843, 1023,   2,  -1,   3,  -4,  30, 4236, 186, 149, 123, 130, ANGLE_MODE, GPS_FIX_HOME|GPS_FIX|SMALL_ANGLE, IDLE, 1, 1
1048, 103932977,   0,   0,  11,   0,   0,   0,   5,  -1,   0,   0,  -1,  10, 1000, 1.843, 1023,  -1,   0,   1, -14,  16, 4226, 160, 119, 138, 192, ANGLE_MODE, GPS_FIX_HOME|GPS_FIX|SMALL_ANGLE, IDLE, 1, 1
1056, 103937017,   2,  -1,   9,   0,   0,   0,   9,  -3,   0,   0,  -1,  10, 1000, 1.843, 1023,  -2,   1,   2, -13,  -2, 4232, 144, 126, 152, 211, ANGLE_MODE, GPS_FIX_HOME|GPS_FIX|SMALL_ANGLE, IDLE, 1, 1
1064, 103941087,   0,   0,   8,   0,   0,   0,  -3,   1,   0,   0,  -1,  10, 1000, 1.843, 1023,   0,   0,   2, -13, -17, 4246, 163, 126, 117, 148, ANGLE_MODE, GPS_FIX_HOME|GPS_FIX|SMALL_ANGLE, IDLE, 1, 1
1072, 103945151,   0,   0,  10,   0,   0,   0,  -6,   3,   0,   0,  -1,  10, 1000, 1.843, 1023,   1,  -1,   2, -12, -14, 4244, 193, 136, 123, 150, ANGLE_MODE, GPS_FIX_HOME|GPS_FIX|SMALL_ANGLE, IDLE, 1, 1
1080, 103949212,   0,   0,  14,   0,   0,   0,   0,   0,   0,   0,  -1,  10, 1000, 1.843, 1023,   0,  -1,   0, -21, -11, 4234, 175, 115, 117, 174, ANGLE_MODE, GPS_FIX_HOME|GPS_FIX|SMALL_ANGLE, IDLE, 1, 1
1088, 103953291,   1,  -1,  12,   0,   0,   0,   5,  -4,   0,   0,  -1,  10, 1000, 1.843, 1023,  -1,   1,   1, -19, -22, 4231, 156, 126, 130, 202, ANGLE_MODE, GPS_FIX_HOME|GPS_FIX|SMALL_ANGLE, IDLE, 1, 1
1096, 103957358,   0,   0,   7,   0,   0,   0,  -1,   0,   0,   0,  -1,   8, 1000, 1.852, 1023,   0,   0,   2, -15, -21, 4244, 151, 124, 115, 147, ANGLE_MODE, GPS_FIX_HOME|GPS_FIX|SMALL_ANGLE, IDLE, 1, 1
1104, 103961433,   0,   0,   9,   0,   0,   0,  -4,   1,   0,   0,  -1,   7, 1000, 1.852, 1023,   1,   0,   1, -13, -20, 4247, 178, 136, 117, 151, ANGLE_MODE, GPS_FIX_HOME|GPS_FIX|SMALL_ANGLE, IDLE, 1, 1
1112, 103965579,   0,   0,  13,   0,   0,   0,   2,   0,   0,   0,  -1,   7, 1000, 1.852, 1023,   0,   0,  -1, -13, -10, 4237, 171, 115, 126, 181, ANGLE_MODE, GPS_FIX_HOME|GPS_FIX|SMALL_ANGLE, IDLE, 1, 1
1120, 103969635,   0,  -1,  12,   0,   0,   0,   2,  -2,   0,   0,  -1,   7, 1000, 1.852, 1023,   0,   1,  -1,   9, -21, 4232, 162, 125, 121, 187, ANGLE_MODE, GPS_FIX_HOME|GPS_FIX|SMALL_ANGLE, IDLE, 1, 1
1128, 103973705,   0,   0,  11,   0,   0,   0,   0,   0,   0,   0,  -1,   7, 1000, 1.852, 1023,   0,   0,   0,  22, -28, 4244, 162, 118, 117, 169, ANGLE_MODE, GPS_FIX_HOME|GPS_FIX|SMALL_ANGLE, IDLE, 1, 1
1136, 103977766,   0,  -1,  11,   0,   0,   0,  -1,   0,   0,   0,  -1,   7, 1000, 1.852, 1023,   0,   1,   0,  33, -20, 4242, 168, 127, 115, 167, ANGLE_MODE, GPS_FIX_HOME|GPS_FIX|SMALL_ANGLE, IDLE, 1, 1
1144, 103981825,  -1,   0,  11,   0,   0,   0,  -3,   1,   0,   0,  -1,   7, 1000, 1.852, 1023,   1,   0,   0,  27, -15, 4234, 182, 134, 117, 160, ANGLE_MODE, GPS_FIX_HOME|GPS_FIX|SMALL_ANGLE, IDLE, 1, 1
1152, 103985885,   0,  -1,  13,   0,   0,   0,   2,   0,   0,   0,  -1,   7, 1000, 1.852, 1023,   0,   1,  -1,  28, -23, 4228, 166, 118, 125, 184, ANGLE_MODE, GPS_FIX_HOME|GPS_FIX|SMALL_ANGLE, IDLE, 1, 1
1160, 103989948,   1,  -1,   9,   0,   0,   0,   5,  -2,   0,   0,  -1,   5, 1000, 1.852, 1023,  -1,   1,  -1,  31, -34, 4236, 145, 124, 133, 189, ANGLE_MODE, GPS_FIX_HOME|GPS_FIX|SMALL_ANGLE, IDLE, 1, 1
1168, 103994008,   0,  -1,   8,   0,   0,   0,  -2,   0,   0,   0,  -1,   5, 1000, 1.852, 1023,   0,   1,   0,  28, -31, 4242, 158, 131, 115, 153, ANGLE_MODE, GPS_FIX_HOME|GPS_FIX|SMALL_ANGLE, IDLE, 1, 1
1176, 103998084,  -2,   0,   7,   0,   0,   0,  -7,   3,   0,   0,  -1,   5, 1000, 1.843, 1023,   2,   0,   0,  20, -17, 4235, 192, 147, 122, 141, ANGLE_MODE, GPS_FIX_HOME|GPS_FIX|SMALL_ANGLE, IDLE, 1, 1
1184, 104002176,   0,   0,  10,   0,   0,   0,   1,   0,   0,   0,  -1,   5, 1000, 1.843, 1023,   0,   0,  -1,  15, -21, 4228, 156, 116, 119, 160, ANGLE_MODE, GPS_FIX_HOME|GPS_FIX|SMALL_ANGLE, IDLE, 1, 1
1192, 104006241,   1,  -1,  12,   0,   0,   0,   7,  -4,   0,   0,  -1,   5, 1000, 1.843, 1023,  -1,   1,  -2,   7, -39, 4235, 155, 128, 139, 215, ANGLE_MODE, GPS_FIX_HOME|GPS_FIX|SMALL_ANGLE, IDLE, 1, 1
1200, 104010307,   0,  -1,   9,   0,   0,   0,   0,   0,   0,   0,  -1,   5, 1000, 1.843, 1023,   0,   0,  -1,  -1, -35, 4241, 155, 118, 115, 156, ANGLE_MODE, GPS_FIX_HOME|GPS_FIX|SMALL_ANGLE, IDLE, 1, 1
1208, 104014647,  -2,   0,   5,   0,   0,   0,  -8,   5,   0,   0,  -1,   5, 1000, 1.843, 1023,   2,  -1,   1,   1, -19, 4237, 196, 150, 127, 128, ANGLE_MODE, GPS_FIX_HOME|GPS_FIX|SMALL_ANGLE, IDLE, 1, 1
1216, 104018717,   0,   0,   8,   0,   0,   0,   0,   0,   0,   0,  -1,   5, 1000, 1.852, 1023,   1,   0,   0, -13, -19, 4238, 151, 121, 115, 155, ANGLE_MODE, GPS_FIX_HOME|GPS_FIX|SMALL_ANGLE, IDLE, 1, 1
1224, 104022770,   1,  -1,  10,   0,   0,   0,  10,  -4,   0,   0,  -1,   4, 1000, 1.852, 1023,  -2,   1,  -1, -23, -36, 4242, 143, 128, 149, 215, ANGLE_MODE, GPS_FIX_HOME|GPS_FIX|SMALL_ANGLE, IDLE, 1, 1
1232, 104026844,   0,   0,   7,   0,   0,   0,   0,   1,   0,   0,  -1,   4, 1000, 1.852, 1023,   0,   0,   0, -20, -34, 4246, 150, 116, 118, 145, ANGLE_MODE, GPS_FIX_HOME|GPS_FIX|SMALL_ANGLE, IDLE, 1, 1
1240, 104030908,  -1,   0,   4,   0,   0,   0,  -7,   5,   0,   0,  -1,   4, 1000, 1.852, 1023,   2,  -1,   0, -13, -17, 4248, 184, 141, 128, 125, ANGLE_MODE, GPS_FIX_HOME|GPS_FIX|SMALL_ANGLE, IDLE, 1, 1
1248, 104034956,   0,  -1,   6,   0,   0,   0,   0,  -3,   0,   0,  -1,   4, 1000, 1.852, 1023,   1,   1,   0, -20,  -6, 4248, 143, 137, 115, 157, ANGLE_MODE, GPS_FIX_HOME|GPS_FIX|SMALL_ANGLE, IDLE, 1, 1
1256, 104039018,   0,  -2,   8,   0,   0,   0,   5,  -5,   0,   0,  -1,   4, 1000, 1.843, 1023,  -1,   1,  -1, -28, -12, 4248, 136, 133, 129, 193, ANGLE_MODE, GPS_FIX_HOME|GPS_FIX|SMALL_ANGLE, IDLE, 1, 1
1264, 104043088,   0,   0,  10,   0,   0,   0,   1,   4,   0,   0,  -1,   4, 1000, 1.843, 1023,  -1,   0,  -2, -25,  -9, 4249, 168, 115, 135, 163, ANGLE_MODE, GPS_FIX_HOME|GPS_FIX|SMALL_ANGLE, IDLE, 1, 1
1272, 104047151,   0,   0,   7,   0,   0,   0,  -1,   5,   0,   0,  -1,   4, 1000, 1.843, 1023,   0,  -1,   0, -28,  21, 4252, 169, 117, 137, 143, ANGLE_MODE, GPS_FIX_HOME|GPS_FIX|SMALL_ANGLE, IDLE, 1, 1
1280, 104051216,   0,  -1,   2,   0,   0,   0,  -1,  -3,   0,   0,  -1,   3, 1000, 1.843, 1023,   0,   1,   1, -43,  45, 4258, 128, 137, 115, 144, ANGLE_MODE, GPS_FIX_HOME|GPS_FIX|SMALL_ANGLE, IDLE, 1, 1
1288, 104055278,   0,  -1,   4,   0,   0,   0,   0,  -5,   0,   0,  -1,   3, 1000, 1.843, 1023,   0,   1,   0, -61,  45, 4262, 133, 142, 116, 162, ANGLE_MODE, GPS_FIX_HOME|GPS_FIX|SMALL_ANGLE, IDLE, 1, 1
1296, 104059336,   1,   0,   9,   0,   0,   0,   1,   4,   0,   0,  -1,   3, 1000, 1.852, 1023,  -1,   0,  -2, -53,  49, 4256, 168, 115, 138, 160, ANGLE_MODE, GPS_FIX_HOME|GPS_FIX|SMALL_ANGLE, IDLE, 1, 1
1304, 104063430,   1,   0,   6,   0,   0,   0,   3,   3,   0,   0,  -1,   3, 1000, 1.852, 1023,  -2,  -1,  -1, -48,  49, 4255, 151, 115, 145, 154, ANGLE_MODE, GPS_FIX_HOME|GPS_FIX|SMALL_ANGLE, IDLE, 1, 1
1312, 104067492,   1,  -1,   1,   0,   0,   0,   0,  -3,   0,   0,  -1,   3, 1000, 1.852, 1023,  -1,   1,   1, -49,  49, 4261, 121, 134, 116, 141, ANGLE_MODE, GPS_FIX_HOME|GPS_FIX|SMALL_ANGLE, IDLE, 1, 1
1320, 104071553,   0,   0,   1,   0,   0,   0,  -4,  -2,   0,   0,  -1,   3, 1000, 1.852, 1023,   0,   0,   1, -52,  41, 4264, 139, 146, 115, 130, ANGLE_MODE, GPS_FIX_HOME|GPS_FIX|SMALL_ANGLE, IDLE, 1, 1
1328, 104075605,   1,   0,   8,   0,   0,   0,   1,   4,   0,   0,  -1,   3, 1000, 1.852, 1023,  -1,  -1,  -1, -48,  32, 4253, 159, 115, 139, 154, ANGLE_MODE, GPS_FIX_HOME|GPS_FIX|SMALL_ANGLE, IDLE, 1, 1
1336, 104079677,   2,   0,   8,   0,   0,   0,   5,   1,   0,   0,  -1,   3, 1000, 1.843, 1023,  -2,  -1,  -1, -40,  21, 4248, 156, 115, 150, 178, ANGLE_MODE, GPS_FIX_HOME|GPS_FIX|SMALL_ANGLE, IDLE, 1, 1
1344, 104083769,   0,  -1,   1,   0,   0,   0,  -2,  -4,   0,   0,  -1,   3, 1000, 1.843, 1023,  -1,   1,   1, -35,  18, 4253, 126, 141, 115, 142, ANGLE_MODE, GPS_FIX_HOME|GPS_FIX|SMALL_ANGLE, IDLE, 1, 1
1352, 104087878,   0,   0,   0,   0,   0,   0,  -6,  -1,   0,   0,  -1,   3, 1000, 1.843, 1023,   1,   0,   1, -35,  17, 4258, 144, 148, 115, 125, ANGLE_MODE, GPS_FIX_HOME|GPS_FIX|SMALL_ANGLE, IDLE, 1, 1
1360, 104091950,   0,   0,   5,   0,   0,   0,   0,   4,   0,   0,  -1,   3, 1000, 1.843, 1023,   0,  -1,   0, -32,   6, 4248, 157, 115, 138, 142, ANGLE_MODE, GPS_FIX_HOME|GPS_FIX|SMALL_ANGLE, IDLE, 1, 1
1368, 104096016,   1,   0,   7,   0,   0,   0,   6,   0,   0,   0,  -1,   3, 1000, 1.843, 1023,  -2,  -1,  -1, -26,  -9, 4238, 148, 115, 148, 177, ANGLE_MODE, GPS_FIX_HOME|GPS_FIX|SMALL_ANGLE, IDLE, 1, 1
1376, 104100093,   1,  -1,   3,   0,   0,   0,   0,  -4,   0,   0,  -1,   3, 1000, 1.852, 1023,  -1,   1,   0, -20, -19, 4243, 126, 134, 119, 156, ANGLE_MODE, GPS_FIX_HOME|GPS_FIX|SMALL_ANGLE, IDLE, 1, 1
1384, 104104161,   0,  -1,   0,   0,   0,   0,  -6,  -1,   0,   0,  -1,   3, 1000, 1.852, 1023,   1,   0,   2, -15, -21, 4251, 147, 156, 115, 126, ANGLE_MODE, GPS_FIX_HOME|GPS_FIX|SMALL_ANGLE, IDLE, 1, 1
1392, 104108481,   0,   0,   3,   0,   0,   0,  -2,   3,   0,   0,  -1,   3, 1000, 1.852, 1023,   1,   0,   0, -12, -13, 4246, 148, 123, 121, 123, ANGLE_MODE, GPS_FIX_HOME|GPS_FIX|SMALL_ANGLE, IDLE, 1, 1
1400, 104112539,   0,   0,   6,   0,   0,   0,   4,   0,   0,   0,  -1,   3, 1000, 1.852, 1023,  -1,   0,  -1, -13, -20, 4240, 141, 115, 136, 159, ANGLE_MODE, GPS_FIX_HOME|GPS_FIX|SMALL_ANGLE, IDLE, 1, 1
1408, 104116593,   1,  -1,   2,   0,   0,   0,   3,  -2,   0,   0,  -1,   1, 1000, 1.852, 1023,  -1,   1,   0,  -9, -32, 4245, 120, 127, 133, 157, ANGLE_MODE, GPS_FIX_HOME|GPS_FIX|SMALL_ANGLE, IDLE, 1, 1
1416, 104120639,   0,  -1,   0,   0,   0,   0,  -1,  -2,   0,   0,  -1,   1, 1000, 1.852, 1023,   0,   1,   0,  -9, -35, 4254, 125, 136, 115, 133, ANGLE_MODE, GPS_FIX_HOME|GPS_FIX|SMALL_ANGLE, IDLE, 1, 1
1424, 104124690,  -1,   0,   2,   0,   0,   0,  -6,   1,   0,   0,  -1,   1, 1000, 1.852, 1023,   2,   0,   0,  -8, -21, 4251, 160, 149, 116, 124, ANGLE_MODE, GPS_FIX_HOME|GPS_FIX|SMALL_ANGLE, IDLE, 1, 1
1432, 104128746,  -1,   0,   3,   0,   0,   0,  -1,   2,   0,   0,  -1,   1, 1000, 1.852, 1023,   2,   0,  -1,  -9, -15, 4243, 149, 124, 120, 127, ANGLE_MODE, GPS_FIX_HOME|GPS_FIX|SMALL_ANGLE, IDLE, 1, 1
1440, 104132914,   0,  -1,   4,   0,   0,   0,   4,   0,   0,   0,  -1,   1, 1000, 1.852, 1023,   0,   1,  -1,  -7, -27, 4245, 131, 120, 131, 158, ANGLE_MODE, GPS_FIX_HOME|GPS_FIX|SMALL_ANGLE, IDLE, 1, 1
1448, 104137023,   1,  -1,   0,   0,   0,   0,   5,  -3,   0,   0,  -1,   0, 1000, 1.852, 1023,  -1,   1,   0,  -8, -42, 4256, 117, 134, 138, 162, ANGLE_MODE, GPS_FIX_HOME|GPS_FIX|SMALL_ANGLE, IDLE, 1, 1
1456, 104141065,   0,  -1,  -1,   0,   0,   0,  -4,   0,   0,   0,  -1,   0, 1000, 1.852, 1023,   1,   1,   0,  -9, -33, 4253, 133, 141, 119, 117, ANGLE_MODE, GPS_FIX_HOME|GPS_FIX|SMALL_ANGLE, IDLE, 1, 1
1464, 104145129,  -2,   0,   0,   0,   0,   0,  -7,   2,   0,   0,  -1,   0, 1000, 1.852, 1023,   3,   0,   0, -12, -15, 4245, 166, 160, 128, 115, ANGLE_MODE, GPS_FIX_HOME|GPS_FIX|SMALL_ANGLE, IDLE, 1, 1
1472, 104149192,  -1,   0,   1,   0,   0,   0,   1,   1,   0,   0,  -1,   0, 1000, 1.852, 1023,   1,   0,  -1, -13, -14, 4241, 124, 115, 120, 122, ANGLE_MODE, GPS_FIX_HOME|GPS_FIX|SMALL_ANGLE, IDLE, 1, 1
1480, 104153264,   1,  -1,   2,   0,   0,   0,   9,  -4,   0,   0,  -1,   0, 1000, 1.852, 1023,  -1,   1,  -1, -16, -26, 4246, 121, 136, 154, 191, ANGLE_MODE, GPS_FIX_HOME|GPS_FIX|SMALL_ANGLE, IDLE, 1, 1
1488, 104157335,   0,  -1,   0,   0,   0,   0,   1,   0,   0,   0,  -1,   0, 1000, 1.843, 1023,  -1,   1,   0, -18, -31, 4241, 117, 124, 124, 138, ANGLE_MODE, GPS_FIX_HOME|GPS_FIX|SMALL_ANGLE, IDLE, 1, 1
1496, 104161422,  -1,   0,  -1,   0,   0,   0,  -8,   3,   0,   0,  -1,   0, 1000, 1.843, 1023,   2,   0,   1, -18,  -5, 4233, 166, 160, 132, 115, ANGLE_MODE, GPS_FIX_HOME|GPS_FIX|SMALL_ANGLE, IDLE, 1, 1
1504, 104165488,  -2,   0,  -1,   0,   0,   0,  -5,   3,   0,   0,  -1,   0, 1000, 1.843, 1023,   2,   0,   0, -14,  11, 4226, 154, 148, 131, 115, ANGLE_MODE, GPS_FIX_HOME|GPS_FIX|SMALL_ANGLE, IDLE, 1, 1
1512, 104169548,   1,  -1,   1,   0,   0,   0,   9,  -4,   0,   0,  -1,   0, 1000, 1.843, 1023,  -1,   1,  -1, -19,  -4, 4227, 119, 137, 154, 186, ANGLE_MODE, GPS_FIX_HOME|GPS_FIX|SMALL_ANGLE, IDLE, 1, 1
1520, 104173608,   2,  -1,   0,   0,   0,   0,   8,  -2,   0,   0,  -1,   0, 1000, 1.843, 1023,  -2,   1,   0, -19, -19, 4228, 115, 132, 160, 173, ANGLE_MODE, GPS_FIX_HOME|GPS_FIX|SMALL_ANGLE, IDLE, 1, 1
1528, 104177664,   0,   0,  -4,   0,   0,   0,  -7,   2,   0,   0,  -1,   0, 1000, 1.852, 1023,   1,   0,   2, -17,  -9, 4226, 151, 163, 138, 115, ANGLE_MODE, GPS_FIX_HOME|GPS_FIX|SMALL_ANGLE, IDLE, 1, 1
1536, 104181731,  -2,   0,  -2,   0,   0,   0,  -9,   3,   0,   0,  -1,   0, 1000, 1.852, 1023,   3,  -1,   1, -22,  18, 4225, 177, 170, 137, 115, ANGLE_MODE, GPS_FIX_HOME|GPS_FIX|SMALL_ANGLE, IDLE, 1, 1
1544, 104185789,   0,   0,   1,   0,   0,   0,   5,  -1,   0,   0,  -1,   0, 1000, 1.852, 1023,   0,   0,   0, -37,  17, 4224, 118, 121, 134, 147, ANGLE_MODE, GPS_FIX_HOME|GPS_FIX|SMALL_ANGLE, IDLE, 1, 1
1552, 104189872,   2,  -1,   1,   0,   0,   0,  11,  -4,   0,   0,  -1,   0, 1000, 1.852, 1023,  -3,   1,  -1, -44,  -2, 4228, 119, 135, 168, 199, ANGLE_MODE, GPS_FIX_HOME|GPS_FIX|SMALL_ANGLE, IDLE, 1, 1
1560, 104193934,   1,   0,  -3,   0,   0,   0,   0,   1,   0,   0,  -1,   0, 1000, 1.852, 1023,  -1,   0,   1, -48,   0, 4228, 117, 127, 135, 118, ANGLE_MODE, GPS_FIX_HOME|GPS_FIX|SMALL_ANGLE, IDLE, 1, 1
1568, 104197998,  -2,   0,  -2,   0,   0,   0, -11,   3,   0,   0,  -1,   0, 1000, 1.843, 1023,   2,  -1,   1, -46,  25, 4232, 177, 177, 134, 115, ANGLE_MODE, GPS_FIX_HOME|GPS_FIX|SMALL_ANGLE, IDLE, 1, 1
1576, 104202312,   0,   0,   0,   0,   0,   0,  -2,   1,   0,   0,  -1,   0, 1000, 1.843, 1023,   1,   0,   0, -46,  32, 4230, 132, 126, 117, 117, ANGLE_MODE, GPS_FIX_HOME|GPS_FIX|SMALL_ANGLE, IDLE, 1, 1
1584, 104206382,   2,  -1,   2,   0,   0,   0,  12,  -3,   0,   0,  -1,   0, 1000, 1.843, 1023,  -3,   0,  -1, -49,   9, 4233, 120, 131, 174, 202, ANGLE_MODE, GPS_FIX_HOME|GPS_FIX|SMALL_ANGLE, IDLE, 1, 1
1592, 104210459,   2,   0,  -3,   0,   0,   0,   4,   0,   0,   0,  -1,   0, 1000, 1.843, 1023,  -2,   0,   1, -42,  -6, 4234, 115, 129, 153, 143, ANGLE_MODE, GPS_FIX_HOME|GPS_FIX|SMALL_ANGLE, IDLE, 1, 1
1600, 104214614,   0,   0,  -3,   0,   0,   0, -10,   2,   0,   0,  -1,   0, 1000, 1.843, 1023,   1,  -1,   1, -37,   9, 4238, 163, 170, 135, 115, ANGLE_MODE, GPS_FIX_HOME|GPS_FIX|SMALL_ANGLE, IDLE, 1, 1
1608, 104218674,  -1,   0,   1,   0,   0,   0,  -5,   2,   0,   0,  -1,   0, 1000, 1.852, 1023,   1,  -1,  -1, -38,  22, 4236, 158, 140, 123, 119, ANGLE_MODE, GPS_FIX_HOME|GPS_FIX|SMALL_ANGLE, IDLE, 1, 1
1616, 104222737,   2,   0,   4,   0,   0,   0,   8,  -2,   0,   0,  -1,   0, 1000, 1.852, 1023,  -2,   0,  -1, -36,  10, 4230, 126, 121, 152, 180, ANGLE_MODE, GPS_FIX_HOME|GPS_FIX|SMALL_ANGLE, IDLE, 1, 1
1624, 104226812,   3,   0,   0,   0,   0,   0,   7,  -2,   0,   0,  -1,   0, 1000, 1.852, 1023,  -3,   0,   0, -32,  -7, 4234, 115, 129, 161, 170, ANGLE_MODE, GPS_FIX_HOME|GPS_FIX|SMALL_ANGLE, IDLE, 1, 1
1632, 104230867,   0,   0,  -3,   0,   0,   0,  -7,   0,   0,   0,  -1,   0, 1000, 1.852, 1023,   0,   0,   1, -27,  -7, 4240, 146, 158, 130, 115, ANGLE_MODE, GPS_FIX_HOME|GPS_FIX|SMALL_ANGLE, IDLE, 1, 1
1640, 104234932,  -1,   0,   0,   0,   0,   0,  -7,   2,   0,   0,  -1,  -1, 1000, 1.852, 1023,   1,  -1,   0, -25,  11, 4241, 162, 149, 124, 117, ANGLE_MODE, GPS_FIX_HOME|GPS_FIX|SMALL_ANGLE, IDLE, 1, 1
1648, 104239003,   1,   0,   2,   0,   0,   0,   4,   0,   0,   0,  -1,  -1, 1000, 1.852, 1023,  -1,   0,  -1, -23,   5, 4236, 124, 117, 138, 151, ANGLE_MODE, GPS_FIX_HOME|GPS_FIX|SMALL_ANGLE, IDLE, 1, 1
1656, 104243088,   2,  -1,  -1,   0,   0,   0,   8,  -2,   0,   0,  -1,  -1, 1000, 1.852, 1023,  -3,   0,   0, -19, -16, 4240, 115, 135, 166, 174, ANGLE_MODE, GPS_FIX_HOME|GPS_FIX|SMALL_ANGLE, IDLE, 1, 1
1664, 104247158,   0,   0,  -4,   0,   0,   0,  -3,   0,   0,   0,  -1,  -1, 1000, 1.852, 1023,  -1,   0,   1, -10, -22, 4246, 124, 145, 133, 116, ANGLE_MODE, GPS_FIX_HOME|GPS_FIX|SMALL_ANGLE, IDLE, 1, 1
1672, 104251221,  -1,   0,  -1,   0,   0,   0,  -8,   1,   0,   0,  -1,  -1, 1000, 1.852, 1023,   1,   0,   0, -11, -10, 4245, 155, 158, 123, 115, ANGLE_MODE, GPS_FIX_HOME|GPS_FIX|SMALL_ANGLE, IDLE, 1, 1
1680, 104255282,   0,   0,   2,   0,   0,   0,   0,   1,   0,   0,  -1,  -1, 1000, 1.852, 1023,   0,  -1,  -2, -16,  -1, 4237, 132, 115, 120, 127, ANGLE_MODE, GPS_FIX_HOME|GPS_FIX|SMALL_ANGLE, IDLE, 1, 1
1688, 104259349,   1,   0,   0,   0,   0,   0,   6,  -1,   0,   0,  -1,  -1, 1000, 1.852, 1023,  -2,   0,  -1, -20, -11, 4236, 116, 125, 150, 161, ANGLE_MODE, GPS_FIX_HOME|GPS_FIX|SMALL_ANGLE, IDLE, 1, 1
1696, 104263424,   1,  -1,  -6,   0,   0,   0,   0,  -1,   0,   0,  -1,  -1, 1000, 1.852, 1023,  -1,   0,   2, -21, -10, 4242, 115, 145, 144, 129, ANGLE_MODE, GPS_FIX_HOME|GPS_FIX|SMALL_ANGLE, IDLE, 1, 1
1704, 104267497,  -1,   0,  -4,   0,   0,   0,  -8,   0,   0,   0,  -1,  -1, 1000, 1.852, 1023,   1,   0,   1, -29,  -7, 4242, 154, 173, 132, 116, ANGLE_MODE, GPS_FIX_HOME|GPS_FIX|SMALL_ANGLE, IDLE, 1, 1
1712, 104271568,   0,   0,   1,   0,   0,   0,  -2,   1,   0,   0,  -1,  -1, 1000, 1.852, 1023,   1,   0,  -1, -31,   2, 4234, 135, 125, 119, 118, ANGLE_MODE, GPS_FIX_HOME|GPS_FIX|SMALL_ANGLE, IDLE, 1, 1
1720, 104275640,   0,   0,   0,   0,   0,   0,   5,   0,   0,   0,  -1,  -1, 1000, 1.852, 1023,  -1,   0,  -1, -26, -10, 4229, 119, 115, 142, 146, ANGLE_MODE, GPS_FIX_HOME|GPS_FIX|SMALL_ANGLE, IDLE, 1, 1
1728, 104279708,   0,  -1,  -5,   0,   0,   0,   2,  -2,   0,   0,  -1,  -1, 1000, 1.843, 1023,  -1,   0,   1, -18, -17, 4237, 115, 144, 142, 136, ANGLE_MODE, GPS_FIX_HOME|GPS_FIX|SMALL_ANGLE, IDLE, 1, 1
1736, 104283813,  -1,  -1,  -4,   0,   0,   0,  -4,   0,   0,   0,  -1,  -1, 1000, 1.843, 1023,   1,   0,   1, -22, -14, 4239, 136, 162, 131, 119, ANGLE_MODE, GPS_FIX_HOME|GPS_FIX|SMALL_ANGLE, IDLE, 1, 1
1744, 104287869,   0,   0,   0,   0,   0,   0,  -2,   0,   0,   0,  -1,  -1, 1000, 1.843, 1023,   1,   0,  -1, -21, -13, 4230, 131, 130, 116, 116, ANGLE_MODE, GPS_FIX_HOME|GPS_FIX|SMALL_ANGLE, IDLE, 1, 1
1752, 104291935,   0,   0,   2,   0,   0,   0,   4,   1,   0,   0,  -1,  -1, 1000, 1.843, 1023,   0,   0,  -1, -16, -18, 4226, 129, 115, 138, 143, ANGLE_MODE, GPS_FIX_HOME|GPS_FIX|SMALL_ANGLE, IDLE, 1, 1
1760, 104296274,   0,  -1,  -3,   0,   0,   0,   1,  -2,   0,   0,  -1,  -1, 1000, 1.843, 1023,   0,   1,   1,  -6, -18, 4230, 115, 141, 133, 132, ANGLE_MODE, GPS_FIX_HOME|GPS_FIX|SMALL_ANGLE, IDLE, 1, 1
1768, 104300404,   0,  -1,  -5,   0,   0,   0,  -2,  -1,   0,   0,  -1,  -1, 1000, 1.852, 1023,   1,   1,   1,  -8, -12, 4240, 124, 161, 133, 122, ANGLE_MODE, GPS_FIX_HOME|GPS_FIX|SMALL_ANGLE, IDLE, 1, 1
1776, 104304483,   0,  -1,  -2,   0,   0,   0,  -1,   0,   0,   0,  -1,  -1, 1000, 1.852, 1023,   1,   0,   0,  -6, -16, 4232, 124, 139, 125, 117, ANGLE_MODE, GPS_FIX_HOME|GPS_FIX|SMALL_ANGLE, IDLE, 1, 1
1784, 104308584,   0,   0,   3,   0,   0,   0,   5,   2,   0,   0,  -1,  -1, 1000, 1.852, 1023,  -1,   0,  -2,  -6, -23, 4229, 132, 115, 144, 151, ANGLE_MODE, GPS_FIX_HOME|GPS_FIX|SMALL_ANGLE, IDLE, 1, 1
1792, 104312632,   0,   0,  -1,   0,   0,   0,   0,   0,   0,   0,  -1,  -1, 1000, 1.852, 1023,   0,   0,   0,   0, -21, 4233, 116, 126, 119, 120, ANGLE_MODE, GPS_FIX_HOME|GPS_FIX|SMALL_ANGLE, IDLE, 1, 1
1800, 104316691,  -1,  -1,  -6,   0,   0,   0,  -4,   0,   0,   0,  -1,  -1, 1000, 1.852, 1023,   1,   0,   2,  -3,  -9, 4242, 136, 166, 137, 118, ANGLE_MODE, GPS_FIX_HOME|GPS_FIX|SMALL_ANGLE, IDLE, 1, 1
1808, 104320739,   0,  -1,  -4,   0,   0,   0,   0,  -1,   0,   0,  -1,  -1, 1000, 1.852, 1023,   1,   1,   1,  -9, -11, 4238, 119, 149, 130, 125, ANGLE_MODE, GPS_FIX_HOME|GPS_FIX|SMALL_ANGLE, IDLE, 1, 1
1816, 104324812,   0,   0,   0,   0,   0,   0,   5,   2,   0,   0,  -1,  -1, 1000, 1.852, 1023,  -1,   0,  -1,   7, -40, 4233, 123, 115, 145, 142, ANGLE_MODE, GPS_FIX_HOME|GPS_FIX|SMALL_ANGLE, IDLE, 1, 1
1824, 104328871,   1,   0,   0,   0,   0,   0,   3,   0,   0,   0,  -1,  -1, 1000, 1.852, 1023,  -1,   0,  -1,  27, -49, 4234, 117, 115, 133, 135, ANGLE_MODE, GPS_FIX_HOME|GPS_FIX|SMALL_ANGLE, IDLE, 1, 1
1832, 104332915,  -1,   0,  -4,   0,   0,   0,  -6,   1,   0,   0,  -1,  -1, 1000, 1.852, 1023,   1,   0,   1,  37, -34, 4241, 150, 166, 136, 115, ANGLE_MODE, GPS_FIX_HOME|GPS_FIX|SMALL_ANGLE, IDLE, 1, 1
1840, 104336978,  -1,   0,  -3,   0,   0,   0,  -3,  -1,   0,   0,  -1,  -1, 1000, 1.852, 1023,   1,   0,   1,  30, -30, 4237, 132, 156, 126, 120, ANGLE_MODE, GPS_FIX_HOME|GPS_FIX|SMALL_ANGLE, IDLE, 1, 1
1848, 104341047,   1,   0,   0,   0,   0,   0,   7,  -1,   0,   0,  -1,  -1, 1000, 1.852, 1023,  -1,   0,  -1,  23, -43, 4232, 116, 124, 149, 158, ANGLE_MODE, GPS_FIX_HOME|GPS_FIX|SMALL_ANGLE, IDLE, 1, 1
1856, 104345140,   2,   0,   1,   0,   0,   0,   6,   1,   0,   0,  -1,  -1, 1000, 1.852, 1023,  -2,   0,  -1,  30, -52, 4231, 120, 115, 150, 154, ANGLE_MODE, GPS_FIX_HOME|GPS_FIX|SMALL_ANGLE, IDLE, 1, 1
1864, 104349196,   0,   0,  -2,   0,   0,   0,  -4,   0,   0,   0,  -1,  -1, 1000, 1.852, 1023,   0,   0,   0,  30, -32, 4239, 134, 142, 126, 115, ANGLE_MODE, GPS_FIX_HOME|GPS_FIX|SMALL_ANGLE, IDLE, 1, 1
1872, 104353277,  -1,   0,  -5,   0,   0,   0,  -8,   1,   0,   0,  -1,  -1, 1000, 1.852, 1023,   2,   0,   1,  25,  -9, 4240, 158, 176, 138, 115, ANGLE_MODE, GPS_FIX_HOME|GPS_FIX|SMALL_ANGLE, IDLE, 1, 1
1880, 104357347,   0,  -1,  -1,   0,   0,   0,   3,  -2,   0,   0,  -1,  -1, 1000, 1.852, 1023,  -1,   0,   0,  15, -12, 4233, 115, 132, 136, 143, ANGLE_MODE, GPS_FIX_HOME|GPS_FIX|SMALL_ANGLE, IDLE, 1, 1
1888, 104361404,   3,  -1,   0,   0,   0,   0,  10,  -1,   0,   0,  -1,  -1, 1000, 1.852, 1023,  -3,   0,  -1,   9, -36, 4232, 117, 123, 168, 179, ANGLE_MODE, GPS_FIX_HOME|GPS_FIX|SMALL_ANGLE, IDLE, 1, 1
1896, 104365476,   1,   0,  -2,   0,   0,   0,   0,   1,   0,   0,  -1,  -1, 1000, 1.852, 1023,  -2,   0,   0,   9, -32, 4238, 117, 125, 138, 123, ANGLE_MODE, GPS_FIX_HOME|GPS_FIX|SMALL_ANGLE, IDLE, 1, 1
1904, 104369530,  -1,   0,  -4,   0,   0,   0, -10,   2,   0,   0,  -1,  -1, 1000, 1.852, 1023,   2,  -1,   1,  10,  -3, 4243, 171, 177, 140, 115, ANGLE_MODE, GPS_FIX_HOME|GPS_FIX|SMALL_ANGLE, IDLE, 1, 1
1912, 104373590,  -1,   0,  -1,   0,   0,   0,  -5,   0,   0,   0,  -1,  -1, 1000, 1.852, 1023,   2,   0,   0,  -2,   8, 4236, 142, 152, 119, 118, ANGLE_MODE, GPS_FIX_HOME|GPS_FIX|SMALL_ANGLE, IDLE, 1, 1
1920, 104377675,   2,  -1,   1,   0,   0,   0,  10,  -3,   0,   0,  -1,  -1, 1000, 1.852, 1023,  -2,   1,  -1, -15,  -8, 4233, 118, 130, 165, 189, ANGLE_MODE, GPS_FIX_HOME|GPS_FIX|SMALL_ANGLE, IDLE, 1, 1
1928, 104381782,   3,   0,  -3,   0,   0,   0,   7,   0,   0,   0,  -1,  -1, 1000, 1.852, 1023,  -3,   0,   1, -10, -29, 4236, 115, 133, 173, 160, ANGLE_MODE, GPS_FIX_HOME|GPS_FIX|SMALL_ANGLE, IDLE, 1, 1
1936, 104385854,   0,   0,  -6,   0,   0,   0,  -7,   2,   0,   0,  -1,  -1, 1000, 1.852, 1023,   0,  -1,   2,  -6, -21, 4247, 148, 161, 146, 115, ANGLE_MODE, GPS_FIX_HOME|GPS_FIX|SMALL_ANGLE, IDLE, 1, 1
1944, 104389912,  -1,   0,  -1,   0,   0,   0,  -9,   1,   0,   0,  -1,  -1, 1000, 1.852, 1023,   2,  -1,   0, -10,   3, 4244, 162, 166, 126, 115, ANGLE_MODE, GPS_FIX_HOME|GPS_FIX|SMALL_ANGLE, IDLE, 1, 1
1952, 104394216,   0,   0,   2,   0,   0,   0,   2,  -2,   0,   0,  -1,  -1, 1000, 1.852, 1023,   0,   0,  -1, -17,   3, 4233, 120, 123, 121, 143, ANGLE_MODE, GPS_FIX_HOME|GPS_FIX|SMALL_ANGLE, IDLE, 1, 1
1960, 104398281,   3,  -1,   0,   0,   0,   0,  12,  -2,   0,   0,  -1,  -1, 1000, 1.843, 1023,  -3,   1,   0, -17, -17, 4233, 115, 130, 179, 190, ANGLE_MODE, GPS_FIX_HOME|GPS_FIX|SMALL_ANGLE, IDLE, 1, 1
1968, 104402340,   0,   0,  -5,   0,   0,   0,  -2,   1,   0,   0,  -1,   0, 1000, 1.843, 1023,  -1,   0,   2, -14, -27, 4243, 126, 142, 139, 115, ANGLE_MODE, GPS_FIX_HOME|GPS_FIX|SMALL_ANGLE, IDLE, 1, 1
1976, 104406405,  -1,   0,  -2,   0,   0,   0,  -8,   1,   0,   0,  -1,   0, 1000, 1.843, 1023,   1,   0,   1, -11,  -7, 4244, 158, 161, 128, 115, ANGLE_MODE, GPS_FIX_HOME|GPS_FIX|SMALL_ANGLE, IDLE, 1, 1
1984, 104410478,   0,   0,   3,   0,   0,   0,  -1,   0,   0,   0,  -1,   0, 1000, 1.843, 1023,   0,   0,  -1, -16,  -6, 4233, 135, 125, 115, 130, ANGLE_MODE, GPS_FIX_HOME|GPS_FIX|SMALL_ANGLE, IDLE, 1, 1
1992, 104414538,   2,  -1,   1,   0,   0,   0,   9,  -1,   0,   0,  -1,   0, 1000, 1.843, 1023,  -2,   0,  -1, -16, -15, 4227, 119, 123, 159, 176, ANGLE_MODE, GPS_FIX_HOME|GPS_FIX|SMALL_ANGLE, IDLE, 1, 1
2000, 104418591,   1,   0,  -4,   0,   0,   0,   1,  -1,   0,   0,  -1,   0, 1000, 1.843, 1023,  -1,   0,   2, -12, -27, 4235, 115, 139, 142, 130, ANGLE_MODE, GPS_FIX_HOME|GPS_FIX|SMALL_ANGLE, IDLE, 1, 1
2008, 104422654,   0,   0,  -4,   0,   0,   0,  -8,   2,   0,   0,  -1,   0, 1000, 1.843, 1023,   1,   0,   1,  -8, -21, 4243, 157, 166, 136, 115, ANGLE_MODE, GPS_FIX_HOME|GPS_FIX|SMALL_ANGLE, IDLE, 1, 1
2016, 104426734,   0,   0,   3,   0,   0,   0,  -2,   0,   0,   0,  -1,   0, 1000, 1.843, 1023,   1,   0,  -1,  -5, -11, 4239, 139, 129, 115, 129, ANGLE_MODE, GPS_FIX_HOME|GPS_FIX|SMALL_ANGLE, IDLE, 1, 1
2024, 104430808,   1,   0,   3,   0,   0,   0,   6,   0,   0,   0,  -1,   0, 1000, 1.843, 1023,  -2,   0,  -1,   5, -13, 4238, 127, 117, 149, 163, ANGLE_MODE, GPS_FIX_HOME|GPS_FIX|SMALL_ANGLE, IDLE, 1, 1
2032, 104434872,   1,  -1,  -3,   0,   0,   0,   3,  -2,   0,   0,  -1,   0, 1000, 1.843, 1023,  -2,   1,   1,  13, -18, 4250, 115, 137, 144, 144, ANGLE_MODE, GPS_FIX_HOME|GPS_FIX|SMALL_ANGLE, IDLE, 1, 1
2040, 104438938,  -1,   0,  -3,   0,   0,   0,  -7,   0,   0,   0,  -1,   0, 1000, 1.843, 1023,   1,   0,   1,  16, -11, 4258, 150, 167, 131, 116, ANGLE_MODE, GPS_FIX_HOME|GPS_FIX|SMALL_ANGLE, IDLE, 1, 1
2048, 104442996,   0,   0,   1,   0,   0,   0,  -3,   1,   0,   0,  -1,   0, 1000, 1.843, 1023,   1,   0,  -1,  12,  -5, 4250, 142, 131, 117, 121, ANGLE_MODE, GPS_FIX_HOME|GPS_FIX|SMALL_ANGLE, IDLE, 1, 1
2056, 104447065,   0,   0,   4,   0,   0,   0,   5,   0,   0,   0,  -1,   0, 1000, 1.843, 1023,  -1,   0,  -2,  11, -10, 4240, 134, 116, 142, 162, ANGLE_MODE, GPS_FIX_HOME|GPS_FIX|SMALL_ANGLE, IDLE, 1, 1
2064, 104451128,   0,  -1,  -1,   0,   0,   0,   2,  -1,   0,   0,  -1,   0, 1000, 1.843, 1023,  -1,   1,   0,  14, -19, 4244, 115, 130, 132, 138, ANGLE_MODE, GPS_FIX_HOME|GPS_FIX|SMALL_ANGLE, IDLE, 1, 1
2072, 104455236,   0,  -1,  -5,   0,   0,   0,  -3,  -1,   0,   0,  -1,   0, 1000, 1.843, 1023,   1,   1,   2,  12, -15, 4254, 128, 159, 131, 120, ANGLE_MODE, GPS_FIX_HOME|GPS_FIX|SMALL_ANGLE, IDLE, 1, 1
2080, 104459308,  -1,   0,   0,   0,   0,   0,  -4,   1,   0,   0,  -1,   0, 1000, 1.852, 1023,   1,   0,   0,   4, -17, 4243, 142, 139, 122, 115, ANGLE_MODE, GPS_FIX_HOME|GPS_FIX|SMALL_ANGLE, IDLE, 1, 1
2088, 104463371,   0,   0,   5,   0,   0,   0,   5,   0,   0,   0,  -1,   0, 1000, 1.852, 1023,  -1,   0,  -2,   3, -23, 4235, 136, 115, 141, 161, ANGLE_MODE, GPS_FIX_HOME|GPS_FIX|SMALL_ANGLE, IDLE, 1, 1
2096, 104467490,   0,   0,   1,   0,   0,   0,   2,   0,   0,   0,  -1,   0, 1000, 1.852, 1023,  -1,   0,  -1,   6, -31, 4238, 120, 119, 125, 141, ANGLE_MODE, GPS_FIX_HOME|GPS_FIX|SMALL_ANGLE, IDLE, 1, 1
2104, 104471552,   0,  -1,  -4,   0,   0,   0,  -5,  -1,   0,   0,  -1,   0, 1000, 1.852, 1023,   1,   1,   2,   6, -21, 4246, 137, 166, 131, 120, ANGLE_MODE, GPS_FIX_HOME|GPS_FIX|SMALL_ANGLE, IDLE, 1, 1
2112, 104475642,  -1,   0,  -3,   0,   0,   0,  -3,   0,   0,   0,  -1,   0, 1000, 1.852, 1023,   2,   0,   1,  -6, -22, 4242, 134, 149, 127, 117, ANGLE_MODE, GPS_FIX_HOME|GPS_FIX|SMALL_ANGLE, IDLE, 1, 1
2120, 104479700,   0,   0,   2,   0,   0,   0,   3,   1,   0,   0,  -1,   0, 1000, 1.852, 1023,   0,   0,  -1,  -9, -36, 4231, 126, 115, 133, 143, ANGLE_MODE, GPS_FIX_HOME|GPS_FIX|SMALL_ANGLE, IDLE, 1, 1
2128, 104484046,   0,  -1,   2,   0,   0,   0,   5,   0,   0,   0,  -1,   0, 1000, 1.852, 1023,  -1,   0,  -1, -11, -40, 4236, 122, 119, 135, 152, ANGLE_MODE, GPS_FIX_HOME|GPS_FIX|SMALL_ANGLE, IDLE, 1, 1
2136, 104488114,  -1,   0,  -4,   0,   0,   0,  -6,   0,   0,   0,  -1,   0, 1000, 1.852, 1023,   2,   0,   2,  -8, -28, 4242, 147, 169, 131, 118, ANGLE_MODE, GPS_FIX_HOME|GPS_FIX|SMALL_ANGLE, IDLE, 1, 1
2144, 104492169,  -1,  -1,  -3,   0,   0,   0,  -4,   0,   0,   0,  -1,   0, 1000, 1.852, 1023,   2,   0,   1, -15, -15, 4244, 139, 156, 128, 117, ANGLE_MODE, GPS_FIX_HOME|GPS_FIX|SMALL_ANGLE, IDLE, 1, 1
2152, 104496234,   0,   0,   1,   0,   0,   0,   5,   0,   0,   0,  -1,   0, 1000, 1.852, 1023,   0,   0,   0, -19, -27, 4234, 118, 119, 136, 147, ANGLE_MODE, GPS_FIX_HOME|GPS_FIX|SMALL_ANGLE, IDLE, 1, 1
2160, 104500295,   1,   0,   3,   0,   0,   0,   6,   0,   0,   0,  -1,   0, 1000, 1.852, 1023,  -1,   0,  -1, -19, -40, 4236, 128, 117, 145, 161, ANGLE_MODE, GPS_FIX_HOME|GPS_FIX|SMALL_ANGLE, IDLE, 1, 1
2168, 104504363,   0,   0,  -2,   0,   0,   0,  -4,   0,   0,   0,  -1,   0, 1000, 1.852, 1023,   1,   0,   1, -10, -17, 4245, 134, 144, 123, 116, ANGLE_MODE, GPS_FIX_HOME|GPS_FIX|SMALL_ANGLE, IDLE, 1, 1
2176, 104508433,  -2,   0,  -3,   0,   0,   0,  -8,   1,   0,   0,  -1,   0, 1000, 1.852, 1023,   3,   0,   1,  -4,  11, 4248, 161, 171, 132, 115, ANGLE_MODE, GPS_FIX_HOME|GPS_FIX|SMALL_ANGLE, IDLE, 1, 1
2184, 104512485,   0,  -1,   0,   0,   0,   0,   5,  -2,   0,   0,  -1,   0, 1000, 1.852, 1023,   0,   1,   0,  -5,  12, 4243, 116, 128, 135, 151, ANGLE_MODE, GPS_FIX_HOME|GPS_FIX|SMALL_ANGLE, IDLE, 1, 1
2192, 104516541,   2,  -1,   2,   0,   0,   0,   9,  -1,   0,   0,  -1,   0, 1000, 1.852, 1023,  -2,   1,  -1,  -2,  -4, 4245, 122, 121, 158, 180, ANGLE_MODE, GPS_FIX_HOME|GPS_FIX|SMALL_ANGLE, IDLE, 1, 1
2200, 104520595,   0,   0,   0,   0,   0,   0,   0,   0,   0,   0,  -1,   0, 1000, 1.852, 1023,  -1,   0,   0,   3,   4, 4251, 115, 120, 120, 117, ANGLE_MODE, GPS_FIX_HOME|GPS_FIX|SMALL_ANGLE, IDLE, 1, 1
2208, 104524656,  -2,   0,  -4,   0,   0,   0, -10,   2,   0,   0,  -1,   0, 1000, 1.852, 1023,   2,   0,   2,   7,  27, 4254, 171, 181, 137, 115, ANGLE_MODE, GPS_FIX_HOME|GPS_FIX|SMALL_ANGLE, IDLE, 1, 1
2216, 104528724,  -1,   0,   0,   0,   0,   0,  -2,   0,   0,   0,  -1,   0, 1000, 1.852, 1023,   1,   0,   0,  -4,  37, 4246, 129, 130, 115, 117, ANGLE_MODE, GPS_FIX_HOME|GPS_FIX|SMALL_ANGLE, IDLE, 1, 1
2224, 104532778,   2,  -1,   1,   0,   0,   0,  11,  -3,   0,   0,  -1,   0, 1000, 1.852, 1023,  -2,   1,   0, -13,  15, 4241, 118, 133, 169, 194, ANGLE_MODE, GPS_FIX_HOME|GPS_FIX|SMALL_ANGLE, IDLE, 1, 1
2232, 104536869,   2,  -1,  -1,   0,   0,   0,   5,   0,   0,   0,  -1,   0, 1000, 1.852, 1023,  -3,   0,   1,  -9,  -4, 4245, 115, 124, 153, 148, ANGLE_MODE, GPS_FIX_HOME|GPS_FIX|SMALL_ANGLE, IDLE, 1, 1
2240, 104540925,   0,   0,  -4,   0,   0,   0,  -8,   2,   0,   0,  -1,   0, 1000, 1.852, 1023,   1,   0,   2,  -9,   8, 4251, 153, 164, 138, 115, ANGLE_MODE, GPS_FIX_HOME|GPS_FIX|SMALL_ANGLE, IDLE, 1, 1
2248, 104544988,  -2,   0,  -1,   0,   0,   0,  -9,   1,   0,   0,  -1,   0, 1000, 1.852, 1023,   2,  -1,   0, -12,  26, 4245, 167, 163, 126, 115, ANGLE_MODE, GPS_FIX_HOME|GPS_FIX|SMALL_ANGLE, IDLE, 1, 1
2256, 104549105,   0,  -1,   3,   0,   0,   0,   5,  -2,   0,   0,  -1,   0, 1000, 1.852, 1023,  -1,   0,  -1, -22,  15, 4232, 124, 122, 136, 165, ANGLE_MODE, GPS_FIX_HOME|GPS_FIX|SMALL_ANGLE, IDLE, 1, 1
2264, 104553172,   3,  -1,   0,   0,   0,   0,  11,  -2,   0,   0,  -1,   0, 1000, 1.852, 1023,  -3,   1,   0, -23,  -8, 4236, 117, 129, 172, 190, ANGLE_MODE, GPS_FIX_HOME|GPS_FIX|SMALL_ANGLE, IDLE, 1, 1
2272, 104557271,   0,   0,  -4,   0,   0,   0,  -3,   2,   0,   0,  -1,   0, 1000, 1.852, 1023,  -1,   0,   2, -21, -15, 4243, 132, 143, 139, 115, ANGLE_MODE, GPS_FIX_HOME|GPS_FIX|SMALL_ANGLE, IDLE, 1, 1
2280, 104561333,  -1,   0,  -3,   0,   0,   0,  -9,   2,   0,   0,  -1,   0, 1000, 1.852, 1023,   1,  -1,   1, -22,   1, 4242, 163, 170, 134, 115, ANGLE_MODE, GPS_FIX_HOME|GPS_FIX|SMALL_ANGLE, IDLE, 1, 1
2288, 104565434,   0,   0,   3,   0,   0,   0,   0,   0,   0,   0,  -1,   0, 1000, 1.852, 1023,   0,   0,  -1, -29,   2, 4230, 132, 119, 115, 131, ANGLE_MODE, GPS_FIX_HOME|GPS_FIX|SMALL_ANGLE, IDLE, 1, 1
2296, 104569505,   2,  -1,   3,   0,   0,   0,   9,  -3,   0,   0,  -1,   0, 1000, 1.852, 1023,  -3,   1,  -1, -25, -14, 4232, 122, 127, 158, 189, ANGLE_MODE, GPS_FIX_HOME|GPS_FIX|SMALL_ANGLE, IDLE, 1, 1
2304, 104573570,   1,   0,  -3,   0,   0,   0,   1,   0,   0,   0,  -1,   0, 1000, 1.852, 1023,  -2,   0,   1, -21, -23, 4243, 116, 132, 142, 133, ANGLE_MODE, GPS_FIX_HOME|GPS_FIX|SMALL_ANGLE, IDLE, 1, 1
2312, 104577634,   0,   0,  -3,   0,   0,   0,  -8,   1,   0,   0,  -1,   0, 1000, 1.843, 1023,   1,   0,   1, -19, -17, 4245, 158, 166, 131, 116, ANGLE_MODE, GPS_FIX_HOME|GPS_FIX|SMALL_ANGLE, IDLE, 1, 1
2320, 104581982,   0,   0,   2,   0,   0,   0,  -2,   1,   0,   0,  -1,   0, 1000, 1.843, 1023,   1,  -1,  -1, -20, -12, 4239, 144, 126, 120, 124, ANGLE_MODE, GPS_FIX_HOME|GPS_FIX|SMALL_ANGLE, IDLE, 1, 1
2328, 104586048,   2,   0,   3,   0,   0,   0,   7,  -1,   0,   0,  -1,   0, 1000, 1.843, 1023,  -2,   0,  -1, -17, -27, 4234, 126, 122, 149, 174, ANGLE_MODE, GPS_FIX_HOME|GPS_FIX|SMALL_ANGLE, IDLE, 1, 1
2336, 104590116,   1,  -1,  -3,   0,   0,   0,   3,  -1,   0,   0,  -1,   0, 1000, 1.843, 1023,  -1,   0,   1, -18, -36, 4247, 116, 135, 142, 142, ANGLE_MODE, GPS_FIX_HOME|GPS_FIX|SMALL_ANGLE, IDLE, 1, 1
2344, 104594182,  -1,   0,  -5,   0,   0,   0,  -8,   1,   0,   0,  -1,   0, 1000, 1.843, 1023,   1,   0,   2, -14, -34, 4250, 156, 175, 140, 116, ANGLE_MODE, GPS_FIX_HOME|GPS_FIX|SMALL_ANGLE, IDLE, 1, 1
2352, 104598240,  -1,   0,   1,   0,   0,   0,  -3,   1,   0,   0,  -1,   0, 1000, 1.852, 1023,   1,  -1,  -1, -15, -22, 4244, 144, 129, 120, 120, ANGLE_MODE, GPS_FIX_HOME|GPS_FIX|SMALL_ANGLE, IDLE, 1, 1
2360, 104602298,   0,   0,   4,   0,   0,   0,   4,   0,   0,   0,  -1,   0, 1000, 1.852, 1023,  -1,   0,  -1,  -9, -21, 4240, 132, 118, 137, 157, ANGLE_MODE, GPS_FIX_HOME|GPS_FIX|SMALL_ANGLE, IDLE, 1, 1
2368, 104606361,   1,  -1,  -1,   0,   0,   0,   4,  -2,   0,   0,  -1,   0, 1000, 1.852, 1023,  -1,   1,   1,  -7, -20, 4252, 116, 137, 142, 152, ANGLE_MODE, GPS_FIX_HOME|GPS_FIX|SMALL_ANGLE, IDLE, 1, 1
2376, 104610439,   0,  -1,  -6,   0,   0,   0,  -4,  -1,   0,   0,  -1,   0, 1000, 1.852, 1023,   1,   1,   2,  -1, -13, 4256, 132, 168, 137, 122, ANGLE_MODE, GPS_FIX_HOME|GPS_FIX|SMALL_ANGLE, IDLE, 1, 1
2384, 104614530,   0,   0,   0,   0,   0,   0,  -3,   2,   0,   0,  -1,   0, 1000, 1.852, 1023,   1,   0,   0,  -3,  -5, 4249, 140, 134, 125, 116, ANGLE_MODE, GPS_FIX_HOME|GPS_FIX|SMALL_ANGLE, IDLE, 1, 1
2392, 104618582,   0,   0,   4,   0,   0,   0,   3,   1,   0,   0,  -1,   0, 1000, 1.852, 1023,   0,   0,  -2,  -4,  -6, 4241, 137, 116, 136, 153, ANGLE_MODE, GPS_FIX_HOME|GPS_FIX|SMALL_ANGLE, IDLE, 1, 1
2400, 104622648,   1,  -1,   1,   0,   0,   0,   4,  -2,   0,   0,  -1,   0, 1000, 1.852, 1023,  -1,   1,   0,   4,  -9, 4245, 119, 130, 137, 158, ANGLE_MODE, GPS_FIX_HOME|GPS_FIX|SMALL_ANGLE, IDLE, 1, 1
2408, 104626725,   0,  -1,  -4,   0,   0,   0,  -2,  -1,   0,   0,  -1,   0, 1000, 1.852, 1023,   0,   1,   2,   3,  -4, 4254, 120, 150, 130, 126, ANGLE_MODE, GPS_FIX_HOME|GPS_FIX|SMALL_ANGLE, IDLE, 1, 1
2416, 104630789,   0,   0,  -2,   0,   0,   0,  -5,   2,   0,   0,  -1,   0, 1000, 1.852, 1023,   1,   0,   1,  -3,  -7, 4248, 143, 147, 128, 116, ANGLE_MODE, GPS_FIX_HOME|GPS_FIX|SMALL_ANGLE, IDLE, 1, 1
2424, 104634930,   1,   0,   4,   0,   0,   0,   4,   1,   0,   0,  -1,   0, 1000, 1.852, 1023,  -1,   0,  -2,  -3,  -8, 4237, 136, 116, 141, 153, ANGLE_MODE, GPS_FIX_HOME|GPS_FIX|SMALL_ANGLE, IDLE, 1, 1
2432, 104639048,   1,   0,   3,   0,   0,   0,   2,  -1,   0,   0,   0,   0, 1000, 1.843, 1023,  -1,   0,  -1,   0, -13, 4240, 126, 120, 130, 151, ANGLE_MODE, GPS_FIX_HOME|GPS_FIX|SMALL_ANGLE, IDLE, 1, 1
2440, 104643122,   0,   0,  -3,   0,   0,   0,  -2,   0,   0,   0,   0,   0, 1000, 1.843, 1023,   0,   1,   1,  -3,  -7, 4249, 124, 143, 128, 119, ANGLE_MODE, GPS_FIX_HOME|GPS_FIX|SMALL_ANGLE, IDLE, 1, 1
2448, 104647170,   0,   0,  -4,   0,   0,   0,  -3,   0,   0,   0,   0,   0, 1000, 1.843, 1023,   1,   0,   2, -11,  -4, 4249, 132, 152, 134, 117, ANGLE_MODE, GPS_FIX_HOME|GPS_FIX|SMALL_ANGLE, IDLE, 1, 1
2456, 104651234,   1,   0,   1,   0,   0,   0,   2,   1,   0,   0,   0,   0, 1002, 1.843, 1023,   0,   0,  -1, -12, -10, 4239, 126, 116, 134, 133, ANGLE_MODE, GPS_FIX_HOME|GPS_FIX|SMALL_ANGLE, IDLE, 1, 1
2464, 104655304,   1,   0,   4,   0,   0,   0,   5,   0,   0,   0,   0,   0, 1011, 1.843, 1023,  -1,   0,  -2, -15, -20, 4240, 133, 118, 147, 167, ANGLE_MODE, GPS_FIX_HOME|GPS_FIX|SMALL_ANGLE, IDLE, 1, 1
2472, 104659373,   0,   0,  -1,   0,   0,   0,  -4,   0,   0,   0,   0,   0, 1011, 1.852, 1023,   1,   0,   0,  -8, -11, 4245, 132, 137, 121, 117, ANGLE_MODE, GPS_FIX_HOME|GPS_FIX|SMALL_ANGLE, IDLE, 1, 1
2480, 104663433,   0,   0,  -4,   0,   0,   0,  -5,   5,   0,   1,   2,   0, 1011, 1.852, 1023,   1,   0,   2, -12,   4, 4247, 157, 152, 150, 116, ANGLE_MODE, GPS_FIX_HOME|GPS_FIX|SMALL_ANGLE, IDLE, 1, 1
2488, 104667489,   1,   3,  -1,   0,   0,   0,   4,   8,   0,   1,   6,   0, 1011, 1.852, 1023,   0,   0,   0, -20,  -1, 4240, 160, 119, 187, 135, ANGLE_MODE, GPS_FIX_HOME|GPS_FIX|SMALL_ANGLE, IDLE, 1, 1
2496, 104671550,   2,   4,   3,   0,   0,   0,   6,   0,   0,   1,   7,   0, 1021, 1.852, 1023,  -2,   0,  -1, -22, -20, 4236, 143, 116, 167, 162, ANGLE_MODE, GPS_FIX_HOME|GPS_FIX|SMALL_ANGLE, IDLE, 1, 1
2504, 104675615,   1,   4,   0,   0,   0,   0,  -1,   0,   0,   1,   7,   0, 1030, 1.852, 1023,  -1,   0,   0, -13, -16, 4239, 141, 116, 139, 119, ANGLE_MODE, GPS_FIX_HOME|GPS_FIX|SMALL_ANGLE, IDLE, 1, 1
2512, 104679916,   0,   5,  -2,   0,   0,   0,  -7,   2,   0,   2,   7,   0, 1030, 1.843, 1023,   2,   0,   1,  -8,   6, 4243, 177, 153, 155, 116, ANGLE_MODE, GPS_FIX_HOME|GPS_FIX|SMALL_ANGLE, IDLE, 1, 1
2520, 104683970,   1,   4,  -1,   0,   1,   0,   1,  -1,   0,   2,   7,   0, 1030, 1.843, 1023,   0,   1,   1, -13,   8, 4239, 128, 120, 147, 126, ANGLE_MODE, GPS_FIX_HOME|GPS_FIX|SMALL_ANGLE, IDLE, 1, 1
2528, 104688047,   3,   4,   2,   0,   1,   0,   9,  -2,   0,   2,   7,   0, 1030, 1.843, 1023,  -2,   1,  -1, -17, -15, 4237, 133, 116, 174, 174, ANGLE_MODE, GPS_FIX_HOME|GPS_FIX|SMALL_ANGLE, IDLE, 1, 1
2536, 104692124,   3,   7,   1,   0,   1,   0,   2,  11,   0,   2,  12,   0, 1037, 1.843, 1023,  -2,   0,  -1,  -9, -26, 4239, 198, 116, 217, 146, ANGLE_MODE, GPS_FIX_HOME|GPS_FIX|SMALL_ANGLE, IDLE, 1, 1
2544, 104696192,   0,  10,  -2,   0,   1,   0,  -8,   3,   0,   2,  16,   0, 1037, 1.843, 1023,   2,   0,   1,  -2, -11, 4244, 206, 151, 185, 116, ANGLE_MODE, GPS_FIX_HOME|GPS_FIX|SMALL_ANGLE, IDLE, 1, 1
2552, 104700258,   0,  10,  -4,   0,   2,   0,  -5,   0,   0,   2,  16,   0, 1037, 1.843, 1023,   2,   0,   2,  -5,   1, 4242, 177, 147, 176, 116, ANGLE_MODE, GPS_FIX_HOME|GPS_FIX|SMALL_ANGLE, IDLE, 1, 1
2560, 104704337,   2,   9,  -2,   0,   2,   0,   7,  -4,   0,   2,  16,   0, 1047, 1.843, 1023,  -1,   2,   1, -12, -20, 4243, 139, 120, 192, 154, ANGLE_MODE, GPS_FIX_HOME|GPS_FIX|SMALL_ANGLE, IDLE, 1, 1
2568, 104708401,   3,   9,   0,   0,   3,   0,   5,   0,   0,   2,  16,   0, 1047, 1.843, 1023,  -2,   1,   0,  -1, -43, 4241, 167, 115, 205, 155, ANGLE_MODE, GPS_FIX_HOME|GPS_FIX|SMALL_ANGLE, IDLE, 1, 1
2576, 104712449,   1,  11,   0,   1,   3,   0,  -3,   6,   0,   2,  18,   0, 1047, 1.843, 1023,   0,   0,   0,  11, -38, 4245, 205, 122, 202, 115, ANGLE_MODE, GPS_FIX_HOME|GPS_FIX|SMALL_ANGLE, IDLE, 1, 1
