loopIteration, time (us), axisP[0], axisP[1], axisP[2], axisI[0], axisI[1], axisI[2], axisD[0], axisD[1], axisD[2], rcCommand[0], rcCommand[1], rcCommand[2], rcCommand[3], vbatLatest (V), rssi, gyroADC[0], gyroADC[1], gyroADC[2], accSmooth[0], accSmooth[1], accSmooth[2], motor[0], motor[1], motor[2], motor[3], flightModeFlags (flags), stateFlags (flags), failsafePhase (flags), rxSignalReceived, rxFlightChannelsValid
  0, 49589969,   0,   0,   3,   0,   0,   0,   0,   0,   0,   0,   0,   0, 1000, 1.843, 992,   0,   0,  -1,   5, -18, 4181, 130, 115, 119, 132, 0, 0, IDLE, 0, 0
256, 49720355,   0,   0,   0,   0,   0,   0,   1,   0,   0,   0,   0,   0, 1000, 1.843, 982,  -1,   0,   0,  24, -47, 4201, 119, 115, 129, 125, ANGLE_MODE, GPS_FIX_HOME|GPS_FIX|SMALL_ANGLE, IDLE, 1, 1
264, 49724411,   0,   0,   3,   0,   0,   0,  -1,   0,   0,   0,   0,   0, 1000, 1.843, 982,   0,   0,  -1,  22, -41, 4202, 137, 124, 115, 132, ANGLE_MODE, GPS_FIX_HOME|GPS_FIX|SMALL_ANGLE, IDLE, 1, 1
272, 49728743,   0,   0,   2,   0,   0,   0,  -1,   0,   0,   0,   0,   0, 1000, 1.843, 982,   0,   0,  -1,  20, -41, 4199, 134, 121, 116, 126, ANGLE_MODE, GPS_FIX_HOME|GPS_FIX|SMALL_ANGLE, IDLE, 1, 1
280, 49732840,   0,   0,  -3,   0,   0,   0,   1,   0,   0,   0,   0,   0, 1000, 1.834, 982,   0,   0,   1,  14, -34, 4198, 115, 133, 135, 124, ANGLE_MODE, GPS_FIX_HOME|GPS_FIX|SMALL_ANGLE, IDLE, 1, 1
288, 49736896,   0,   0,  -4,   0,   0,   0,   0,   0,   0,   0,   0,   0, 1000, 1.834, 982,   0,   0,   2,  16, -39, 4197, 119, 139, 133, 116, ANGLE_MODE, GPS_FIX_HOME|GPS_FIX|SMALL_ANGLE, IDLE, 1, 1
296, 49740962,   0,   0,   1,   0,   0,   0,   1,   0,   0,   0,   0,   0, 1000, 1.834, 982,   0,   0,  -1,  12, -38, 4195, 124, 115, 124, 130, ANGLE_MODE, GPS_FIX_HOME|GPS_FIX|SMALL_ANGLE, IDLE, 1, 1
304, 49745032,   0,   0,   5,   0,   0,   0,  -1,   0,   0,   0,   0,   0, 1000, 1.834, 982,   0,   0,  -2,   7, -32, 4193, 143, 120, 117, 135, ANGLE_MODE, GPS_FIX_HOME|GPS_FIX|SMALL_ANGLE, IDLE, 1, 1
312, 49749098,   0,   0,   1,   0,   0,   0,   0,   0,   0,   0,   0,   0, 1000, 1.834, 982,   0,   0,  -1,   6, -27, 4189, 128, 118, 117, 120, ANGLE_MODE, GPS_FIX_HOME|GPS_FIX|SMALL_ANGLE, IDLE, 1, 1
320, 49753155,   0,   0,  -3,   0,   0,   0,   1,  -1,   0,   0,   0,   0, 1000, 1.843, 982,   0,   0,   1,   1, -18, 4189, 115, 134, 136, 126, ANGLE_MODE, GPS_FIX_HOME|GPS_FIX|SMALL_ANGLE, IDLE, 1, 1
328, 49757216,   0,   0,  -3,   0,   0,   0,   0,   0,   0,   0,   0,   0, 1000, 1.843, 982,   0,   0,   1,   4, -23, 4189, 115, 129, 131, 117, ANGLE_MODE, GPS_FIX_HOME|GPS_FIX|SMALL_ANGLE, IDLE, 1, 1
336, 49761304,   0,   0,   2,   0,   0,   0,   0,   0,   0,   0,   0,   0, 1000, 1.843, 982,   0,   0,  -1,  -1, -18, 4188, 125, 115, 123, 127, ANGLE_MODE, GPS_FIX_HOME|GPS_FIX|SMALL_ANGLE, IDLE, 1, 1
344, 49765361,   0,   0,   4,   0,   0,   0,  -1,   0,   0,   0,   0,   0, 1000, 1.843, 982,   0,   0,  -2,  -3, -13, 4188, 140, 119, 117, 131, ANGLE_MODE, GPS_FIX_HOME|GPS_FIX|SMALL_ANGLE, IDLE, 1, 1
352, 49769422,   0,   0,   0,   0,   0,   0,   0,   0,   0,   0,   0,   0, 1000, 1.843, 982,   0,   0,   0,  -9,  -8, 4188, 119, 116, 122, 117, ANGLE_MODE, GPS_FIX_HOME|GPS_FIX|SMALL_ANGLE, IDLE, 1, 1
360, 49773476,   0,   0,  -4,   0,   0,   0,   0,   0,   0,   0,   0,   0, 1000, 1.843, 982,   0,   0,   1, -13, -10, 4191, 115, 133, 135, 122, ANGLE_MODE, GPS_FIX_HOME|GPS_FIX|SMALL_ANGLE, IDLE, 1, 1
368, 49777541,   0,   0,  -2,   0,   0,   0,   0,   0,   0,   0,   0,   0, 1000, 1.843, 982,  -1,   0,   1, -12, -14, 4193, 117, 125, 135, 120, ANGLE_MODE, GPS_FIX_HOME|GPS_FIX|SMALL_ANGLE, IDLE, 1, 1
376, 49781607,   0,   0,   2,   0,   0,   0,   0,   0,   0,   0,   0,   0, 1000, 1.843, 982,  -1,   0,  -1, -15, -13, 4191, 127, 115, 122, 130, ANGLE_MODE, GPS_FIX_HOME|GPS_FIX|SMALL_ANGLE, IDLE, 1, 1
384, 49785666,   0,   0,   3,   0,   0,   0,  -1,   0,   0,   0,   0,   0, 1000, 1.843, 982,   0,   0,  -1, -12, -12, 4192, 135, 120, 116, 130, ANGLE_MODE, GPS_FIX_HOME|GPS_FIX|SMALL_ANGLE, IDLE, 1, 1
392, 49789742,   0,   0,  -1,   0,   0,   0,   0,   0,   0,   0,   0,   0, 1000, 1.843, 982,  -1,   0,   1, -15,  -5, 4190, 118, 120, 129, 119, ANGLE_MODE, GPS_FIX_HOME|GPS_FIX|SMALL_ANGLE, IDLE, 1, 1
400, 49793809,   0,   0,  -3,   0,   0,   0,   0,   0,   0,   0,   0,   0, 1000, 1.843, 982,  -1,   0,   1, -15, -12, 4192, 115, 130, 132, 119, ANGLE_MODE, GPS_FIX_HOME|GPS_FIX|SMALL_ANGLE, IDLE, 1, 1
408, 49797869,   0,   0,  -1,   0,   0,   0,   0,   0,   0,   0,   0,   0, 1000, 1.843, 982,  -1,   0,   1, -12, -15, 4191, 117, 120, 128, 120, ANGLE_MODE, GPS_FIX_HOME|GPS_FIX|SMALL_ANGLE, IDLE, 1, 1
416, 49801929,   0,   0,   2,   0,   0,   0,   0,   0,   0,   0,   0,   0, 1000, 1.843, 971,  -1,   0,  -1, -12, -15, 4188, 128, 115, 120, 128, ANGLE_MODE, GPS_FIX_HOME|GPS_FIX|SMALL_ANGLE, IDLE, 1, 1
424, 49805988,   0,   0,   2,   0,   0,   0,  -1,   0,   0,   0,   0,   0, 1000, 1.843, 971,   0,   0,  -1,  -7, -19, 4186, 133, 122, 116, 125, ANGLE_MODE, GPS_FIX_HOME|GPS_FIX|SMALL_ANGLE, IDLE, 1, 1
432, 49810049,   0,   0,  -2,   0,   0,   0,   0,   0,   0,   0,   0,   0, 1000, 1.843, 971,   0,   0,   1,  -7, -14, 4184, 116, 125, 128, 117, ANGLE_MODE, GPS_FIX_HOME|GPS_FIX|SMALL_ANGLE, IDLE, 1, 1
440, 49814109,   0,   0,  -3,   0,   0,   0,   0,  -1,   0,   0,   0,   0, 1000, 1.843, 971,   0,   0,   1,  -5, -21, 4185, 115, 133, 132, 122, ANGLE_MODE, GPS_FIX_HOME|GPS_FIX|SMALL_ANGLE, IDLE, 1, 1
448, 49818179,   0,   0,   0,   0,   0,   0,   0,   0,   0,   0,   0,   0, 1000, 1.843, 971,  -1,   0,   0,  -2, -28, 4186, 119, 115, 124, 122, ANGLE_MODE, GPS_FIX_HOME|GPS_FIX|SMALL_ANGLE, IDLE, 1, 1
456, 49822245,   0,   0,   3,   0,   0,   0,   0,   0,   0,   0,   0,   0, 1000, 1.843, 971,   0,   0,  -1,   0, -27, 4185, 133, 119, 115, 132, ANGLE_MODE, GPS_FIX_HOME|GPS_FIX|SMALL_ANGLE, IDLE, 1, 1
464, 49826589,   0,   0,   1,   0,   0,   0,  -2,   0,   0,   0,   0,   0, 1000, 1.843, 971,   0,   0,   0,   5, -26, 4186, 130, 126, 115, 121, ANGLE_MODE, GPS_FIX_HOME|GPS_FIX|SMALL_ANGLE, IDLE, 1, 1
472, 49830648,   0,   0,  -3,   0,   0,   0,   0,   0,   0,   0,   0,   0, 1000, 1.843, 971,   0,   0,   1,   4, -28, 4186, 115, 128, 130, 120, ANGLE_MODE, GPS_FIX_HOME|GPS_FIX|SMALL_ANGLE, IDLE, 1, 1
480, 49834735,   0,   0,  -3,   0,   0,   0,   0,  -1,   0,   0,   0,   0, 1000, 1.843, 971,   0,   0,   1,   7, -30, 4188, 116, 135, 127, 120, ANGLE_MODE, GPS_FIX_HOME|GPS_FIX|SMALL_ANGLE, IDLE, 1, 1
488, 49838800,   0,   0,   2,   0,   0,   0,   0,   0,   0,   0,   0,   0, 1000, 1.843, 971,   0,   0,  -1,  -7, -26, 4187, 127, 115, 119, 125, ANGLE_MODE, GPS_FIX_HOME|GPS_FIX|SMALL_ANGLE, IDLE, 1, 1
496, 49842891,   0,   0,   4,   0,   0,   0,   0,   0,   0,   0,   0,   0, 1000, 1.843, 971,   0,   0,  -1, -26, -17, 4187, 134, 115, 118, 133, ANGLE_MODE, GPS_FIX_HOME|GPS_FIX|SMALL_ANGLE, IDLE, 1, 1
504, 49846973,   0,   0,   0,   0,   0,   0,  -1,   0,   0,   0,   0,   0, 1000, 1.843, 971,   1,   0,   0, -35, -11, 4186, 126, 130, 119, 116, ANGLE_MODE, GPS_FIX_HOME|GPS_FIX|SMALL_ANGLE, IDLE, 1, 1
512, 49851040,   0,   0,  -4,   0,   0,   0,   0,   0,   0,   0,   0,   0, 1000, 1.843, 971,   0,   0,   2, -43,  -5, 4187, 116, 138, 137, 122, ANGLE_MODE, GPS_FIX_HOME|GPS_FIX|SMALL_ANGLE, IDLE, 1, 1
520, 49855089,   0,   0,  -2,   0,   0,   0,   1,   0,   0,   0,   0,   0, 1000, 1.843, 971,   0,   0,   1, -43,  -8, 4189, 117, 127, 134, 123, ANGLE_MODE, GPS_FIX_HOME|GPS_FIX|SMALL_ANGLE, IDLE, 1, 1
528, 49859177,   0,   0,   3,   0,   0,   0,   0,   0,   0,   0,   0,   0, 1000, 1.843, 971,   0,   0,  -1, -43,  -6, 4189, 135, 116, 121, 131, ANGLE_MODE, GPS_FIX_HOME|GPS_FIX|SMALL_ANGLE, IDLE, 1, 1
536, 49863243,   0,   0,   3,   0,   0,   0,   0,   0,   0,   0,   0,   0, 1000, 1.843, 971,   0,   0,  -1, -46,   3, 4190, 133, 117, 116, 133, ANGLE_MODE, GPS_FIX_HOME|GPS_FIX|SMALL_ANGLE, IDLE, 1, 1
544, 49867319,   0,   0,  -1,   0,   0,   0,  -1,   0,   0,   0,   0,   0, 1000, 1.843, 971,   0,   0,   1, -40,   1, 4189, 123, 126, 124, 116, ANGLE_MODE, GPS_FIX_HOME|GPS_FIX|SMALL_ANGLE, IDLE, 1, 1
552, 49871376,   0,   0,  -4,   0,   0,   0,   1,   0,   0,   0,   0,   0, 1000, 1.834, 971,   0,   0,   2, -39,   5, 4191, 116, 137, 140, 123, ANGLE_MODE, GPS_FIX_HOME|GPS_FIX|SMALL_ANGLE, IDLE, 1, 1
560, 49875457,   0,   0,  -1,   0,   0,   0,   0,   0,   0,   0,   0,   0, 1000, 1.834, 971,   0,   0,   0, -31,  -1, 4193, 116, 122, 127, 121, ANGLE_MODE, GPS_FIX_HOME|GPS_FIX|SMALL_ANGLE, IDLE, 1, 1
568, 49879519,   0,   0,   3,   0,   0,   0,   0,   1,   0,   0,   0,   0, 1000, 1.834, 971,  -1,   0,  -1, -28,  -3, 4192, 136, 116, 125, 134, ANGLE_MODE, GPS_FIX_HOME|GPS_FIX|SMALL_ANGLE, IDLE, 1, 1
576, 49883595,   0,   0,   2,   0,   0,   0,   0,   0,   0,   0,   0,   0, 1000, 1.834, 971,   0,   0,  -1, -25,   2, 4192, 127, 117, 117, 130, ANGLE_MODE, GPS_FIX_HOME|GPS_FIX|SMALL_ANGLE, IDLE, 1, 1
584, 49887658,   0,   0,  -1,   0,   0,   0,  -1,   0,   0,   0,   0,   0, 1000, 1.834, 971,   0,   0,   1, -17,  -1, 4191, 121, 127, 125, 116, ANGLE_MODE, GPS_FIX_HOME|GPS_FIX|SMALL_ANGLE, IDLE, 1, 1
592, 49891701,   0,   0,  -4,   0,   0,   0,   1,   0,   0,   0,   0,   0, 1000, 1.843, 982,  -1,   0,   2, -17,   1, 4192, 117, 134, 143, 122, ANGLE_MODE, GPS_FIX_HOME|GPS_FIX|SMALL_ANGLE, IDLE, 1, 1
600, 49895795,   0,   0,   0,   0,   0,   0,   0,   0,   0,   0,   0,   0, 1000, 1.843, 982,  -1,   0,   0,  -9,  -5, 4191, 117, 117, 120, 119, ANGLE_MODE, GPS_FIX_HOME|GPS_FIX|SMALL_ANGLE, IDLE, 1, 1
608, 49899903,   0,   0,   4,   0,   0,   0,   0,   0,   0,   0,   0,   0, 1000, 1.843, 982,  -1,   0,  -1,  -6,  -7, 4190, 136, 116, 123, 136, ANGLE_MODE, GPS_FIX_HOME|GPS_FIX|SMALL_ANGLE, IDLE, 1, 1
616, 49903973,   0,   0,   2,   0,   0,   0,   0,   0,   0,   0,   0,   0, 1000, 1.843, 982,   0,   0,  -1,  -7,  -6, 4190, 125, 117, 117, 127, ANGLE_MODE, GPS_FIX_HOME|GPS_FIX|SMALL_ANGLE, IDLE, 1, 1
624, 49908032,   0,   0,  -3,   0,   0,   0,  -1,   0,   0,   0,   0,   0, 1000, 1.843, 982,   0,   0,   1,  -4,  -5, 4187, 120, 134, 132, 116, ANGLE_MODE, GPS_FIX_HOME|GPS_FIX|SMALL_ANGLE, IDLE, 1, 1
632, 49912065,   0,   0,  -4,   0,   0,   0,   0,   0,   0,   0,   0,   0, 1000, 1.843, 982,  -1,   0,   2,  -5,  -3, 4186, 116, 134, 141, 123, ANGLE_MODE, GPS_FIX_HOME|GPS_FIX|SMALL_ANGLE, IDLE, 1, 1
640, 49916132,   0,   0,   1,   0,   0,   0,   1,   0,   0,   0,   0,   0, 1000, 1.843, 982,  -1,   0,   0,   1, -15, 4186, 121, 116, 125, 128, ANGLE_MODE, GPS_FIX_HOME|GPS_FIX|SMALL_ANGLE, IDLE, 1, 1
648, 49920461,   0,   0,   4,   0,   0,   0,  -1,   0,   0,   0,   0,   0, 1000, 1.843, 982,   0,   0,  -1,  -3,  -1, 4185, 138, 118, 119, 131, ANGLE_MODE, GPS_FIX_HOME|GPS_FIX|SMALL_ANGLE, IDLE, 1, 1
656, 49924536,   0,   0,   1,   0,   0,   0,  -1,   0,   0,   0,   0,   0, 1000, 1.843, 982,   0,   0,  -1,  -7,   7, 4188, 125, 121, 116, 125, ANGLE_MODE, GPS_FIX_HOME|GPS_FIX|SMALL_ANGLE, IDLE, 1, 1
664, 49928625,   0,   0,  -4,   0,   0,   0,   0,   0,   0,   0,   0,   0, 1000, 1.843, 982,   0,   0,   2, -11,  12, 4187, 117, 135, 139, 118, ANGLE_MODE, GPS_FIX_HOME|GPS_FIX|SMALL_ANGLE, IDLE, 1, 1
672, 49932690,   0,   0,  -3,   0,   0,   0,   0,   0,   0,   0,   0,   0, 1000, 1.843, 982,   0,   0,   1, -11,  12, 4189, 118, 133, 129, 117, ANGLE_MODE, GPS_FIX_HOME|GPS_FIX|SMALL_ANGLE, IDLE, 1, 1
680, 49936767,   0,   0,   3,   0,   0,   0,   0,   0,   0,   0,   0,   0, 1000, 1.843, 982,   0,   0,  -1,  -7,   7, 4191, 130, 117, 121, 135, ANGLE_MODE, GPS_FIX_HOME|GPS_FIX|SMALL_ANGLE, IDLE, 1, 1
688, 49940820,   0,   0,   5,   0,   0,   0,   0,   0,   0,   0,   0,   0, 1000, 1.843, 982,   0,   0,  -2,  -5,   8, 4192, 142, 117, 119, 138, ANGLE_MODE, GPS_FIX_HOME|GPS_FIX|SMALL_ANGLE, IDLE, 1, 1
696, 49944892,   0,   0,   0,   0,   0,   0,  -1,   0,   0,   0,   0,   0, 1000, 1.843, 982,   0,   0,   0,  -2,  -1, 4195, 123, 129, 117, 120, ANGLE_MODE, GPS_FIX_HOME|GPS_FIX|SMALL_ANGLE, IDLE, 1, 1
704, 49949120,   0,   0,  -6,   0,   0,   0,   0,   0,   0,   0,   0,   0, 1000, 1.843, 982,   0,   0,   2,  -2,   4, 4195, 117, 146, 142, 119, ANGLE_MODE, GPS_FIX_HOME|GPS_FIX|SMALL_ANGLE, IDLE, 1, 1
712, 49953183,   0,   0,  -1,   0,   0,   0,   0,   0,   0,   0,   0,   0, 1000, 1.834, 982,   0,   0,   1,   2,  -8, 4198, 116, 124, 123, 118, ANGLE_MODE, GPS_FIX_HOME|GPS_FIX|SMALL_ANGLE, IDLE, 1, 1
720, 49957255,   0,   0,   4,   0,   0,   0,   1,   0,   0,   0,   0,   0, 1000, 1.834, 982,   0,   0,  -2,   5, -16, 4200, 138, 116, 123, 141, ANGLE_MODE, GPS_FIX_HOME|GPS_FIX|SMALL_ANGLE, IDLE, 1, 1
728, 49961354,   0,   0,   4,   0,   0,   0,  -1,   0,   0,   0,   0,   0, 1000, 1.834, 982,   0,   0,  -2,   6, -12, 4200, 142, 122, 117, 134, ANGLE_MODE, GPS_FIX_HOME|GPS_FIX|SMALL_ANGLE, IDLE, 1, 1
736, 49965511,   0,   0,  -2,   0,   0,   0,   0,   0,   0,   0,   0,   0, 1000, 1.834, 982,   0,   0,   1,   7, -17, 4201, 118, 134, 127, 119, ANGLE_MODE, GPS_FIX_HOME|GPS_FIX|SMALL_ANGLE, IDLE, 1, 1
744, 49969563,   0,   0,  -6,   0,   0,   0,   0,   0,   0,   0,   0,   0, 1000, 1.843, 982,   0,   0,   2,   5, -13, 4200, 116, 143, 142, 119, ANGLE_MODE, GPS_FIX_HOME|GPS_FIX|SMALL_ANGLE, IDLE, 1, 1
752, 49973614,   0,   0,   0,   0,   0,   0,   0,   0,   0,   0,   0,   0, 1000, 1.843, 982,   0,   0,   0,   9, -18, 4202, 118, 122, 117, 118, ANGLE_MODE, GPS_FIX_HOME|GPS_FIX|SMALL_ANGLE, IDLE, 1, 1
760, 49977675,   0,   0,   6,   0,   0,   0,   1,   0,   0,   0,   0,   0, 1000, 1.843, 982,   0,   0,  -2,   8, -18, 4201, 142, 116, 126, 147, ANGLE_MODE, GPS_FIX_HOME|GPS_FIX|SMALL_ANGLE, IDLE, 1, 1
768, 49981798,   0,   0,   4,   0,   0,   0,   0,   0,   0,   0,   0,   0, 1000, 1.843, 982,   0,   0,  -1,  13, -18, 4201, 138, 119, 116, 132, ANGLE_MODE, GPS_FIX_HOME|GPS_FIX|SMALL_ANGLE, IDLE, 1, 1
776, 49985860,   0,   0,  -3,   0,   0,   0,   0,   0,   0,   0,   0,   0, 1000, 1.843, 982,   0,   0,   1,  12, -15, 4200, 116, 135, 130, 118, ANGLE_MODE, GPS_FIX_HOME|GPS_FIX|SMALL_ANGLE, IDLE, 1, 1
784, 49989945,   0,   0,  -6,   0,   0,   0,   0,   0,   0,   0,   0,   0, 1000, 1.843, 982,   0,   0,   2,  11, -14, 4199, 115, 141, 140, 117, ANGLE_MODE, GPS_FIX_HOME|GPS_FIX|SMALL_ANGLE, IDLE, 1, 1
792, 49994002,   0,   0,   0,   0,   0,   0,   0,   0,   0,   0,   0,   0, 1000, 1.843, 982,   0,   0,   0,  13, -19, 4198, 118, 116, 122, 118, ANGLE_MODE, GPS_FIX_HOME|GPS_FIX|SMALL_ANGLE, IDLE, 1, 1
800, 49998180,   0,   0,   5,   0,   0,   0,   1,   0,   0,   0,   0,   0, 1000, 1.843, 982,  -1,   0,  -2,  10, -13, 4195, 138, 115, 127, 146, ANGLE_MODE, GPS_FIX_HOME|GPS_FIX|SMALL_ANGLE, IDLE, 1, 1
808, 50002249,   0,   0,   2,   0,   0,   0,  -1,   0,   0,   0,   0,   0, 1000, 1.843, 982,   0,   0,  -1,   9, -10, 4192, 136, 123, 116, 127, ANGLE_MODE, GPS_FIX_HOME|GPS_FIX|SMALL_ANGLE, IDLE, 1, 1
816, 50006332,   0,   0,  -4,   0,   0,   0,   1,   0,   0,   0,   0,   0, 1000, 1.843, 982,  -1,   0,   2,   4,  -9, 4190, 116, 133, 141, 122, ANGLE_MODE, GPS_FIX_HOME|GPS_FIX|SMALL_ANGLE, IDLE, 1, 1
824, 50010397,   0,   0,  -6,   0,   0,   0,   0,   0,   0,   0,   0,   0, 1000, 1.843, 982,   0,   0,   2,   2,  -8, 4189, 115, 141, 142, 118, ANGLE_MODE, GPS_FIX_HOME|GPS_FIX|SMALL_ANGLE, IDLE, 1, 1
832, 50014790,   0,   0,   1,   0,   0,   0,   0,   0,   0,   0,   0,   0, 1000, 1.843, 982,  -1,   0,   0,   3, -14, 4189, 122, 115, 120, 121, ANGLE_MODE, GPS_FIX_HOME|GPS_FIX|SMALL_ANGLE, IDLE, 1, 1
840, 50018858,   0,   0,   6,   0,   0,   0,   1,   0,   0,   0,   0,   0, 1000, 1.843, 982,  -1,  -1,  -2,   0,  -9, 4185, 143, 115, 127, 146, ANGLE_MODE, GPS_FIX_HOME|GPS_FIX|SMALL_ANGLE, IDLE, 1, 1
848, 50022935,   0,   0,   1,   0,   0,   0,  -2,   0,   0,   0,   0,   0, 1000, 1.843, 982,   0,   0,   0,  -3,  -6, 4183, 128, 122, 116, 120, ANGLE_MODE, GPS_FIX_HOME|GPS_FIX|SMALL_ANGLE, IDLE, 1, 1
856, 50027007,   0,   0,  -5,   0,   0,   0,   0,   0,   0,   0,   0,   0, 1000, 1.843, 982,  -1,   0,   2,  -5,  -6, 4182, 115, 139, 144, 123, ANGLE_MODE, GPS_FIX_HOME|GPS_FIX|SMALL_ANGLE, IDLE, 1, 1
864, 50031133,   0,   0,  -5,   0,   0,   0,   0,   0,   0,   0,   0,   0, 1000, 1.843, 982,  -1,   0,   2,  -5,  -7, 4180, 116, 137, 142, 118, ANGLE_MODE, GPS_FIX_HOME|GPS_FIX|SMALL_ANGLE, IDLE, 1, 1
872, 50035184,   0,   0,   3,   0,   0,   0,   0,   0,   0,   0,   0,   0, 1000, 1.843, 982,  -1,   0,  -1,  -1, -13, 4180, 131, 115, 122, 134, ANGLE_MODE, GPS_FIX_HOME|GPS_FIX|SMALL_ANGLE, IDLE, 1, 1
880, 50039258,   0,   0,   6,   0,   0,   0,   0,   0,   0,   0,   0,   0, 1000, 1.843, 982,  -1,   0,  -2,  -1,  -8, 4180, 145, 115, 121, 145, ANGLE_MODE, GPS_FIX_HOME|GPS_FIX|SMALL_ANGLE, IDLE, 1, 1
888, 50043318,   0,   0,   0,   0,   0,   0,  -2,   0,   0,   0,   0,   0, 1000, 1.843, 982,   0,   0,   0,  -1, -11, 4181, 123, 125, 116, 116, ANGLE_MODE, GPS_FIX_HOME|GPS_FIX|SMALL_ANGLE, IDLE, 1, 1
896, 50047408,   0,   0,  -6,   0,   0,   0,   0,   0,   0,   0,   0,   0, 1000, 1.843, 982,   0,   0,   2,  -3, -13, 4182, 115, 144, 145, 122, ANGLE_MODE, GPS_FIX_HOME|GPS_FIX|SMALL_ANGLE, IDLE, 1, 1
904, 50051455,   0,   0,  -4,   0,   0,   0,   0,   0,   0,   0,   0,   0, 1000, 1.834, 982,   0,   0,   2,  -2, -17, 4182, 118, 135, 134, 115, ANGLE_MODE, GPS_FIX_HOME|GPS_FIX|SMALL_ANGLE, IDLE, 1, 1
912, 50055520,   0,   0,   5,   0,   0,   0,   0,   0,   0,   0,   0,   0, 1000, 1.834, 982,   0,   0,  -2,   1, -25, 4183, 137, 115, 119, 138, ANGLE_MODE, GPS_FIX_HOME|GPS_FIX|SMALL_ANGLE, IDLE, 1, 1
920, 50059631,   0,   0,   5,   0,   0,   0,   0,   0,   0,   0,   0,   0, 1000, 1.834, 982,   0,   0,  -2,   4, -23, 4184, 137, 115, 117, 139, ANGLE_MODE, GPS_FIX_HOME|GPS_FIX|SMALL_ANGLE, IDLE, 1, 1
928, 50063695,   0,   0,  -1,   0,   0,   0,  -1,   0,   0,   0,   0,   0, 1000, 1.834, 982,   0,   0,   1,   5, -28, 4187, 118, 129, 121, 117, ANGLE_MODE, GPS_FIX_HOME|GPS_FIX|SMALL_ANGLE, IDLE, 1, 1
936, 50067788,   0,   0,  -7,   0,   0,   0,   0,   0,   0,   0,   0,   0, 1000, 1.834, 982,   0,   0,   3,   4, -31, 4189, 115, 148, 145, 118, ANGLE_MODE, GPS_FIX_HOME|GPS_FIX|SMALL_ANGLE, IDLE, 1, 1
944, 50071833,   0,   0,  -2,   0,   0,   0,   0,   0,   0,   0,   0,   0, 1000, 1.843, 982,   0,   0,   1,   5, -37, 4190, 118, 126, 126, 115, ANGLE_MODE, GPS_FIX_HOME|GPS_FIX|SMALL_ANGLE, IDLE, 1, 1
952, 50075896,   0,   0,   6,   0,   0,   0,   0,   0,   0,   0,   0,   0, 1000, 1.843, 982,   0,   0,  -2,   5, -34, 4189, 144, 115, 117, 145, ANGLE_MODE, GPS_FIX_HOME|GPS_FIX|SMALL_ANGLE, IDLE, 1, 1
960, 50079945,   0,   0,   4,   0,   0,   0,   0,   0,   0,   0,   0,   0, 1000, 1.843, 982,   0,   0,  -2,   5, -30, 4187, 140, 119, 117, 134, ANGLE_MODE, GPS_FIX_HOME|GPS_FIX|SMALL_ANGLE, IDLE, 1, 1
968, 50083997,   0,   0,  -4,   0,   0,   0,   0,   0,   0,   0,   0,   0, 1000, 1.843, 982,   0,   0,   2,   4, -29, 4189, 116, 139, 132, 120, ANGLE_MODE, GPS_FIX_HOME|GPS_FIX|SMALL_ANGLE, IDLE, 1, 1
976, 50088077,   0,   0,  -8,   0,   0,   0,   1,   0,   0,   0,   0,   0, 1000, 1.843, 982,   0,   0,   3,   3, -27, 4191, 115, 151, 151, 122, ANGLE_MODE, GPS_FIX_HOME|GPS_FIX|SMALL_ANGLE, IDLE, 1, 1
984, 50092178,   0,   0,   0,   0,   0,   0,   0,   0,   0,   0,   0,   0, 1000, 1.843, 982,   0,   0,   0,   4, -31, 4192, 118, 117, 118, 115, ANGLE_MODE, GPS_FIX_HOME|GPS_FIX|SMALL_ANGLE, IDLE, 1, 1
992, 50096236,   0,   0,   7,   0,   0,   0,   1,   0,   0,   0,   0,   0, 1000, 1.843, 982,   0,   0,  -3,   2, -24, 4192, 146, 115, 122, 150, ANGLE_MODE, GPS_FIX_HOME|GPS_FIX|SMALL_ANGLE, IDLE, 1, 1
1000, 50100289,   0,   0,   3,   0,   0,   0,  -1,   0,   0,   0,   0,   0, 1000, 1.843, 982,   0,   0,  -1,   2, -20, 4191, 137, 123, 116, 130, ANGLE_MODE, GPS_FIX_HOME|GPS_FIX|SMALL_ANGLE, IDLE, 1, 1
1008, 50104357,   0,   0,  -6,   0,   0,   0,   0,   0,   0,   0,   0,   0, 1000, 1.843, 982,   0,   0,   2,  -3, -18, 4190, 115, 144, 142, 119, ANGLE_MODE, GPS_FIX_HOME|GPS_FIX|SMALL_ANGLE, IDLE, 1, 1
1016, 50108418,   0,   0,  -6,   0,   0,   0,   1,   0,   0,   0,   0,   0, 1000, 1.843, 982,   0,   0,   2,  -4, -20, 4191, 116, 142, 148, 120, ANGLE_MODE, GPS_FIX_HOME|GPS_FIX|SMALL_ANGLE, IDLE, 1, 1
1024, 50112754,   0,   0,   2,   0,   0,   0,   0,   1,   0,   0,   0,   0, 1000, 1.834, 982,   0,   0,  -1,  -4, -20, 4191, 132, 115, 121, 127, ANGLE_MODE, GPS_FIX_HOME|GPS_FIX|SMALL_ANGLE, IDLE, 1, 1
1032, 50116906,   0,   0,   7,   0,   0,   0,   1,   0,   0,   0,   0,   0, 1000, 1.834, 982,   0,   0,  -3,  -6, -14, 4190, 147, 115, 123, 153, ANGLE_MODE, GPS_FIX_HOME|GPS_FIX|SMALL_ANGLE, IDLE, 1, 1
1040, 50120958,   0,   0,   0,   0,   0,   0,  -1,   0,   0,   0,   0,   0, 1000, 1.834, 982,   0,   0,   0,  -6, -10, 4189, 121, 122, 115, 117, ANGLE_MODE, GPS_FIX_HOME|GPS_FIX|SMALL_ANGLE, IDLE, 1, 1
1048, 50125013,   0,   0,  -7,   0,   0,   0,   1,   0,   0,   0,   0,   0, 1000, 1.834, 982,  -1,   0,   3,  -9, -10, 4189, 115, 146, 154, 126, ANGLE_MODE, GPS_FIX_HOME|GPS_FIX|SMALL_ANGLE, IDLE, 1, 1
1056, 50129051,   0,   0,  -4,   0,   0,   0,   0,   0,   0,   0,   0,   0, 1000, 1.834, 982,   0,   0,   2,  -3, -18, 4192, 119, 135, 140, 116, ANGLE_MODE, GPS_FIX_HOME|GPS_FIX|SMALL_ANGLE, IDLE, 1, 1
1064, 50133100,   0,   0,   4,   0,   0,   0,   0,   0,   0,   0,   0,   0, 1000, 1.843, 982,  -1,   0,  -2,  11, -28, 4198, 139, 116, 120, 133, ANGLE_MODE, GPS_FIX_HOME|GPS_FIX|SMALL_ANGLE, IDLE, 1, 1
1072, 50137164,   0,   0,   7,   0,   0,   0,   1,   0,   0,   0,   0,   0, 1000, 1.843, 982,  -1,  -1,  -3,  19, -31, 4201, 149, 115, 126, 152, ANGLE_MODE, GPS_FIX_HOME|GPS_FIX|SMALL_ANGLE, IDLE, 1, 1
1080, 50141243,   0,   0,  -2,   0,   0,   0,  -1,   0,   0,   0,   0,   0, 1000, 1.843, 982,   0,   0,   1,  22, -31, 4204, 122, 133, 123, 117, ANGLE_MODE, GPS_FIX_HOME|GPS_FIX|SMALL_ANGLE, IDLE, 1, 1
1088, 50145296,   0,   0,  -8,   0,   0,   0,   1,   0,   0,   0,   0,   0, 1000, 1.843, 982,  -1,   0,   3,  24, -36, 4206, 115, 151, 159, 127, ANGLE_MODE, GPS_FIX_HOME|GPS_FIX|SMALL_ANGLE, IDLE, 1, 1
1096, 50149365,   0,   0,  -2,   0,   0,   0,   0,   0,   0,   0,   0,   0, 1000, 1.843, 982,   0,   0,   1,  26, -37, 4207, 117, 124, 128, 117, ANGLE_MODE, GPS_FIX_HOME|GPS_FIX|SMALL_ANGLE, IDLE, 1, 1
1104, 50153456,   0,   0,   7,   0,   0,   0,   0,   0,   0,   0,   0,   0, 1000, 1.843, 982,  -1,   0,  -3,  26, -33, 4206, 149, 115, 118, 147, ANGLE_MODE, GPS_FIX_HOME|GPS_FIX|SMALL_ANGLE, IDLE, 1, 1
1112, 50157528,   0,   0,   5,   0,   0,   0,   0,   0,   0,   0,   0,   0, 1000, 1.843, 982,   0,   0,  -2,  24, -28, 4204, 141, 115, 119, 141, ANGLE_MODE, GPS_FIX_HOME|GPS_FIX|SMALL_ANGLE, IDLE, 1, 1
1120, 50161595,   0,   0,  -5,   0,   0,   0,  -1,   0,   0,   0,   0,   0, 1000, 1.843, 982,   0,   0,   2,  20, -27, 4202, 121, 142, 136, 116, ANGLE_MODE, GPS_FIX_HOME|GPS_FIX|SMALL_ANGLE, IDLE, 1, 1
1128, 50165674,   0,   0,  -7,   0,   0,   0,   1,   0,   0,   0,   0,   0, 1000, 1.843, 982,  -1,   0,   2,  16, -31, 4201, 115, 144, 151, 123, ANGLE_MODE, GPS_FIX_HOME|GPS_FIX|SMALL_ANGLE, IDLE, 1, 1
1136, 50169739,   0,   0,   1,   0,   0,   0,   0,   0,   0,   0,   0,   0, 1000, 1.843, 982,   0,   0,  -1,  13, -34, 4199, 126, 116, 117, 122, ANGLE_MODE, GPS_FIX_HOME|GPS_FIX|SMALL_ANGLE, IDLE, 1, 1
1144, 50173811,   0,   0,   8,   0,   0,   0,   0,   0,   0,   0,   0,   0, 1000, 1.843, 982,   0,   0,  -3,  12, -28, 4195, 150, 116, 117, 148, ANGLE_MODE, GPS_FIX_HOME|GPS_FIX|SMALL_ANGLE, IDLE, 1, 1
1152, 50177886,   0,   0,   1,   0,   0,   0,   0,   0,   0,   0,   0,   0, 1000, 1.843, 982,   0,   0,   0,  11, -21, 4192, 121, 116, 117, 124, ANGLE_MODE, GPS_FIX_HOME|GPS_FIX|SMALL_ANGLE, IDLE, 1, 1
1160, 50181989,   0,   0,  -6,   0,   0,   0,   0,  -1,   0,   0,   0,   0, 1000, 1.843, 982,   0,   0,   2,   9, -22, 4191, 116, 151, 143, 122, ANGLE_MODE, GPS_FIX_HOME|GPS_FIX|SMALL_ANGLE, IDLE, 1, 1
1168, 50186072,   0,   0,  -5,   0,   0,   0,   0,   0,   0,   0,   0,   0, 1000, 1.843, 982,   0,   0,   2,   7, -24, 4190, 115, 138, 141, 121, ANGLE_MODE, GPS_FIX_HOME|GPS_FIX|SMALL_ANGLE, IDLE, 1, 1
1176, 50190144,   0,   0,   3,   0,   0,   0,  -1,   1,   0,   0,   0,   0, 1000, 1.843, 982,   0,   0,  -1,  10, -27, 4194, 140, 119, 118, 129, ANGLE_MODE, GPS_FIX_HOME|GPS_FIX|SMALL_ANGLE, IDLE, 1, 1
1184, 50194204,   0,   0,   7,   0,   0,   0,   0,   0,   0,   0,   0,   0, 1000, 1.843, 982,   0,   0,  -3,   9, -24, 4196, 148, 117, 116, 144, ANGLE_MODE, GPS_FIX_HOME|GPS_FIX|SMALL_ANGLE, IDLE, 1, 1
1192, 50198333,   0,   0,   0,   0,   0,   0,   0,   0,   0,   0,   0,   0, 1000, 1.843, 982,   0,   0,   0,   8, -23, 4197, 119, 125, 118, 117, ANGLE_MODE, GPS_FIX_HOME|GPS_FIX|SMALL_ANGLE, IDLE, 1, 1
1200, 50202395,   0,   0,  -9,   0,   0,   0,   0,   0,   0,   0,   0,  -1, 1000, 1.843, 992,   0,   0,   3,   7, -27, 4196, 115, 158, 157, 121, ANGLE_MODE, GPS_FIX_HOME|GPS_FIX|SMALL_ANGLE, IDLE, 1, 1
1208, 50206711,   0,   0,  -3,   0,   0,   0,   1,   0,   0,   0,   0,  -1, 1000, 1.843, 992,   0,   0,   1,   6, -31, 4196, 115, 129, 133, 120, ANGLE_MODE, GPS_FIX_HOME|GPS_FIX|SMALL_ANGLE, IDLE, 1, 1
1216, 50210756,   0,   0,   6,   0,   0,   0,  -1,   0,   0,   0,   0,  -1, 1000, 1.843, 992,   0,   0,  -3,   8, -23, 4194, 148, 120, 116, 142, ANGLE_MODE, GPS_FIX_HOME|GPS_FIX|SMALL_ANGLE, IDLE, 1, 1
1224, 50214812,   0,   0,   4,   0,   0,   0,   0,   0,   0,   0,   0,  -1, 1000, 1.843, 992,   0,   0,  -2,   5, -16, 4191, 133, 115, 117, 132, ANGLE_MODE, GPS_FIX_HOME|GPS_FIX|SMALL_ANGLE, IDLE, 1, 1
1232, 50218876,   0,   0,  -6,   0,   0,   0,   0,  -1,   0,   0,   0,  -1, 1000, 1.843, 992,   0,   0,   2,   1, -16, 4191, 115, 148, 143, 122, ANGLE_MODE, GPS_FIX_HOME|GPS_FIX|SMALL_ANGLE, IDLE, 1, 1
1240, 50222959,   0,   0, -10,   0,   0,   0,   1,   0,   0,   0,   0,  -1, 1000, 1.843, 992,   0,   0,   3,  -5, -17, 4190, 116, 156, 163, 121, ANGLE_MODE, GPS_FIX_HOME|GPS_FIX|SMALL_ANGLE, IDLE, 1, 1
1248, 50227048,   0,   0,   0,   0,   0,   0,  -1,   1,   0,   0,   0,  -1, 1000, 1.843, 992,   0,   0,  -1,  -8, -18, 4189, 126, 120, 120, 116, ANGLE_MODE, GPS_FIX_HOME|GPS_FIX|SMALL_ANGLE, IDLE, 1, 1
1256, 50231123,   0,   0,   6,   0,   0,   0,   0,   0,   0,   0,   0,  -1, 1000, 1.834, 992,   0,   0,  -3, -10,  -9, 4187, 145, 115, 122, 143, ANGLE_MODE, GPS_FIX_HOME|GPS_FIX|SMALL_ANGLE, IDLE, 1, 1
1264, 50235214,   0,   0,   0,   0,   0,   0,   0,   0,   0,   0,   0,  -1, 1000, 1.834, 982,   0,   0,  -1, -11,  -6, 4186, 117, 116, 118, 120, ANGLE_MODE, GPS_FIX_HOME|GPS_FIX|SMALL_ANGLE, IDLE, 1, 1
1272, 50239288,   0,   0,  -8,   0,   0,   0,   0,   0,   0,   0,   0,  -1, 1000, 1.834, 982,  -1,   0,   3, -12,  -4, 4186, 115, 153, 156, 124, ANGLE_MODE, GPS_FIX_HOME|GPS_FIX|SMALL_ANGLE, IDLE, 1, 1
1280, 50243361,   0,   0,  -5,   0,   0,   0,   1,   0,   0,   0,   0,  -1, 1000, 1.834, 982,  -1,   0,   2, -11, -10, 4188, 116, 139, 149, 124, ANGLE_MODE, GPS_FIX_HOME|GPS_FIX|SMALL_ANGLE, IDLE, 1, 1
1288, 50247418,   0,   0,   2,   0,   0,   0,  -1,   0,   0,   0,   0,  -1, 1000, 1.834, 982,   0,   0,  -1,  -9,  -6, 4187, 133, 119, 117, 124, ANGLE_MODE, GPS_FIX_HOME|GPS_FIX|SMALL_ANGLE, IDLE, 1, 1
1296, 50251483,   0,   0,   4,   0,   0,   0,   0,   0,   0,   0,   0,  -1, 1000, 1.843, 982,  -1,   0,  -2, -10,   1, 4185, 138, 115, 122, 137, ANGLE_MODE, GPS_FIX_HOME|GPS_FIX|SMALL_ANGLE, IDLE, 1, 1
1304, 50255538,   0,   0,  -3,   0,   0,   0,   0,   0,   0,   0,   0,  -1, 1000, 1.843, 982,   0,   0,   1, -10,  -1, 4187, 116, 128, 129, 116, ANGLE_MODE, GPS_FIX_HOME|GPS_FIX|SMALL_ANGLE, IDLE, 1, 1
1312, 50259607,   0,   0,  -9,   0,   0,   0,   0,   0,   0,   0,   0,  -1, 1000, 1.843, 982,  -1,   0,   3, -10,  -5, 4191, 116, 152, 160, 123, ANGLE_MODE, GPS_FIX_HOME|GPS_FIX|SMALL_ANGLE, IDLE, 1, 1
1320, 50263662,   0,   0,  -3,   0,   0,   0,   0,   0,   0,   0,   0,  -1, 1000, 1.843, 982,  -1,   0,   1, -10, -12, 4193, 117, 128, 136, 120, ANGLE_MODE, GPS_FIX_HOME|GPS_FIX|SMALL_ANGLE, IDLE, 1, 1
1328, 50267736,   0,   0,   4,   0,   0,   0,  -2,   0,   0,   0,   0,  -1, 1000, 1.843, 982,   0,  -1,  -2,  -7,  -8, 4192, 144, 122, 118, 131, ANGLE_MODE, GPS_FIX_HOME|GPS_FIX|SMALL_ANGLE, IDLE, 1, 1
1336, 50271793,   0,   0,   2,   0,   0,   0,   1,   0,   0,   0,   0,  -1, 1000, 1.843, 982,  -1,   0,  -2,  -5,  -7, 4192, 128, 115, 126, 137, ANGLE_MODE, GPS_FIX_HOME|GPS_FIX|SMALL_ANGLE, IDLE, 1, 1
1344, 50275850,   0,   0,  -4,   0,   0,   0,   0,  -1,   0,   0,   0,   0, 1000, 1.843, 982,   0,   0,   2,  -5, -10, 4194, 115, 137, 135, 120, ANGLE_MODE, GPS_FIX_HOME|GPS_FIX|SMALL_ANGLE, IDLE, 1, 1
1352, 50279931,   0,   0,  -6,   0,   0,   0,   0,   0,   0,   0,   0,   0, 1000, 1.843, 982,  -1,   0,   2,  -2, -22, 4196, 116, 140, 144, 117, ANGLE_MODE, GPS_FIX_HOME|GPS_FIX|SMALL_ANGLE, IDLE, 1, 1
1360, 50284100,   0,   0,   1,   0,   0,   0,   0,   0,   0,   0,   0,   0, 1000, 1.843, 982,   0,   0,  -1,   2, -27, 4195, 124, 115, 119, 124, ANGLE_MODE, GPS_FIX_HOME|GPS_FIX|SMALL_ANGLE, IDLE, 1, 1
1368, 50288169,   0,   0,   6,   0,   0,   0,  -2,   0,   0,   0,   0,   0, 1000, 1.843, 982,   0,   0,  -2,   5, -27, 4194, 155, 124, 117, 140, ANGLE_MODE, GPS_FIX_HOME|GPS_FIX|SMALL_ANGLE, IDLE, 1, 1
1376, 50292223,   0,   0,   1,   0,   0,   0,   1,   0,   0,   0,   0,   0, 1000, 1.843, 982,   0,   0,   0,   4, -27, 4192, 121, 116, 121, 128, ANGLE_MODE, GPS_FIX_HOME|GPS_FIX|SMALL_ANGLE, IDLE, 1, 1
1384, 50296289,   0,   0,  -6,   0,   0,   0,   0,  -1,   0,   0,   0,   0, 1000, 1.843, 982,   0,   0,   2,   7, -34, 4192, 115, 148, 143, 122, ANGLE_MODE, GPS_FIX_HOME|GPS_FIX|SMALL_ANGLE, IDLE, 1, 1
1392, 50300616,   0,   0,  -3,   0,   0,   0,   0,   0,   0,   0,   0,   0, 1000, 1.843, 971,   0,   0,   1,   7, -39, 4191, 115, 129, 130, 117, ANGLE_MODE, GPS_FIX_HOME|GPS_FIX|SMALL_ANGLE, IDLE, 1, 1
1400, 50304689,   0,   0,   4,   0,   0,   0,   0,   0,   0,   0,   0,   0, 1000, 1.843, 971,   0,   0,  -2,   8, -35, 4188, 137, 117, 116, 135, ANGLE_MODE, GPS_FIX_HOME|GPS_FIX|SMALL_ANGLE, IDLE, 1, 1
1408, 50308734,   0,   0,   4,   0,   0,   0,  -1,   0,   0,   0,   0,   0, 1000, 1.843, 971,   0,   0,  -1,   9, -28, 4187, 141, 122, 116, 131, ANGLE_MODE, GPS_FIX_HOME|GPS_FIX|SMALL_ANGLE, IDLE, 1, 1
1416, 50312813,   0,   0,  -2,   0,   0,   0,   1,   0,   0,   0,   0,   0, 1000, 1.843, 971,   0,   0,   1,   7, -27, 4187, 115, 129, 133, 125, ANGLE_MODE, GPS_FIX_HOME|GPS_FIX|SMALL_ANGLE, IDLE, 1, 1
1424, 50316881,   0,   0,  -6,   0,   0,   0,   0,   0,   0,   0,   0,   0, 1000, 1.843, 971,   0,   0,   2,   8, -32, 4187, 115, 143, 143, 119, ANGLE_MODE, GPS_FIX_HOME|GPS_FIX|SMALL_ANGLE, IDLE, 1, 1
1432, 50320941,   0,   0,   0,   0,   0,   0,   0,   0,   0,   0,   0,   0, 1000, 1.843, 971,   0,   0,   0,   7, -30, 4188, 120, 117, 116, 117, ANGLE_MODE, GPS_FIX_HOME|GPS_FIX|SMALL_ANGLE, IDLE, 1, 1
1440, 50325019,   0,   0,   5,   0,   0,   0,   0,   0,   0,   0,   0,   0, 1000, 1.843, 971,   0,   0,  -2,  12, -36, 4183, 143, 116, 118, 139, ANGLE_MODE, GPS_FIX_HOME|GPS_FIX|SMALL_ANGLE, IDLE, 1, 1
1448, 50329102,   0,   0,   2,   0,   0,   0,   0,   0,   0,   0,   0,   0, 1000, 1.843, 971,   0,   0,  -1,  14, -39, 4177, 129, 117, 117, 124, ANGLE_MODE, GPS_FIX_HOME|GPS_FIX|SMALL_ANGLE, IDLE, 1, 1
1456, 50333140,   0,   0,  -3,   0,   0,   0,   1,  -1,   0,   0,   0,   0, 1000, 1.834, 971,   0,   0,   1,  15, -49, 4176, 115, 133, 135, 125, ANGLE_MODE, GPS_FIX_HOME|GPS_FIX|SMALL_ANGLE, IDLE, 1, 1
1464, 50337204,   0,   0,  -5,   0,   0,   0,   1,   0,   0,   0,   0,   0, 1000, 1.834, 971,  -1,   0,   2,  16, -52, 4176, 117, 136, 145, 121, ANGLE_MODE, GPS_FIX_HOME|GPS_FIX|SMALL_ANGLE, IDLE, 1, 1
1472, 50341264,   0,   0,   2,   0,   0,   0,   0,   0,   0,   0,   0,   0, 1000, 1.834, 971,   0,   0,  -1,  18, -53, 4177, 128, 118, 116, 123, ANGLE_MODE, GPS_FIX_HOME|GPS_FIX|SMALL_ANGLE, IDLE, 1, 1
1480, 50345329,   0,   0,   4,   0,   0,   0,   0,   0,   0,   0,   0,   0, 1000, 1.834, 971,   0,   0,  -2,  17, -43, 4179, 139, 117, 118, 134, ANGLE_MODE, GPS_FIX_HOME|GPS_FIX|SMALL_ANGLE, IDLE, 1, 1
1488, 50349396,   0,   0,   0,   0,   0,   0,   0,   0,   0,   0,   0,   0, 1000, 1.834, 971,   0,   0,   0,  12, -36, 4181, 116, 118, 121, 116, ANGLE_MODE, GPS_FIX_HOME|GPS_FIX|SMALL_ANGLE, IDLE, 1, 1
1496, 50353451,   0,   0,  -5,   0,   0,   0,   0,   0,   0,   0,   0,   0, 1000, 1.834, 971,  -1,   0,   2,  12, -38, 4184, 115, 138, 141, 123, ANGLE_MODE, GPS_FIX_HOME|GPS_FIX|SMALL_ANGLE, IDLE, 1, 1
1504, 50357525,   0,   0,  -2,   0,   0,   0,   0,   0,   0,   0,   0,   0, 1000, 1.834, 971,  -1,   0,   1,  10, -32, 4185, 118, 124, 133, 118, ANGLE_MODE, GPS_FIX_HOME|GPS_FIX|SMALL_ANGLE, IDLE, 1, 1
1512, 50361593,   0,   0,   3,   0,   0,   0,   0,   0,   0,   0,   0,   0, 1000, 1.834, 982,   0,   0,  -1,  10, -29, 4184, 132, 117, 115, 131, ANGLE_MODE, GPS_FIX_HOME|GPS_FIX|SMALL_ANGLE, IDLE, 1, 1
1520, 50365675,   0,   0,   2,   0,   0,   0,   0,   0,   0,   0,   0,   0, 1000, 1.834, 982,   0,   0,  -1,   8, -18, 4183, 131, 115, 121, 128, ANGLE_MODE, GPS_FIX_HOME|GPS_FIX|SMALL_ANGLE, IDLE, 1, 1
1528, 50369732,   0,   0,  -2,   0,   0,   0,   0,   0,   0,   0,   0,   0, 1000, 1.843, 982,  -1,   0,   1,   6, -15, 4183, 116, 127, 130, 119, ANGLE_MODE, GPS_FIX_HOME|GPS_FIX|SMALL_ANGLE, IDLE, 1, 1
1536, 50373808,   0,   0,  -4,   0,   0,   0,   0,   0,   0,   0,   0,   0, 1000, 1.843, 982,  -1,   0,   2,   4, -17, 4184, 116, 136, 139, 124, ANGLE_MODE, GPS_FIX_HOME|GPS_FIX|SMALL_ANGLE, IDLE, 1, 1
1544, 50377881,   0,   0,   1,   0,   0,   0,   0,   0,   0,   0,   0,   0, 1000, 1.843, 982,  -1,   0,   0,   3, -17, 4185, 125, 116, 123, 122, ANGLE_MODE, GPS_FIX_HOME|GPS_FIX|SMALL_ANGLE, IDLE, 1, 1
1552, 50381945,   0,   0,   5,   0,   0,   0,  -1,   0,   0,   0,   0,   0, 1000, 1.843, 982,   0,   0,  -2,   3, -14, 4186, 145, 123, 117, 139, ANGLE_MODE, GPS_FIX_HOME|GPS_FIX|SMALL_ANGLE, IDLE, 1, 1
1560, 50386015,   0,   0,   1,   0,   0,   0,   0,   0,   0,   0,   0,   0, 1000, 1.843, 982,   0,   0,   0,   1,  -8, 4186, 124, 117, 119, 121, ANGLE_MODE, GPS_FIX_HOME|GPS_FIX|SMALL_ANGLE, IDLE, 1, 1
1568, 50390083,   0,   0,  -4,   0,   0,   0,   0,   0,   0,   0,   0,   0, 1000, 1.834, 982,  -1,   0,   2,  -1, -12, 4187, 116, 138, 140, 124, ANGLE_MODE, GPS_FIX_HOME|GPS_FIX|SMALL_ANGLE, IDLE, 1, 1
1576, 50394392,   0,   0,  -4,   0,   0,   0,   0,   0,   0,   0,   0,   0, 1000, 1.834, 982,  -1,   0,   1, -13,  -9, 4193, 116, 134, 139, 124, ANGLE_MODE, GPS_FIX_HOME|GPS_FIX|SMALL_ANGLE, IDLE, 1, 1
1584, 50398451,   0,   0,   3,   0,   0,   0,  -1,   0,   0,   0,   0,   0, 1000, 1.834, 982,   0,   0,  -1, -19,  -6, 4195, 133, 119, 117, 128, ANGLE_MODE, GPS_FIX_HOME|GPS_FIX|SMALL_ANGLE, IDLE, 1, 1
1592, 50402501,   0,   0,   4,   0,   0,   0,   0,   0,   0,   0,   0,   0, 1000, 1.834, 982,   0,   0,  -2, -24,   0, 4197, 139, 117, 118, 135, ANGLE_MODE, GPS_FIX_HOME|GPS_FIX|SMALL_ANGLE, IDLE, 1, 1
1600, 50406560,   0,   0,   0,   0,   0,   0,   0,   0,   0,   0,   0,   0, 1000, 1.834, 982,   0,   0,   0, -26,   1, 4197, 120, 123, 120, 117, ANGLE_MODE, GPS_FIX_HOME|GPS_FIX|SMALL_ANGLE, IDLE, 1, 1
1608, 50410628,   0,   0,  -6,   0,   0,   0,   0,   0,   0,   0,   0,   0, 1000, 1.834, 982,   0,   0,   2, -27,  -2, 4198, 116, 144, 145, 122, ANGLE_MODE, GPS_FIX_HOME|GPS_FIX|SMALL_ANGLE, IDLE, 1, 1
1616, 50414688,   0,   0,  -1,   0,   0,   0,   0,   0,   0,   0,   0,   0, 1000, 1.834, 982,   0,   0,   1, -25, -10, 4197, 117, 124, 129, 120, ANGLE_MODE, GPS_FIX_HOME|GPS_FIX|SMALL_ANGLE, IDLE, 1, 1
1624, 50418755,   0,   0,   4,   0,   0,   0,  -1,   0,   0,   0,   0,   0, 1000, 1.834, 982,   0,   0,  -2, -22, -12, 4196, 141, 121, 117, 136, ANGLE_MODE, GPS_FIX_HOME|GPS_FIX|SMALL_ANGLE, IDLE, 1, 1
1632, 50422818,   0,   0,   4,   0,   0,   0,   0,   0,   0,   0,   0,   0, 1000, 1.834, 982,   0,   0,  -2, -22,  -6, 4193, 137, 118, 117, 134, ANGLE_MODE, GPS_FIX_HOME|GPS_FIX|SMALL_ANGLE, IDLE, 1, 1
1640, 50426876,   0,   0,  -3,   0,   0,   0,   0,   0,   0,   0,   0,   0, 1000, 1.834, 982,   0,   0,   1, -18, -11, 4191, 116, 132, 130, 118, ANGLE_MODE, GPS_FIX_HOME|GPS_FIX|SMALL_ANGLE, IDLE, 1, 1
1648, 50430925,   0,   0,  -6,   0,   0,   0,   1,   0,   0,   0,   0,   0, 1000, 1.843, 982,   0,   0,   2, -18, -14, 4192, 116, 146, 151, 125, ANGLE_MODE, GPS_FIX_HOME|GPS_FIX|SMALL_ANGLE, IDLE, 1, 1
1656, 50435034,   0,   0,   0,   0,   0,   0,   0,   0,   0,   0,   0,   0, 1000, 1.843, 992,   0,   0,   0, -13, -21, 4192, 121, 116, 121, 118, ANGLE_MODE, GPS_FIX_HOME|GPS_FIX|SMALL_ANGLE, IDLE, 1, 1
1664, 50439100,   0,   0,   6,   0,   0,   0,  -1,   0,   0,   0,   0,   0, 1000, 1.843, 992,   0,   0,  -2, -11, -19, 4191, 147, 118, 118, 139, ANGLE_MODE, GPS_FIX_HOME|GPS_FIX|SMALL_ANGLE, IDLE, 1, 1
1672, 50443165,   0,   0,   2,   0,   0,   0,   0,   0,   0,   0,   0,   0, 1000, 1.843, 992,   0,   0,  -1, -11, -11, 4191, 127, 118, 117, 130, ANGLE_MODE, GPS_FIX_HOME|GPS_FIX|SMALL_ANGLE, IDLE, 1, 1
1680, 50447263,   0,   0,  -4,   0,   0,   0,   0,   0,   0,   0,   0,   0, 1000, 1.843, 992,   0,   0,   2,  -7, -13, 4190, 116, 136, 135, 119, ANGLE_MODE, GPS_FIX_HOME|GPS_FIX|SMALL_ANGLE, IDLE, 1, 1
1688, 50451356,   0,   0,  -4,   0,   0,   0,   1,   0,   0,   0,   0,   0, 1000, 1.843, 992,  -1,   0,   2,  -9, -16, 4192, 117, 134, 143, 124, ANGLE_MODE, GPS_FIX_HOME|GPS_FIX|SMALL_ANGLE, IDLE, 1, 1
1696, 50455434,   0,   0,   2,   0,   0,   0,   0,   0,   0,   0,   0,   0, 1000, 1.843, 1002,   0,   0,  -1,  -6, -21, 4191, 130, 117, 119, 127, ANGLE_MODE, GPS_FIX_HOME|GPS_FIX|SMALL_ANGLE, IDLE, 1, 1
1704, 50459503,   0,   0,   6,   0,   0,   0,   0,   0,   0,   0,   0,   0, 1000, 1.843, 1002,   0,   0,  -2,  -6, -16, 4191, 145, 117, 118, 140, ANGLE_MODE, GPS_FIX_HOME|GPS_FIX|SMALL_ANGLE, IDLE, 1, 1
1712, 50463557,   0,   0,   0,   0,   0,   0,   0,   0,   0,   0,   0,   0, 1000, 1.843, 1002,   0,   0,   0,  -5, -13, 4192, 118, 117, 116, 118, ANGLE_MODE, GPS_FIX_HOME|GPS_FIX|SMALL_ANGLE, IDLE, 1, 1
1720, 50467615,   0,   0,  -5,   0,   0,   0,   0,   0,   0,   0,   0,   0, 1000, 1.843, 1002,   0,   0,   2,  -2, -16, 4193, 117, 143, 140, 119, ANGLE_MODE, GPS_FIX_HOME|GPS_FIX|SMALL_ANGLE, IDLE, 1, 1
1728, 50471674,   0,   0,  -3,   0,   0,   0,   1,   0,   0,   0,   0,   0, 1000, 1.843, 1002,  -1,   0,   1,   9, -26, 4198, 117, 129, 140, 127, ANGLE_MODE, GPS_FIX_HOME|GPS_FIX|SMALL_ANGLE, IDLE, 1, 1
1736, 50475737,   0,   0,   3,   0,   0,   0,   0,   0,   0,   0,   0,   0, 1000, 1.843, 1002,   0,   0,  -1,  18, -30, 4198, 136, 117, 121, 131, ANGLE_MODE, GPS_FIX_HOME|GPS_FIX|SMALL_ANGLE, IDLE, 1, 1
1744, 50479793,   0,   0,   5,   0,   0,   0,  -1,   0,   0,   0,   0,   0, 1000, 1.843, 1002,   0,   0,  -2,  20, -24, 4198, 144, 120, 117, 137, ANGLE_MODE, GPS_FIX_HOME|GPS_FIX|SMALL_ANGLE, IDLE, 1, 1
1752, 50483858,   0,   0,  -1,   0,   0,   0,   0,   0,   0,   0,   0,   0, 1000, 1.843, 1002,   0,   0,   1,  22, -24, 4199, 116, 127, 126, 122, ANGLE_MODE, GPS_FIX_HOME|GPS_FIX|SMALL_ANGLE, IDLE, 1, 1
1760, 50488178,   0,   0,  -6,   0,   0,   0,   0,   0,   0,   0,   0,   0, 1000, 1.843, 1002,   0,   0,   2,  22, -31, 4200, 117, 144, 143, 118, ANGLE_MODE, GPS_FIX_HOME|GPS_FIX|SMALL_ANGLE, IDLE, 1, 1
1768, 50492227,   0,   0,  -2,   0,   0,   0,   1,   0,   0,   0,   0,   0, 1000, 1.834, 1002,  -1,   0,   1,  22, -31, 4200, 118, 123, 136, 124, ANGLE_MODE, GPS_FIX_HOME|GPS_FIX|SMALL_ANGLE, IDLE, 1, 1
1776, 50496303,   0,   0,   5,   0,   0,   0,  -1,   0,   0,   0,   0,   0, 1000, 1.834, 1002,   0,   0,  -2,  23, -32, 4197, 147, 123, 117, 139, ANGLE_MODE, GPS_FIX_HOME|GPS_FIX|SMALL_ANGLE, IDLE, 1, 1
1784, 50500374,   0,   0,   4,   0,   0,   0,   0,   0,   0,   0,   0,   0, 1000, 1.834, 1002,   0,   0,  -2,  20, -25, 4195, 137, 118, 116, 137, ANGLE_MODE, GPS_FIX_HOME|GPS_FIX|SMALL_ANGLE, IDLE, 1, 1
1792, 50504446,   0,   0,  -3,   0,   0,   0,   0,   0,   0,   0,   0,   0, 1000, 1.834, 1002,   0,   0,   1,  18, -22, 4193, 116, 132, 134, 122, ANGLE_MODE, GPS_FIX_HOME|GPS_FIX|SMALL_ANGLE, IDLE, 1, 1
1800, 50508501,   0,   0,  -6,   0,   0,   0,   0,   0,   0,   0,   0,   0, 1000, 1.834, 1002,   0,   0,   2,  15, -27, 4193, 118, 148, 141, 118, ANGLE_MODE, GPS_FIX_HOME|GPS_FIX|SMALL_ANGLE, IDLE, 1, 1
1808, 50512563,   0,   0,   0,   0,   0,   0,   1,   1,   0,   0,   0,   0, 1000, 1.843, 1002,  -1,   0,   0,  12, -27, 4192, 122, 116, 131, 127, ANGLE_MODE, GPS_FIX_HOME|GPS_FIX|SMALL_ANGLE, IDLE, 1, 1
1816, 50516624,   0,   0,   7,   0,   0,   0,  -1,   0,   0,   0,   0,   0, 1000, 1.843, 1002,   0,   0,  -3,  11, -25, 4190, 157, 124, 118, 145, ANGLE_MODE, GPS_FIX_HOME|GPS_FIX|SMALL_ANGLE, IDLE, 1, 1
1824, 50520690,   0,   0,   3,   0,   0,   0,   0,   0,   0,   0,   0,   0, 1000, 1.843, 1002,   0,   0,  -1,   8, -16, 4189, 131, 120, 116, 129, ANGLE_MODE, GPS_FIX_HOME|GPS_FIX|SMALL_ANGLE, IDLE, 1, 1
1832, 50524753,   0,   0,  -5,   0,   0,   0,   1,   0,   0,   0,   0,   0, 1000, 1.843, 1002,   0,   0,   2,   4, -17, 4188, 116, 141, 146, 124, ANGLE_MODE, GPS_FIX_HOME|GPS_FIX|SMALL_ANGLE, IDLE, 1, 1
1840, 50528820,   0,   0,  -6,   0,   0,   0,   0,   0,   0,   0,   0,   0, 1000, 1.843, 1002,   0,   0,   2,   4, -20, 4188, 117, 145, 143, 118, ANGLE_MODE, GPS_FIX_HOME|GPS_FIX|SMALL_ANGLE, IDLE, 1, 1
1848, 50532922,   0,   0,   3,   0,   0,   0,   1,   0,   0,   0,   0,   0, 1000, 1.834, 1002,   0,   0,  -1,   3, -21, 4188, 133, 116, 125, 136, ANGLE_MODE, GPS_FIX_HOME|GPS_FIX|SMALL_ANGLE, IDLE, 1, 1
1856, 50536996,   0,   0,   7,   0,   0,   0,  -1,   0,   0,   0,   0,   0, 1000, 1.834, 1002,   0,   0,  -3,   4, -17, 4188, 156, 123, 118, 146, ANGLE_MODE, GPS_FIX_HOME|GPS_FIX|SMALL_ANGLE, IDLE, 1, 1
1864, 50541053,   0,   0,   0,   0,   0,   0,   0,   0,   0,   0,   0,   0, 1000, 1.834, 1002,   0,   0,   0,   1,  -6, 4188, 118, 123, 117, 121, ANGLE_MODE, GPS_FIX_HOME|GPS_FIX|SMALL_ANGLE, IDLE, 1, 1
1872, 50545129,   0,   0,  -6,   0,   0,   0,   0,   0,   0,   0,   0,   0, 1000, 1.834, 1002,   0,   0,   2,  -1, -10, 4190, 116, 143, 146, 121, ANGLE_MODE, GPS_FIX_HOME|GPS_FIX|SMALL_ANGLE, IDLE, 1, 1
1880, 50549196,   0,   0,  -3,   0,   0,   0,   1,   0,   0,   0,   0,   0, 1000, 1.834, 1002,  -1,   0,   1,   1,  -9, 4189, 119, 129, 140, 121, ANGLE_MODE, GPS_FIX_HOME|GPS_FIX|SMALL_ANGLE, IDLE, 1, 1
1888, 50553270,   0,   0,   5,   0,   0,   0,   0,   0,   0,   0,   0,   0, 1000, 1.843, 1002,   0,   0,  -2,   3,  -2, 4187, 138, 116, 122, 141, ANGLE_MODE, GPS_FIX_HOME|GPS_FIX|SMALL_ANGLE, IDLE, 1, 1
1896, 50557341,   0,   0,   5,   0,   0,   0,  -2,   0,   0,   0,   0,   0, 1000, 1.843, 1002,   0,   0,  -2,   6,   8, 4186, 149, 127, 116, 138, ANGLE_MODE, GPS_FIX_HOME|GPS_FIX|SMALL_ANGLE, IDLE, 1, 1
1904, 50561411,   0,   0,  -2,   0,   0,   0,   1,   0,   0,   0,   0,   0, 1000, 1.843, 1002,  -1,   0,   1,   7,   6, 4185, 116, 126, 131, 125, ANGLE_MODE, GPS_FIX_HOME|GPS_FIX|SMALL_ANGLE, IDLE, 1, 1
1912, 50565488,   0,   0,  -7,   0,   0,   0,   0,   0,   0,   0,   0,   0, 1000, 1.843, 1002,   0,   0,   3,   7,   3, 4187, 116, 147, 150, 123, ANGLE_MODE, GPS_FIX_HOME|GPS_FIX|SMALL_ANGLE, IDLE, 1, 1
1920, 50569561,   0,   0,   0,   0,   0,   0,   0,   0,   0,   0,   0,   0, 1000, 1.843, 1002,  -1,   0,   0,   5,  -2, 4188, 120, 120, 124, 117, ANGLE_MODE, GPS_FIX_HOME|GPS_FIX|SMALL_ANGLE, IDLE, 1, 1
1928, 50573623,   0,   0,   6,   0,   0,   0,   0,   0,   0,   0,   0,   0, 1000, 1.843, 1002,   0,   0,  -2,   1,  -2, 4187, 146, 116, 123, 144, ANGLE_MODE, GPS_FIX_HOME|GPS_FIX|SMALL_ANGLE, IDLE, 1, 1
1936, 50577700,   0,   0,   3,   0,   0,   0,  -2,   0,   0,   0,   0,   0, 1000, 1.843, 1002,   0,   0,  -1,   0,   2, 4188, 139, 124, 118, 128, ANGLE_MODE, GPS_FIX_HOME|GPS_FIX|SMALL_ANGLE, IDLE, 1, 1
1944, 50582058,   0,   0,  -5,   0,   0,   0,   1,  -1,   0,   0,   0,   0, 1000, 1.843, 1002,  -1,   0,   2,  -2,   2, 4188, 116, 141, 145, 127, ANGLE_MODE, GPS_FIX_HOME|GPS_FIX|SMALL_ANGLE, IDLE, 1, 1
1952, 50586120,   0,   0,  -7,   0,   0,   0,   0,   0,   0,   0,   0,   0, 1000, 1.843, 1002,  -1,   0,   2,  -2,  -3, 4191, 117, 145, 152, 122, ANGLE_MODE, GPS_FIX_HOME|GPS_FIX|SMALL_ANGLE, IDLE, 1, 1
1960, 50590189,   0,   0,   3,   0,   0,   0,   0,   0,   0,   0,   0,   0, 1000, 1.843, 1002,  -1,   0,  -1,   0, -10, 4192, 131, 116, 124, 131, ANGLE_MODE, GPS_FIX_HOME|GPS_FIX|SMALL_ANGLE, IDLE, 1, 1
1968, 50594255,   0,   0,   8,   0,   0,   0,  -1,   0,   0,   0,   0,   0, 1000, 1.843, 1002,   0,   0,  -3,   0,  -2, 4191, 154, 121, 116, 149, ANGLE_MODE, GPS_FIX_HOME|GPS_FIX|SMALL_ANGLE, IDLE, 1, 1
1976, 50598320,   0,   0,   0,   0,   0,   0,  -1,   0,   0,   0,   0,   0, 1000, 1.843, 1002,   0,   0,   0,   0,  -2, 4190, 124, 120, 117, 117, ANGLE_MODE, GPS_FIX_HOME|GPS_FIX|SMALL_ANGLE, IDLE, 1, 1
1984, 50602383,   0,   0,  -7,   0,   0,   0,   2,   0,   0,   0,   0,   0, 1000, 1.843, 1002,  -1,   0,   3,  -3,  -7, 4190, 116, 149, 156, 129, ANGLE_MODE, GPS_FIX_HOME|GPS_FIX|SMALL_ANGLE, IDLE, 1, 1
1992, 50606458,   0,   0,  -3,   0,   0,   0,  -1,   0,   0,   0,   0,   0, 1000, 1.843, 1002,   0,   0,   1,  -1, -15, 4191, 121, 134, 133, 116, ANGLE_MODE, GPS_FIX_HOME|GPS_FIX|SMALL_ANGLE, IDLE, 1, 1
2000, 50610539,   0,   0,   5,   0,   0,   0,   0,   1,   0,   0,   0,   0, 1000, 1.843, 1002,  -1,   0,  -2,   1, -20, 4189, 143, 116, 126, 142, ANGLE_MODE, GPS_FIX_HOME|GPS_FIX|SMALL_ANGLE, IDLE, 1, 1
2008, 50614642,   0,   0,   5,   0,   0,   0,  -1,   0,   0,   0,   0,   0, 1000, 1.843, 1002,   0,   0,  -2,  -1, -13, 4187, 146, 122, 117, 139, ANGLE_MODE, GPS_FIX_HOME|GPS_FIX|SMALL_ANGLE, IDLE, 1, 1
2016, 50618729,   0,   0,  -3,   0,   0,   0,  -1,  -1,   0,   0,   0,   0, 1000, 1.843, 1002,   0,   0,   1,  -4, -15, 4186, 118, 137, 127, 121, ANGLE_MODE, GPS_FIX_HOME|GPS_FIX|SMALL_ANGLE, IDLE, 1, 1
2024, 50622785,   0,   0,  -6,   0,   0,   0,   2,   0,   0,   0,   0,   0, 1000, 1.843, 1002,  -1,   0,   2,  -9, -24, 4186, 116, 145, 155, 131, ANGLE_MODE, GPS_FIX_HOME|GPS_FIX|SMALL_ANGLE, IDLE, 1, 1
2032, 50626828,   0,   0,  -1,   0,   0,   0,  -1,   0,   0,   0,   0,   0, 1000, 1.843, 1002,   0,   0,   0, -10, -29, 4187, 122, 124, 123, 116, ANGLE_MODE, GPS_FIX_HOME|GPS_FIX|SMALL_ANGLE, IDLE, 1, 1
2040, 50630872,   0,   0,   7,   0,   0,   0,   0,   0,   0,   0,   0,   0, 1000, 1.843, 1002,   0,   0,  -2, -14, -22, 4187, 147, 116, 119, 145, ANGLE_MODE, GPS_FIX_HOME|GPS_FIX|SMALL_ANGLE, IDLE, 1, 1
2048, 50634947,   0,   0,   3,   0,   0,   0,  -1,   0,   0,   0,   0,   0, 1000, 1.843, 1002,   0,   0,  -1, -13, -19, 4188, 135, 121, 116, 128, ANGLE_MODE, GPS_FIX_HOME|GPS_FIX|SMALL_ANGLE, IDLE, 1, 1
2056, 50639011,   0,   0,  -5,   0,   0,   0,   0,   0,   0,   0,   0,   0, 1000, 1.843, 1002,   0,   0,   2, -14, -23, 4190, 115, 139, 142, 121, ANGLE_MODE, GPS_FIX_HOME|GPS_FIX|SMALL_ANGLE, IDLE, 1, 1
2064, 50643105,   0,   0,  -6,   0,   0,   0,   1,   0,   0,   0,   0,   0, 1000, 1.843, 1002,   0,   0,   2, -13, -25, 4193, 115, 144, 148, 122, ANGLE_MODE, GPS_FIX_HOME|GPS_FIX|SMALL_ANGLE, IDLE, 1, 1
2072, 50647159,   0,   0,   1,   0,   0,   0,   0,   0,   0,   0,   0,   0, 1000, 1.843, 1002,   0,   0,   0,  -9, -26, 4193, 125, 116, 119, 120, ANGLE_MODE, GPS_FIX_HOME|GPS_FIX|SMALL_ANGLE, IDLE, 1, 1
2080, 50651208,   0,   0,   8,   0,   0,   0,   0,   0,   0,   0,   0,   0, 1000, 1.843, 1002,   0,   0,  -3,  -8, -23, 4193, 150, 115, 116, 150, ANGLE_MODE, GPS_FIX_HOME|GPS_FIX|SMALL_ANGLE, IDLE, 1, 1
2088, 50655266,   0,   0,   0,   0,   0,   0,  -1,   0,   0,   0,   0,   0, 1000, 1.843, 1002,   0,   0,   0,  -7, -12, 4192, 124, 126, 116, 116, ANGLE_MODE, GPS_FIX_HOME|GPS_FIX|SMALL_ANGLE, IDLE, 1, 1
2096, 50659329,   0,   0,  -7,   0,   0,   0,   1,   0,   0,   0,   0,   0, 1000, 1.843, 1002,   0,   0,   3,  -8, -20, 4194, 115, 148, 154, 123, ANGLE_MODE, GPS_FIX_HOME|GPS_FIX|SMALL_ANGLE, IDLE, 1, 1
2104, 50663390,   0,   0,  -3,   0,   0,   0,   1,   0,   0,   0,   0,   0, 1000, 1.843, 1002,   0,   0,   1,  -9, -27, 4195, 117, 130, 139, 120, ANGLE_MODE, GPS_FIX_HOME|GPS_FIX|SMALL_ANGLE, IDLE, 1, 1
2112, 50667458,   0,   0,   5,   0,   0,   0,   0,   0,   0,   0,   0,   0, 1000, 1.843, 1002,   0,   0,  -2,  -7, -21, 4193, 141, 116, 118, 137, ANGLE_MODE, GPS_FIX_HOME|GPS_FIX|SMALL_ANGLE, IDLE, 1, 1
2120, 50671510,   0,   0,   5,   0,   0,   0,   0,   0,   0,   0,   0,   0, 1000, 1.843, 1002,   0,   0,  -2,  -5, -14, 4190, 145, 119, 116, 139, ANGLE_MODE, GPS_FIX_HOME|GPS_FIX|SMALL_ANGLE, IDLE, 1, 1
2128, 50675842,   0,   0,  -4,   0,   0,   0,   0,   0,   0,   0,   0,   0, 1000, 1.843, 1002,   0,   0,   1,  -5, -12, 4191, 115, 134, 133, 120, ANGLE_MODE, GPS_FIX_HOME|GPS_FIX|SMALL_ANGLE, IDLE, 1, 1
2136, 50679908,   0,   0,  -6,   0,   0,   0,   2,   0,   0,   0,   0,   0, 1000, 1.843, 1002,  -1,   0,   2,  -4, -18, 4192, 115, 144, 153, 130, ANGLE_MODE, GPS_FIX_HOME|GPS_FIX|SMALL_ANGLE, IDLE, 1, 1
2144, 50683978,   0,   0,   0,   0,   0,   0,   0,   1,   0,   0,   0,   0, 1000, 1.843, 1002,  -1,   0,   0,  -5, -18, 4193, 122, 116, 121, 116, ANGLE_MODE, GPS_FIX_HOME|GPS_FIX|SMALL_ANGLE, IDLE, 1, 1
2152, 50688047,   0,   0,   8,   0,   0,   0,   0,   0,   0,   0,   0,   0, 1000, 1.843, 1002,   0,   0,  -3,  -8, -17, 4193, 153, 116, 119, 147, ANGLE_MODE, GPS_FIX_HOME|GPS_FIX|SMALL_ANGLE, IDLE, 1, 1
2160, 50692110,   0,   0,   3,   0,   0,   0,   0,   0,   0,   0,   0,   0, 1000, 1.834, 1002,   0,   0,  -1, -17, -11, 4194, 133, 118, 117, 127, ANGLE_MODE, GPS_FIX_HOME|GPS_FIX|SMALL_ANGLE, IDLE, 1, 1
2168, 50696171,   0,   0,  -5,   0,   0,   0,   0,   0,   0,   0,   0,   0, 1000, 1.834, 1002,  -1,   0,   2, -26, -17, 4196, 115, 140, 142, 122, ANGLE_MODE, GPS_FIX_HOME|GPS_FIX|SMALL_ANGLE, IDLE, 1, 1
2176, 50700285,   0,   0,  -5,   0,   0,   0,   1,   0,   0,   0,   0,   0, 1000, 1.834, 1002,  -1,   0,   2, -29, -23, 4197, 116, 137, 148, 124, ANGLE_MODE, GPS_FIX_HOME|GPS_FIX|SMALL_ANGLE, IDLE, 1, 1
2184, 50704361,   0,   0,   3,   0,   0,   0,   0,   0,   0,   0,   0,   0, 1000, 1.834, 1002,  -1,   0,  -1, -24, -24, 4197, 132, 115, 120, 127, ANGLE_MODE, GPS_FIX_HOME|GPS_FIX|SMALL_ANGLE, IDLE, 1, 1
2192, 50708409,   0,   0,   8,   0,   0,   0,   0,   0,   0,   0,   0,   0, 1000, 1.834, 1002,   0,   0,  -3, -20, -17, 4197, 149, 119, 115, 149, ANGLE_MODE, GPS_FIX_HOME|GPS_FIX|SMALL_ANGLE, IDLE, 1, 1
2200, 50712463,   0,   0,   0,   0,   0,   0,  -1,   0,   0,   0,   0,   0, 1000, 1.843, 1002,   0,   0,   0, -17, -11, 4197, 119, 124, 117, 117, ANGLE_MODE, GPS_FIX_HOME|GPS_FIX|SMALL_ANGLE, IDLE, 1, 1
2208, 50716520,   0,   0,  -7,   0,   0,   0,   1,   0,   0,   0,   0,   0, 1000, 1.843, 1002,  -1,   0,   3, -17, -19, 4198, 115, 147, 153, 128, ANGLE_MODE, GPS_FIX_HOME|GPS_FIX|SMALL_ANGLE, IDLE, 1, 1
2216, 50720620,   0,   0,  -3,   0,   0,   0,   0,   0,   0,   0,   0,   0, 1000, 1.843, 1023,   0,   0,   1, -14, -25, 4199, 118, 129, 131, 115, ANGLE_MODE, GPS_FIX_HOME|GPS_FIX|SMALL_ANGLE, IDLE, 1, 1
2224, 50724685,   0,   0,   6,   0,   0,   0,  -1,   1,   0,   0,   0,   0, 1000, 1.843, 1023,   0,   0,  -2,  -7, -25, 4198, 153, 119, 119, 140, ANGLE_MODE, GPS_FIX_HOME|GPS_FIX|SMALL_ANGLE, IDLE, 1, 1
2232, 50728733,   0,   0,   6,   0,   0,   0,   0,   0,   0,   0,   0,   0, 1000, 1.843, 1023,   0,   0,  -2,  -6, -19, 4196, 143, 119, 115, 140, ANGLE_MODE, GPS_FIX_HOME|GPS_FIX|SMALL_ANGLE, IDLE, 1, 1
2240, 50732793,   0,   0,  -5,   0,   0,   0,   0,  -1,   0,   0,   0,   0, 1000, 1.843, 1023,   0,   0,   2,   1, -21, 4197, 118, 144, 133, 120, ANGLE_MODE, GPS_FIX_HOME|GPS_FIX|SMALL_ANGLE, IDLE, 1, 1
2248, 50736874,   0,   0,  -7,   0,   0,   0,   2,  -1,   0,   0,   0,   0, 1000, 1.843, 1023,   0,   0,   2,   3, -28, 4198, 115, 148, 153, 131, ANGLE_MODE, GPS_FIX_HOME|GPS_FIX|SMALL_ANGLE, IDLE, 1, 1
2256, 50740924,   0,   0,   0,   0,   0,   0,   0,   0,   0,   0,   0,   0, 1000, 1.843, 1023,   0,   0,   0,   7, -33, 4199, 118, 118, 115, 119, ANGLE_MODE, GPS_FIX_HOME|GPS_FIX|SMALL_ANGLE, IDLE, 1, 1
2264, 50744980,   0,   0,   7,   0,   0,   0,  -1,   0,   0,   0,   0,   0, 1000, 1.843, 1023,   0,   0,  -3,  12, -27, 4195, 153, 120, 116, 147, ANGLE_MODE, GPS_FIX_HOME|GPS_FIX|SMALL_ANGLE, IDLE, 1, 1
2272, 50749038,   0,   0,   2,   0,   0,   0,   0,   0,   0,   0,   0,   0, 1000, 1.843, 1023,   0,   0,  -1,  12, -17, 4192, 128, 121, 115, 128, ANGLE_MODE, GPS_FIX_HOME|GPS_FIX|SMALL_ANGLE, IDLE, 1, 1
2280, 50753116,   0,   0,  -7,   0,   0,   0,   0,   0,   0,   0,   0,   0, 1000, 1.843, 1023,   0,   0,   2,  14, -18, 4191, 116, 148, 143, 118, ANGLE_MODE, GPS_FIX_HOME|GPS_FIX|SMALL_ANGLE, IDLE, 1, 1
2288, 50757178,   0,   0,  -4,   0,   0,   0,   2,   0,   0,   0,   0,   0, 1000, 1.843, 1023,  -1,   0,   2,  10, -25, 4191, 115, 136, 146, 130, ANGLE_MODE, GPS_FIX_HOME|GPS_FIX|SMALL_ANGLE, IDLE, 1, 1
2296, 50761236,   0,   0,   3,   0,   0,   0,  -1,   0,   0,   0,   0,   0, 1000, 1.843, 1023,   0,   0,  -1,  10, -25, 4192, 136, 121, 116, 129, ANGLE_MODE, GPS_FIX_HOME|GPS_FIX|SMALL_ANGLE, IDLE, 1, 1
2304, 50765300,   0,   0,   7,   0,   0,   0,  -1,   0,   0,   0,   0,   0, 1000, 1.843, 1023,   0,   0,  -3,   9, -18, 4188, 151, 120, 116, 145, ANGLE_MODE, GPS_FIX_HOME|GPS_FIX|SMALL_ANGLE, IDLE, 1, 1
2312, 50769636,   0,   0,  -1,   0,   0,   0,   1,  -1,   0,   0,   0,   0, 1000, 1.843, 1023,   0,   0,   0,   6,  -9, 4187, 115, 126, 123, 125, ANGLE_MODE, GPS_FIX_HOME|GPS_FIX|SMALL_ANGLE, IDLE, 1, 1
2320, 50773697,   0,   0,  -7,   0,   0,   0,   1,   0,   0,   0,   0,   0, 1000, 1.843, 1023,  -1,   0,   2,   3, -16, 4188, 115, 145, 152, 124, ANGLE_MODE, GPS_FIX_HOME|GPS_FIX|SMALL_ANGLE, IDLE, 1, 1
2328, 50777758,   1,   0,   0,   0,   0,   0,   1,   0,   0,   0,   0,   0, 1000, 1.843, 1023,  -1,   0,   0,   0, -18, 4189, 115, 120, 131, 128, ANGLE_MODE, GPS_FIX_HOME|GPS_FIX|SMALL_ANGLE, IDLE, 1, 1
2336, 50781865,   0,   0,   6,   0,   0,   0,  -2,   0,   0,   0,  -1,   0, 1000, 1.843, 1023,   0,   0,  -2,  -1, -11, 4189, 146, 124, 115, 142, ANGLE_MODE, GPS_FIX_HOME|GPS_FIX|SMALL_ANGLE, IDLE, 1, 1
2344, 50785928,   0,  -1,   4,   0,   0,   0,  -1,  -2,   0,   0,  -2,   0, 1000, 1.843, 1023,   0,   0,  -1,  -3,  -7, 4189, 135, 132, 115, 146, ANGLE_MODE, GPS_FIX_HOME|GPS_FIX|SMALL_ANGLE, IDLE, 1, 1
2352, 50789989,   0,  -1,  -5,   0,   0,   0,   1,  -1,   0,   0,  -2,   0, 1000, 1.843, 1023,  -1,   0,   2,  -7, -12, 4191, 115, 146, 142, 131, ANGLE_MODE, GPS_FIX_HOME|GPS_FIX|SMALL_ANGLE, IDLE, 1, 1
2360, 50794047,   0,  -1,  -6,   0,   0,   0,   0,   0,   0,   0,  -2,   0, 1000, 1.843, 1023,  -1,   0,   2,  -8, -24, 4193, 115, 143, 146, 124, ANGLE_MODE, GPS_FIX_HOME|GPS_FIX|SMALL_ANGLE, IDLE, 1, 1
2368, 50798128,   0,  -1,   1,   0,   0,   0,   0,   0,   0,   0,  -2,   0, 1000, 1.843, 1023,  -1,  -1,  -1, -10, -24, 4194, 120, 117, 120, 130, ANGLE_MODE, GPS_FIX_HOME|GPS_FIX|SMALL_ANGLE, IDLE, 1, 1
2376, 50802195,   0,  -1,   6,   0,   0,   0,  -1,   0,   0,   0,  -2,   0, 1000, 1.843, 1023,   0,  -1,  -2,  -7, -22, 4193, 146, 123, 115, 146, ANGLE_MODE, GPS_FIX_HOME|GPS_FIX|SMALL_ANGLE, IDLE, 1, 1
2384, 50806249,   0,  -1,   0,   0,   0,   0,   0,   0,   0,   0,  -2,   0, 1000, 1.843, 1023,   0,   0,   0,  -6, -14, 4193, 119, 127, 115, 127, ANGLE_MODE, GPS_FIX_HOME|GPS_FIX|SMALL_ANGLE, IDLE, 1, 1
2392, 50810329,   0,  -1,  -6,   0,   0,   0,   1,   0,   0,   0,  -2,   0, 1000, 1.843, 1012,  -1,   0,   2,  -5, -20, 4194, 115, 148, 147, 129, ANGLE_MODE, GPS_FIX_HOME|GPS_FIX|SMALL_ANGLE, IDLE, 1, 1
2400, 50814393,   1,  -1,  -3,   0,   0,   0,   1,   0,   0,   0,  -2,   0, 1000, 1.843, 1012,  -1,   0,   1,  -4, -29, 4196, 115, 132, 138, 127, ANGLE_MODE, GPS_FIX_HOME|GPS_FIX|SMALL_ANGLE, IDLE, 1, 1
2408, 50818460,   0,  -1,   5,   0,   0,   0,  -1,   0,   0,   0,  -2,   0, 1000, 1.843, 1012,   0,   0,  -2,  -3, -26, 4195, 140, 123, 115, 141, ANGLE_MODE, GPS_FIX_HOME|GPS_FIX|SMALL_ANGLE, IDLE, 1, 1
2416, 50822539,   0,  -1,   4,   0,   0,   0,  -2,   0,   0,   0,  -2,   0, 1005, 1.843, 1012,   0,   0,  -2,  -1, -19, 4192, 141, 126, 115, 138, ANGLE_MODE, GPS_FIX_HOME|GPS_FIX|SMALL_ANGLE, IDLE, 1, 1
2424, 50826605,   0,  -1,  -4,   0,   0,   0,   0,   0,   0,   0,  -2,   0, 1005, 1.843, 1012,   0,   0,   1,   0, -19, 4192, 115, 143, 133, 129, ANGLE_MODE, GPS_FIX_HOME|GPS_FIX|SMALL_ANGLE, IDLE, 1, 1
2432, 50830709,   0,  -1,  -5,   0,   0,   0,   1,   0,   0,   0,  -2,   0, 1005, 1.843, 1012,  -1,   0,   2,   2, -28, 4193, 115, 144, 141, 131, ANGLE_MODE, GPS_FIX_HOME|GPS_FIX|SMALL_ANGLE, IDLE, 1, 1
2440, 50834779,   0,  -1,   1,   0,   0,   0,   0,   0,   0,   0,  -2,   0, 1013, 1.843, 1023,   0,   0,  -1,   4, -30, 4194, 119, 119, 118, 130, ANGLE_MODE, GPS_FIX_HOME|GPS_FIX|SMALL_ANGLE, IDLE, 1, 1
2448, 50838830,   0,  -1,   6,   0,   0,   0,  -2,   0,   0,   0,  -2,   0, 1013, 1.843, 1023,   0,   0,  -2,   7, -32, 4192, 149, 133, 115, 148, ANGLE_MODE, GPS_FIX_HOME|GPS_FIX|SMALL_ANGLE, IDLE, 1, 1
2456, 50842889,   0,  -1,   0,   0,   0,   0,   0,   0,   0,   0,  -2,   0, 1021, 1.843, 1023,   0,   0,   0,   7, -18, 4190, 117, 129, 116, 124, ANGLE_MODE, GPS_FIX_HOME|GPS_FIX|SMALL_ANGLE, IDLE, 1, 1
2464, 50846979,   0,  -2,  -5,   0,   0,   0,   0,   0,   0,   0,  -2,   0, 1021, 1.843, 1023,   0,   0,   2,   8, -25, 4192, 115, 152, 140, 130, ANGLE_MODE, GPS_FIX_HOME|GPS_FIX|SMALL_ANGLE, IDLE, 1, 1
2472, 50851036,   0,  -1,  -2,   0,   0,   0,   1,   0,   0,   0,  -2,   0, 1021, 1.843, 1023,   0,   0,   1,   7, -33, 4194, 115, 132, 131, 130, ANGLE_MODE, GPS_FIX_HOME|GPS_FIX|SMALL_ANGLE, IDLE, 1, 1
2480, 50855086,   0,  -1,   5,   0,   0,   0,   0,   0,   0,   0,  -2,   0, 1031, 1.843, 1023,   0,   0,  -2,   5, -30, 4192, 137, 126, 115, 146, ANGLE_MODE, GPS_FIX_HOME|GPS_FIX|SMALL_ANGLE, IDLE, 1, 1
2488, 50859150,   0,  -1,   3,   0,   0,   0,  -3,   0,   0,   0,  -2,   0, 1031, 1.843, 1023,   1,   0,  -1,   7, -23, 4191, 138, 136, 115, 137, ANGLE_MODE, GPS_FIX_HOME|GPS_FIX|SMALL_ANGLE, IDLE, 1, 1
2496, 50863231,   0,  -2,  -5,   0,  -1,   0,   0,   0,   0,   0,  -2,   0, 1033, 1.843, 1023,   0,   0,   2,   4, -13, 4188, 115, 146, 137, 130, ANGLE_MODE, GPS_FIX_HOME|GPS_FIX|SMALL_ANGLE, IDLE, 1, 1
2504, 50867541,   0,  -2,  -4,   0,  -1,   0,   1,   0,   0,   0,  -2,   0, 1041, 1.843, 1023,   0,   0,   2,   4, -23, 4189, 115, 146, 139, 134, ANGLE_MODE, GPS_FIX_HOME|GPS_FIX|SMALL_ANGLE, IDLE, 1, 1
2512, 50871588,   0,  -1,   3,   0,  -1,   0,   1,   0,   0,   0,  -2,   0, 1041, 1.843, 1023,  -1,   0,  -1,   2, -21, 4188, 125, 123, 120, 145, ANGLE_MODE, GPS_FIX_HOME|GPS_FIX|SMALL_ANGLE, IDLE, 1, 1
2520, 50875637,   0,  -1,   6,   0,  -1,   0,  -1,   0,   0,   0,  -2,   0, 1041, 1.843, 1023,   0,   0,  -2,   5, -14, 4186, 145, 132, 115, 149, ANGLE_MODE, GPS_FIX_HOME|GPS_FIX|SMALL_ANGLE, IDLE, 1, 1
2528, 50879694,   0,  -1,  -1,   0,  -1,   0,  -1,   0,   0,   0,  -2,   0, 1041, 1.843, 1023,   0,   0,   0,   4,  -8, 4184, 119, 138, 118, 126, ANGLE_MODE, GPS_FIX_HOME|GPS_FIX|SMALL_ANGLE, IDLE, 1, 1
2536, 50883784,   0,  -1,  -7,   0,  -1,   0,   1,   0,   0,   0,  -2,   0, 1051, 1.843, 1012,   0,   0,   2,  -1,  -8, 4184, 115, 153, 148, 135, ANGLE_MODE, GPS_FIX_HOME|GPS_FIX|SMALL_ANGLE, IDLE, 1, 1
2544, 50887843,   0,  -1,   0,   0,  -1,   0,   1,   0,   0,   0,  -2,   0, 1051, 1.843, 1023,  -1,   0,   0,  -1, -19, 4184, 115, 128, 126, 132, ANGLE_MODE, GPS_FIX_HOME|GPS_FIX|SMALL_ANGLE, IDLE, 1, 1
2552, 50891924,   0,  -1,   5,   0,  -1,   0,   0,   0,   0,   0,  -2,   0, 1051, 1.843, 1023,  -1,   0,  -2,  -3, -12, 4182, 136, 123, 117, 149, ANGLE_MODE, GPS_FIX_HOME|GPS_FIX|SMALL_ANGLE, IDLE, 1, 1
2560, 50895998,   0,  -1,   2,   0,  -1,   0,  -1,   0,   0,   0,  -2,   0, 1061, 1.843, 1023,   0,   0,  -1,  -3,  -4, 4181, 138, 145, 120, 148, ANGLE_MODE, GPS_FIX_HOME|GPS_FIX|SMALL_ANGLE, IDLE, 1, 1
2568, 50900058,   0,  -1,  -5,   0,  -1,   0,   0,   0,   0,   0,  -2,   0, 1070, 1.843, 1023,   0,   0,   2,  -6,   1, 4180, 135, 173, 162, 154, ANGLE_MODE, GPS_FIX_HOME|GPS_FIX|SMALL_ANGLE, IDLE, 1, 1
2576, 50904175,   0,  -1,  -3,   0,  -1,   0,   2,   0,   0,   0,  -2,   0, 1070, 1.843, 1023,  -1,   0,   1, -20,  -3, 4184, 135, 164, 163, 162, ANGLE_MODE, GPS_FIX_HOME|GPS_FIX|SMALL_ANGLE, IDLE, 1, 1
2584, 50908223,   0,  -1,   5,   0,  -2,   0,   0,   0,   0,   0,  -2,   0, 1070, 1.843, 1023,  -1,   0,  -2, -26,   2, 4185, 158, 149, 142, 175, ANGLE_MODE, GPS_FIX_HOME|GPS_FIX|SMALL_ANGLE, IDLE, 1, 1
2592, 50912277,   0,  -1,   6,   0,  -2,   0,  -1,   0,   0,   0,  -2,   0, 1070, 1.834, 1023,   0,   0,  -2, -33,  15, 4185, 164, 152, 135, 173, ANGLE_MODE, GPS_FIX_HOME|GPS_FIX|SMALL_ANGLE, IDLE, 1, 1
2600, 50916327,   0,  -1,  -3,   0,  -2,   0,  -1,   0,   0,   0,  -2,   1, 1078, 1.834, 1023,   0,   0,   2, -36,  15, 4186, 157, 190, 168, 174, ANGLE_MODE, GPS_FIX_HOME|GPS_FIX|SMALL_ANGLE, IDLE, 1, 1
