loopIteration, time (us), axisP[0], axisP[1], axisP[2], axisI[0], axisI[1], axisI[2], axisD[0], axisD[1], axisD[2], rcCommand[0], rcCommand[1], rcCommand[2], rcCommand[3], vbatLatest (V), rssi, gyroADC[0], gyroADC[1], gyroADC[2], accSmooth[0], accSmooth[1], accSmooth[2], motor[0], motor[1], motor[2], motor[3], flightModeFlags (flags), stateFlags (flags), failsafePhase (flags), rxSignalReceived, rxFlightChannelsValid
  0, 56754918,   1,   0,   0,   0,   0,   0,   1,   1,   0,   0,   0,   0, 1000, 1.843, 1023,  -1,   0,   0, 163, -192, 4233, 123, 115, 132, 128, 0, 0, IDLE, 0, 0
256, 56885449,   0,   0,  -2,   0,   0,   0,  -1,   0,   0,   0,   0,   0, 1000, 1.843, 1023,   0,   0,   1, 185, -211, 4259, 126, 131, 128, 115, ANGLE_MODE, GPS_FIX_HOME|GPS_FIX|SMALL_ANGLE, IDLE, 1, 1
264, 56889516,   0,   0,  -1,   0,   0,   0,   0,   0,   0,   0,   0,   0, 1000, 1.843, 1023,   0,   0,   1, 184, -208, 4259, 120, 128, 123, 115, ANGLE_MODE, GPS_FIX_HOME|GPS_FIX|SMALL_ANGLE, IDLE, 1, 1
272, 56893833,   0,   0,   0,   0,   0,   0,   0,   0,   0,   0,   0,   0, 1000, 1.843, 1023,   0,   0,   0, 184, -204, 4256, 116, 118, 115, 118, ANGLE_MODE, GPS_FIX_HOME|GPS_FIX|SMALL_ANGLE, IDLE, 1, 1
280, 56897909,   0,   0,   0,   0,   0,   0,   3,   0,   0,   0,   0,   0, 1000, 1.843, 1023,  -1,   0,   0, 187, -205, 4253, 115, 118, 133, 135, ANGLE_MODE, GPS_FIX_HOME|GPS_FIX|SMALL_ANGLE, IDLE, 1, 1
288, 56901959,   0,   0,   1,   0,   0,   0,   0,   0,   0,   0,   0,   0, 1000, 1.843, 1023,  -1,   0,  -1, 186, -217, 4254, 126, 115, 119, 122, ANGLE_MODE, GPS_FIX_HOME|GPS_FIX|SMALL_ANGLE, IDLE, 1, 1
296, 56906023,   0,   0,   0,   0,   0,   0,  -2,   0,   0,   0,   0,   1, 1000, 1.843, 1023,   0,   0,   1, 190, -204, 4253, 127, 130, 116, 118, ANGLE_MODE, GPS_FIX_HOME|GPS_FIX|SMALL_ANGLE, IDLE, 1, 1
304, 56910076,  -1,   0,   0,   0,   0,   0,  -2,   0,   0,   0,   0,   1, 1000, 1.843, 1023,   0,   0,   1, 183, -196, 4253, 130, 130, 117, 115, ANGLE_MODE, GPS_FIX_HOME|GPS_FIX|SMALL_ANGLE, IDLE, 1, 1
312, 56914124,   0,   0,   1,   0,   0,   0,   2,   0,   0,   0,   0,   1, 1000, 1.843, 1023,  -1,   0,   0, 155, -198, 4258, 121, 115, 125, 130, ANGLE_MODE, GPS_FIX_HOME|GPS_FIX|SMALL_ANGLE, IDLE, 1, 1
320, 56918195,   0,   0,   5,   0,   0,   0,   3,   0,   0,   0,   0,   3, 1000, 1.843, 1023,  -1,   0,   0, 136, -204, 4261, 138, 117, 129, 154, ANGLE_MODE, GPS_FIX_HOME|GPS_FIX|SMALL_ANGLE, IDLE, 1, 1
328, 56922238,   0,   0,   3,   0,   0,   0,  -2,   0,   0,   0,   0,   3, 1000, 1.843, 1023,   0,   0,   0, 127, -209, 4263, 144, 127, 115, 132, ANGLE_MODE, GPS_FIX_HOME|GPS_FIX|SMALL_ANGLE, IDLE, 1, 1
336, 56926288,  -1,   0,   1,   0,   0,   0,  -3,   0,   0,   0,   0,   3, 1000, 1.843, 1023,   1,   0,   1, 122, -202, 4262, 140, 132, 116, 121, ANGLE_MODE, GPS_FIX_HOME|GPS_FIX|SMALL_ANGLE, IDLE, 1, 1
344, 56930335,  -1,   0,   1,   0,   0,   0,   0,   0,   0,   0,   0,   3, 1000, 1.843, 1023,   1,   0,   1, 123, -202, 4264, 130, 124, 115, 121, ANGLE_MODE, GPS_FIX_HOME|GPS_FIX|SMALL_ANGLE, IDLE, 1, 1
352, 56934378,   0,   0,   4,   0,   0,   0,   1,   0,   0,   0,   0,   3, 1000, 1.843, 1023,   0,   0,   0, 129, -210, 4265, 131, 116, 119, 137, ANGLE_MODE, GPS_FIX_HOME|GPS_FIX|SMALL_ANGLE, IDLE, 1, 1
360, 56938425,   0,   0,   7,   0,   0,   0,   1,   0,   0,   0,   0,   3, 1000, 1.843, 1023,   0,   0,  -1, 136, -212, 4263, 146, 116, 122, 153, ANGLE_MODE, GPS_FIX_HOME|GPS_FIX|SMALL_ANGLE, IDLE, 1, 1
368, 56942457,   0,   0,   6,   0,   0,   0,   0,   0,   0,   0,   0,   3, 1000, 1.843, 1023,   0,   0,  -1, 143, -218, 4266, 142, 120, 115, 147, ANGLE_MODE, GPS_FIX_HOME|GPS_FIX|SMALL_ANGLE, IDLE, 1, 1
376, 56946544,   0,   0,   2,   0,   0,   0,  -1,   0,   0,   0,   0,   3, 1000, 1.843, 1023,   0,   0,   1, 154, -216, 4266, 133, 124, 115, 126, ANGLE_MODE, GPS_FIX_HOME|GPS_FIX|SMALL_ANGLE, IDLE, 1, 1
384, 56950607,  -1,   0,   1,   0,   0,   0,  -1,   0,   0,   0,   0,   3, 1000, 1.843, 1023,   0,   0,   1, 165, -211, 4266, 132, 127, 115, 122, ANGLE_MODE, GPS_FIX_HOME|GPS_FIX|SMALL_ANGLE, IDLE, 1, 1
392, 56954648,   0,   0,   5,   0,   0,   0,   1,   0,   0,   0,   0,   3, 1000, 1.843, 1023,   0,   0,   0, 169, -207, 4267, 136, 115, 118, 138, ANGLE_MODE, GPS_FIX_HOME|GPS_FIX|SMALL_ANGLE, IDLE, 1, 1
400, 56958717,   0,   0,   7,   0,   0,   0,   1,   0,   0,   0,   0,   3, 1000, 1.843, 1023,   0,   0,  -1, 171, -204, 4263, 144, 116, 120, 151, ANGLE_MODE, GPS_FIX_HOME|GPS_FIX|SMALL_ANGLE, IDLE, 1, 1
408, 56962791,   0,   0,   5,   0,   0,   0,   1,   1,   0,   0,   0,   3, 1000, 1.843, 1023,  -1,   0,   0, 175, -211, 4261, 141, 115, 125, 143, ANGLE_MODE, GPS_FIX_HOME|GPS_FIX|SMALL_ANGLE, IDLE, 1, 1
416, 56966896,   0,   0,   1,   0,   0,   0,   0,   0,   0,   0,   0,   3, 1000, 1.843, 1023,  -1,   0,   1, 178, -209, 4259, 121, 116, 118, 124, ANGLE_MODE, GPS_FIX_HOME|GPS_FIX|SMALL_ANGLE, IDLE, 1, 1
424, 56970980,  -1,   0,  -1,   0,   0,   0,  -4,   0,   0,   0,   0,   1, 1000, 1.843, 1023,   1,   0,   1, 177, -200, 4257, 140, 143, 121, 115, ANGLE_MODE, GPS_FIX_HOME|GPS_FIX|SMALL_ANGLE, IDLE, 1, 1
432, 56975034,   0,   0,   2,   0,   0,   0,   0,   0,   0,   0,   0,   1, 1000, 1.843, 1023,   0,   0,   0, 179, -198, 4256, 130, 117, 118, 122, ANGLE_MODE, GPS_FIX_HOME|GPS_FIX|SMALL_ANGLE, IDLE, 1, 1
440, 56979096,   0,   0,   5,   0,   0,   0,   2,   0,   0,  -1,   0,   1, 1000, 1.843, 1023,  -1,   0,  -1, 178, -199, 4253, 139, 115, 123, 146, ANGLE_MODE, GPS_FIX_HOME|GPS_FIX|SMALL_ANGLE, IDLE, 1, 1
448, 56983199,   0,   0,   5,   0,   0,   0,  -1,   0,   0,  -2,   0,   0, 1000, 1.843, 1023,  -1,   0,  -1, 181, -206, 4252, 146, 127, 115, 138, ANGLE_MODE, GPS_FIX_HOME|GPS_FIX|SMALL_ANGLE, IDLE, 1, 1
456, 56987278,   0,   0,   0,   0,   0,   0,   2,   0,   0,  -1,   0,   0, 1000, 1.843, 1023,  -1,   0,   0, 184, -207, 4250, 115, 117, 124, 122, ANGLE_MODE, GPS_FIX_HOME|GPS_FIX|SMALL_ANGLE, IDLE, 1, 1
464, 56991584,  -1,   0,  -2,   0,   0,   0,  -3,   0,   0,  -1,   0,   0, 1000, 1.843, 1023,   0,   0,   1, 203, -211, 4244, 131, 144, 123, 117, ANGLE_MODE, GPS_FIX_HOME|GPS_FIX|SMALL_ANGLE, IDLE, 1, 1
472, 56995642,   0,   0,   0,   0,   0,   0,  -1,   0,   0,  -1,   0,   0, 1000, 1.843, 1023,   0,   0,   0, 219, -218, 4237, 123, 128, 116, 118, ANGLE_MODE, GPS_FIX_HOME|GPS_FIX|SMALL_ANGLE, IDLE, 1, 1
480, 56999701,   0,   0,   2,   0,   0,   0,   2,   0,   0,  -1,   0,   0, 1000, 1.843, 1023,   0,   0,  -1, 231, -230, 4232, 124, 115, 124, 130, ANGLE_MODE, GPS_FIX_HOME|GPS_FIX|SMALL_ANGLE, IDLE, 1, 1
488, 57003767,   0,   0,   1,   0,   0,   0,   1,   0,   0,  -1,   0,   0, 1000, 1.843, 1023,  -1,   0,  -1, 238, -244, 4231, 123, 116, 124, 133, ANGLE_MODE, GPS_FIX_HOME|GPS_FIX|SMALL_ANGLE, IDLE, 1, 1
496, 57007820,   0,   0,  -1,   0,   0,   0,   0,   0,   0,  -1,   0,   0, 1000, 1.843, 1023,   0,   0,   1, 238, -249, 4232, 116, 124, 121, 116, ANGLE_MODE, GPS_FIX_HOME|GPS_FIX|SMALL_ANGLE, IDLE, 1, 1
504, 57011887,  -1,   0,  -2,   0,   0,   0,  -3,   0,   0,  -1,   0,   0, 1000, 1.843, 1023,   1,   0,   1, 235, -245, 4233, 138, 146, 127, 115, ANGLE_MODE, GPS_FIX_HOME|GPS_FIX|SMALL_ANGLE, IDLE, 1, 1
512, 57015934,  -1,   0,  -1,   0,   0,   0,  -1,   0,   0,  -1,   0,   0, 1000, 1.843, 1023,   1,   0,   1, 230, -241, 4236, 129, 135, 123, 115, ANGLE_MODE, GPS_FIX_HOME|GPS_FIX|SMALL_ANGLE, IDLE, 1, 1
520, 57020015,   0,   0,   1,   0,   0,   0,   1,   0,   0,  -1,   0,   0, 1000, 1.843, 1023,   0,   0,   0, 226, -237, 4240, 119, 117, 116, 124, ANGLE_MODE, GPS_FIX_HOME|GPS_FIX|SMALL_ANGLE, IDLE, 1, 1
528, 57024087,   0,   0,   2,   0,   0,   0,   3,   0,   0,  -1,   0,   0, 1000, 1.843, 1023,  -1,   0,  -1, 221, -243, 4243, 129, 115, 131, 138, ANGLE_MODE, GPS_FIX_HOME|GPS_FIX|SMALL_ANGLE, IDLE, 1, 1
536, 57028158,   0,   0,   0,   0,   0,   0,   1,   0,   0,  -1,   0,   0, 1000, 1.843, 1023,  -1,   0,   0, 216, -247, 4244, 118, 115, 124, 124, ANGLE_MODE, GPS_FIX_HOME|GPS_FIX|SMALL_ANGLE, IDLE, 1, 1
544, 57032234,  -1,   0,   0,   0,   0,   0,  -4,  -1,   0,  -1,   0,   0, 1000, 1.843, 1023,   1,   0,   0, 211, -233, 4247, 137, 146, 117, 120, ANGLE_MODE, GPS_FIX_HOME|GPS_FIX|SMALL_ANGLE, IDLE, 1, 1
552, 57036280,   0,   0,   0,   0,   0,   0,  -1,   0,   0,  -1,   0,   0, 1000, 1.843, 1023,   0,   0,   0, 203, -219, 4251, 124, 128, 118, 116, ANGLE_MODE, GPS_FIX_HOME|GPS_FIX|SMALL_ANGLE, IDLE, 1, 1
560, 57040346,   0,   0,   0,   0,   0,   0,   3,   0,   0,  -1,   0,   0, 1000, 1.843, 1023,   0,   0,   0, 202, -213, 4252, 116, 116, 127, 128, ANGLE_MODE, GPS_FIX_HOME|GPS_FIX|SMALL_ANGLE, IDLE, 1, 1
568, 57044409,   0,   0,   1,   0,   0,   0,   2,   0,   0,  -1,   0,   0, 1000, 1.843, 1023,  -1,   0,   0, 201, -214, 4255, 120, 116, 127, 133, ANGLE_MODE, GPS_FIX_HOME|GPS_FIX|SMALL_ANGLE, IDLE, 1, 1
576, 57048470,   0,   0,   0,   0,   0,   0,   1,   0,   0,  -1,   0,   0, 1000, 1.843, 1023,  -1,   0,   0, 194, -219, 4255, 117, 116, 123, 127, ANGLE_MODE, GPS_FIX_HOME|GPS_FIX|SMALL_ANGLE, IDLE, 1, 1
584, 57052528,   0,   0,  -1,   0,   0,   0,  -3,   0,   0,  -1,   0,   0, 1000, 1.843, 1023,   0,   0,   1, 216, -232, 4257, 136, 141, 124, 115, ANGLE_MODE, GPS_FIX_HOME|GPS_FIX|SMALL_ANGLE, IDLE, 1, 1
592, 57056586,  -1,   0,  -2,   0,   0,   0,  -3,   0,   0,  -1,   0,   0, 1000, 1.843, 1023,   0,   0,   1, 233, -238, 4258, 132, 142, 124, 116, ANGLE_MODE, GPS_FIX_HOME|GPS_FIX|SMALL_ANGLE, IDLE, 1, 1
600, 57060647,   0,   0,   0,   0,   0,   0,   3,   0,   0,  -1,   0,   0, 1000, 1.843, 1023,  -1,   0,   0, 243, -247, 4259, 116, 116, 128, 127, ANGLE_MODE, GPS_FIX_HOME|GPS_FIX|SMALL_ANGLE, IDLE, 1, 1
608, 57064730,   0,   0,   1,   0,   0,   0,   1,   0,   0,  -1,   0,   0, 1000, 1.843, 1023,  -1,   0,  -1, 250, -262, 4261, 125, 115, 123, 125, ANGLE_MODE, GPS_FIX_HOME|GPS_FIX|SMALL_ANGLE, IDLE, 1, 1
616, 57068791,   0,   0,   0,   0,   0,   0,   0,  -1,   0,  -1,   0,   0, 1000, 1.843, 1023,   0,   0,   0, 247, -266, 4260, 120, 121, 115, 123, ANGLE_MODE, GPS_FIX_HOME|GPS_FIX|SMALL_ANGLE, IDLE, 1, 1
624, 57072836,  -1,   0,  -1,   0,   0,   0,  -2,   0,   0,  -1,   0,   0, 1000, 1.843, 1023,   1,   0,   0, 242, -259, 4259, 128, 134, 119, 117, ANGLE_MODE, GPS_FIX_HOME|GPS_FIX|SMALL_ANGLE, IDLE, 1, 1
632, 57076902,  -1,   0,  -1,   0,   0,   0,  -2,   0,   0,  -1,   0,   0, 1000, 1.843, 1023,   1,   0,   0, 240, -254, 4259, 130, 133, 122, 115, ANGLE_MODE, GPS_FIX_HOME|GPS_FIX|SMALL_ANGLE, IDLE, 1, 1
640, 57080980,   0,   0,   0,   0,   0,   0,   1,   0,   0,  -1,   0,   0, 1000, 1.843, 1023,   0,   0,   0, 238, -245, 4257, 115, 120, 118, 119, ANGLE_MODE, GPS_FIX_HOME|GPS_FIX|SMALL_ANGLE, IDLE, 1, 1
648, 57085329,   0,   0,   1,   0,   0,   0,   1,   0,   0,  -1,   0,   0, 1000, 1.843, 1023,   0,   0,  -1, 233, -245, 4255, 121, 118, 118, 129, ANGLE_MODE, GPS_FIX_HOME|GPS_FIX|SMALL_ANGLE, IDLE, 1, 1
656, 57089386,   0,   0,   0,   0,   0,   0,   2,   0,   0,  -1,   0,   0, 1000, 1.843, 1023,  -1,   0,   0, 228, -240, 4254, 117, 115, 125, 125, ANGLE_MODE, GPS_FIX_HOME|GPS_FIX|SMALL_ANGLE, IDLE, 1, 1
664, 57093453,   0,   0,  -1,   0,   0,   0,  -1,   0,   0,  -1,   0,   0, 1000, 1.843, 1023,   0,   0,   0, 222, -233, 4252, 125, 131, 121, 116, ANGLE_MODE, GPS_FIX_HOME|GPS_FIX|SMALL_ANGLE, IDLE, 1, 1
672, 57097514,   0,   0,  -1,   0,   0,   0,  -2,   0,   0,  -1,   0,   0, 1000, 1.843, 1023,   0,   0,   0, 213, -227, 4252, 129, 131, 121, 115, ANGLE_MODE, GPS_FIX_HOME|GPS_FIX|SMALL_ANGLE, IDLE, 1, 1
680, 57101581,   0,   0,   0,   0,   0,   0,   1,   0,   0,  -1,   0,   0, 1000, 1.843, 1023,   0,   0,   0, 208, -214, 4251, 115, 118, 117, 118, ANGLE_MODE, GPS_FIX_HOME|GPS_FIX|SMALL_ANGLE, IDLE, 1, 1
688, 57105636,   0,   0,   2,   0,   0,   0,   0,   0,   0,  -1,   0,   0, 1000, 1.843, 1023,   0,   0,  -1, 203, -217, 4252, 130, 119, 117, 122, ANGLE_MODE, GPS_FIX_HOME|GPS_FIX|SMALL_ANGLE, IDLE, 1, 1
696, 57109695,   0,   0,   0,   0,   0,   0,   3,   0,   0,  -1,   0,   0, 1000, 1.843, 1023,  -1,   0,   0, 198, -217, 4252, 118, 115, 133, 131, ANGLE_MODE, GPS_FIX_HOME|GPS_FIX|SMALL_ANGLE, IDLE, 1, 1
704, 57113836,   0,   0,  -2,   0,   0,   0,   0,  -1,   0,  -1,   0,   0, 1000, 1.843, 1023,   0,   0,   1, 192, -214, 4251, 116, 130, 125, 120, ANGLE_MODE, GPS_FIX_HOME|GPS_FIX|SMALL_ANGLE, IDLE, 1, 1
712, 57117899,  -1,   0,  -1,   0,   0,   0,  -4,   0,   0,  -1,   0,   0, 1000, 1.843, 1023,   0,   0,   1, 191, -209, 4252, 138, 142, 124, 115, ANGLE_MODE, GPS_FIX_HOME|GPS_FIX|SMALL_ANGLE, IDLE, 1, 1
720, 57121938,   0,   0,   1,   0,   0,   0,   2,   0,   0,  -1,   0,   0, 1000, 1.843, 1023,   0,   0,   0, 191, -198, 4253, 120, 115, 122, 127, ANGLE_MODE, GPS_FIX_HOME|GPS_FIX|SMALL_ANGLE, IDLE, 1, 1
728, 57125994,   0,   0,   3,   0,   0,   0,   0,   0,   0,  -1,   0,   0, 1000, 1.843, 1023,   0,   0,  -1, 187, -203, 4253, 133, 119, 116, 128, ANGLE_MODE, GPS_FIX_HOME|GPS_FIX|SMALL_ANGLE, IDLE, 1, 1
736, 57130033,   0,   0,   0,   0,   0,   0,   2,   0,   0,  -1,   0,   0, 1000, 1.843, 1023,  -1,   0,   0, 188, -203, 4251, 115, 119, 129, 128, ANGLE_MODE, GPS_FIX_HOME|GPS_FIX|SMALL_ANGLE, IDLE, 1, 1
744, 57134076,   0,   0,  -3,   0,   0,   0,   1,   0,   0,  -1,   0,   0, 1000, 1.843, 1023,  -1,   0,   1, 191, -208, 4249, 115, 131, 135, 122, ANGLE_MODE, GPS_FIX_HOME|GPS_FIX|SMALL_ANGLE, IDLE, 1, 1
752, 57138156,  -1,   0,  -3,   0,   0,   0,  -5,   0,   0,  -1,   0,  -1, 1000, 1.843, 1023,   1,   0,   1, 178, -211, 4249, 143, 156, 132, 115, ANGLE_MODE, GPS_FIX_HOME|GPS_FIX|SMALL_ANGLE, IDLE, 1, 1
760, 57142217,   0,   0,   0,   0,   0,   0,   0,   0,   0,  -1,   0,  -1, 1000, 1.843, 1023,   0,   0,  -1, 159, -208, 4253, 118, 119, 115, 120, ANGLE_MODE, GPS_FIX_HOME|GPS_FIX|SMALL_ANGLE, IDLE, 1, 1
768, 57146378,   0,   0,   2,   0,   0,   0,   0,   0,   0,  -1,   0,  -1, 1000, 1.843, 1023,   0,   0,  -1, 148, -221, 4257, 131, 116, 119, 126, ANGLE_MODE, GPS_FIX_HOME|GPS_FIX|SMALL_ANGLE, IDLE, 1, 1
776, 57150436,   0,   0,   0,   0,   0,   0,   0,   0,   0,  -1,   0,  -1, 1000, 1.843, 1023,   0,   0,   0, 142, -224, 4257, 115, 120, 120, 118, ANGLE_MODE, GPS_FIX_HOME|GPS_FIX|SMALL_ANGLE, IDLE, 1, 1
784, 57154488,   0,   0,  -5,   0,   0,   0,   2,  -1,   0,  -1,   0,  -1, 1000, 1.843, 1023,  -1,   0,   1, 138, -231, 4258, 115, 140, 142, 128, ANGLE_MODE, GPS_FIX_HOME|GPS_FIX|SMALL_ANGLE, IDLE, 1, 1
792, 57158572,  -1,   0,  -4,   0,   0,   0,  -3,   0,   0,  -1,   0,  -1, 1000, 1.843, 1023,   0,   0,   1, 141, -234, 4258, 133, 148, 134, 115, ANGLE_MODE, GPS_FIX_HOME|GPS_FIX|SMALL_ANGLE, IDLE, 1, 1
800, 57162628,   0,   0,   0,   0,   0,   0,   0,   0,   0,  -1,   0,  -1, 1000, 1.843, 1023,   0,   0,  -1, 146, -220, 4258, 122, 121, 116, 115, ANGLE_MODE, GPS_FIX_HOME|GPS_FIX|SMALL_ANGLE, IDLE, 1, 1
808, 57166693,   0,   0,   2,   0,   0,   0,   0,   0,   0,  -1,   0,  -1, 1000, 1.843, 1023,   0,   0,  -1, 149, -216, 4260, 126, 119, 115, 124, ANGLE_MODE, GPS_FIX_HOME|GPS_FIX|SMALL_ANGLE, IDLE, 1, 1
816, 57170766,   0,   0,   0,   0,   0,   0,   1,   0,   0,  -1,   0,  -1, 1000, 1.843, 1023,  -1,   0,   0, 152, -214, 4258, 116, 119, 128, 123, ANGLE_MODE, GPS_FIX_HOME|GPS_FIX|SMALL_ANGLE, IDLE, 1, 1
824, 57174828,   0,   0,  -6,   0,   0,   0,   3,   0,   0,  -1,   0,  -1, 1000, 1.843, 1023,  -1,   0,   2, 158, -220, 4260, 116, 140, 155, 130, ANGLE_MODE, GPS_FIX_HOME|GPS_FIX|SMALL_ANGLE, IDLE, 1, 1
832, 57179171,   0,   0,  -4,   0,   0,   0,  -2,   0,   0,  -1,   0,  -1, 1000, 1.843, 1023,   0,   0,   1, 164, -221, 4260, 126, 150, 132, 118, ANGLE_MODE, GPS_FIX_HOME|GPS_FIX|SMALL_ANGLE, IDLE, 1, 1
840, 57183259,   0,   0,   1,   0,   0,   0,  -1,   1,   0,  -1,   0,  -1, 1000, 1.843, 1023,   0,   0,  -1, 169, -206, 4260, 133, 124, 119, 117, ANGLE_MODE, GPS_FIX_HOME|GPS_FIX|SMALL_ANGLE, IDLE, 1, 1
848, 57187320,  -1,   0,   2,   0,   0,   0,   0,   0,   0,  -1,   0,  -1, 1000, 1.843, 1023,   0,   0,  -1, 175, -200, 4258, 131, 124, 115, 125, ANGLE_MODE, GPS_FIX_HOME|GPS_FIX|SMALL_ANGLE, IDLE, 1, 1
856, 57191382,   0,   0,  -1,   0,   0,   0,   1,   0,   0,  -1,   0,  -1, 1000, 1.843, 1023,  -1,   0,   0, 175, -199, 4258, 115, 121, 127, 124, ANGLE_MODE, GPS_FIX_HOME|GPS_FIX|SMALL_ANGLE, IDLE, 1, 1
864, 57195474,   0,   0,  -6,   0,   0,   0,   4,   0,   0,  -1,   0,  -1, 1000, 1.843, 1023,  -2,   0,   2, 180, -211, 4254, 118, 137, 165, 135, ANGLE_MODE, GPS_FIX_HOME|GPS_FIX|SMALL_ANGLE, IDLE, 1, 1
872, 57199569,   0,   1,  -4,   0,   0,   0,  -2,   9,   0,  -1,   3,  -1, 1000, 1.843, 1023,   0,   0,   1, 183, -217, 4252, 168, 140, 173, 115, ANGLE_MODE, GPS_FIX_HOME|GPS_FIX|SMALL_ANGLE, IDLE, 1, 1
880, 57203674,  -1,   4,   0,   0,   0,   0,  -3,   7,   0,  -1,   7,  -1, 1000, 1.843, 1023,   1,   0,  -1, 187, -204, 4251, 181, 133, 160, 117, ANGLE_MODE, GPS_FIX_HOME|GPS_FIX|SMALL_ANGLE, IDLE, 1, 1
888, 57207738,  -1,   4,   0,   0,   0,   0,  -1,   1,   0,  -1,   7,  -1, 1000, 1.843, 1023,   1,   0,  -1, 192, -197, 4250, 152, 126, 138, 117, ANGLE_MODE, GPS_FIX_HOME|GPS_FIX|SMALL_ANGLE, IDLE, 1, 1
896, 57211794,   0,   4,  -3,   0,   0,   0,   1,   0,   0,  -1,   7,  -1, 1000, 1.843, 1023,   0,   0,   1, 191, -199, 4248, 136, 126, 152, 117, ANGLE_MODE, GPS_FIX_HOME|GPS_FIX|SMALL_ANGLE, IDLE, 1, 1
904, 57215974,   0,   4,  -7,   0,   0,   0,   5,   0,   0,  -1,   7,  -1, 1000, 1.843, 1023,  -2,   0,   2, 192, -209, 4243, 125, 134, 181, 133, ANGLE_MODE, GPS_FIX_HOME|GPS_FIX|SMALL_ANGLE, IDLE, 1, 1
912, 57220055,   0,   6,  -2,   0,   0,   0,   0,   9,   0,  -1,  12,  -1, 1000, 1.843, 1023,  -1,   0,   0, 194, -201, 4243, 184, 127, 191, 115, ANGLE_MODE, GPS_FIX_HOME|GPS_FIX|SMALL_ANGLE, IDLE, 1, 1
920, 57224110,  -2,   9,   5,   0,   0,   0,  -6,   1,   0,  -1,  15,  -1, 1000, 1.843, 1023,   2,   0,  -2, 194, -176, 4239, 207, 140, 149, 127, ANGLE_MODE, GPS_FIX_HOME|GPS_FIX|SMALL_ANGLE, IDLE, 1, 1
928, 57228177,  -2,  10,   1,   0,   0,   0,  -2,   1,   0,  -1,  16,  -1, 1000, 1.843, 1023,   1,   0,  -1, 193, -163, 4242, 187, 134, 161, 118, ANGLE_MODE, GPS_FIX_HOME|GPS_FIX|SMALL_ANGLE, IDLE, 1, 1
936, 57232240,   0,  10,  -8,   0,   0,   0,   6,   2,   0,  -1,  17,  -1, 1000, 1.843, 1023,  -1,   0,   2, 192, -174, 4241, 155, 136, 216, 129, ANGLE_MODE, GPS_FIX_HOME|GPS_FIX|SMALL_ANGLE, IDLE, 1, 1
944, 57236289,   1,  11,  -7,   0,   0,   0,   6,   2,   0,  -1,  18,  -1, 1000, 1.843, 1023,  -2,   0,   2, 189, -198, 4244, 160, 131, 223, 133, ANGLE_MODE, GPS_FIX_HOME|GPS_FIX|SMALL_ANGLE, IDLE, 1, 1
952, 57240341,   0,  11,   5,   0,   1,   0,  -3,   0,   0,  -1,  18,  -1, 1004, 1.843, 1023,   0,   0,  -3, 189, -196, 4245, 197, 123, 161, 130, ANGLE_MODE, GPS_FIX_HOME|GPS_FIX|SMALL_ANGLE, IDLE, 1, 1
960, 57244412,  -2,  11,  11,   0,   1,   0,  -8,   7,   0,  -1,  20,  -1, 1011, 1.843, 1023,   2,   1,  -5, 191, -170, 4250, 267, 137, 178, 141, ANGLE_MODE, GPS_FIX_HOME|GPS_FIX|SMALL_ANGLE, IDLE, 1, 1
968, 57248469,  -1,  14,  -2,   0,   2,   0,   0,   8,   0,  -1,  24,  -1, 1011, 1.843, 1023,   1,   0,   0, 188, -166, 4253, 222, 131, 225, 115, ANGLE_MODE, GPS_FIX_HOME|GPS_FIX|SMALL_ANGLE, IDLE, 1, 1
976, 57252549,   1,  15, -15,   0,   3,   0,   9,   0,   0,  -1,  25,  -1, 1011, 1.843, 1023,  -2,   1,   5, 194, -200, 4252, 172, 155, 276, 137, ANGLE_MODE, GPS_FIX_HOME|GPS_FIX|SMALL_ANGLE, IDLE, 1, 1
984, 57256617,   0,  15,  -4,   0,   4,   0,   2,   1,   0,  -1,  25,  -1, 1011, 1.834, 1023,  -2,   0,   1, 189, -215, 4255, 196, 127, 226, 122, ANGLE_MODE, GPS_FIX_HOME|GPS_FIX|SMALL_ANGLE, IDLE, 1, 1
992, 57260675,  -1,  15,   6,   0,   4,   0,  -6,   0,   0,  -1,  25,  -1, 1021, 1.834, 1023,   1,   0,  -3, 191, -204, 4254, 242, 136, 185, 128, ANGLE_MODE, GPS_FIX_HOME|GPS_FIX|SMALL_ANGLE, IDLE, 1, 1
1000, 57264741,  -1,  16,   3,   0,   5,   0,  -2,   3,   0,  -1,  26,  -1, 1030, 1.834, 1023,   0,   0,  -2, 191, -203, 4260, 239, 123, 215, 121, ANGLE_MODE, GPS_FIX_HOME|GPS_FIX|SMALL_ANGLE, IDLE, 1, 1
1008, 57268799,  -1,  16,  -5,   0,   6,   0,   0,   0,   0,  -1,  27,  -1, 1030, 1.834, 1023,   1,   1,   1, 191, -209, 4258, 209, 138, 227, 115, ANGLE_MODE, GPS_FIX_HOME|GPS_FIX|SMALL_ANGLE, IDLE, 1, 1
1016, 57273133,  -1,  16,  -5,   0,   7,   0,  -1,   0,   0,  -1,  27,  -1, 1030, 1.834, 1023,   1,   1,   1, 185, -212, 4252, 217, 146, 227, 115, ANGLE_MODE, GPS_FIX_HOME|GPS_FIX|SMALL_ANGLE, IDLE, 1, 1
1024, 57277222,   0,  17,  -6,   0,   8,   0,   6,  11,   0,  -1,  28,  -1, 1037, 1.843, 1023,  -1,   0,   2, 190, -229, 4240, 252, 129, 305, 129, ANGLE_MODE, GPS_FIX_HOME|GPS_FIX|SMALL_ANGLE, IDLE, 1, 1
1032, 57281359,   0,  19,   0,   0,   9,   0,   1,   7,   0,  -1,  32,  -1, 1037, 1.843, 1023,   0,   1,   0, 182, -241, 4235, 261, 120, 268, 117, ANGLE_MODE, GPS_FIX_HOME|GPS_FIX|SMALL_ANGLE, IDLE, 1, 1
1040, 57285451,  -2,  20,   4,   0,  10,   0,  -8,   0,   0,  -1,  35,  -1, 1038, 1.843, 1023,   2,   1,  -2, 185, -220, 4234, 290, 153, 228, 124, ANGLE_MODE, GPS_FIX_HOME|GPS_FIX|SMALL_ANGLE, IDLE, 1, 1
1048, 57289518,  -1,  22,  -4,   0,  11,   0,   1,   4,   0,  -1,  36,  -1, 1038, 1.843, 1023,   0,   1,   1, 191, -213, 4233, 267, 135, 285, 115, ANGLE_MODE, GPS_FIX_HOME|GPS_FIX|SMALL_ANGLE, IDLE, 1, 1
1056, 57293566,   0,  21,  -5,   0,  12,   0,   4,   0,   0,  -1,  36,  -1, 1038, 1.843, 1023,   0,   2,   1, 198, -223, 4233, 240, 134, 278, 122, ANGLE_MODE, GPS_FIX_HOME|GPS_FIX|SMALL_ANGLE, IDLE, 1, 1
1064, 57297661,   0,  20,  -1,   0,  13,   0,  -2,  -3,   0,  -1,  36,  -1, 1047, 1.843, 1023,   0,   2,   0, 204, -212, 4243, 249, 134, 240, 115, ANGLE_MODE, GPS_FIX_HOME|GPS_FIX|SMALL_ANGLE, IDLE, 1, 1
1072, 57301721,   2,  21,  -2,   0,  14,   0,   8,   1,   0,  -1,  36,  -1, 1047, 1.843, 1023,  -3,   2,   0, 218, -222, 4240, 261, 121, 314, 153, ANGLE_MODE, GPS_FIX_HOME|GPS_FIX|SMALL_ANGLE, IDLE, 1, 1
1080, 57305786,  -1,  21,   3,   0,  15,   0,  -3,   4,   0,  -1,  38,  -1, 1056, 1.843, 1023,   1,   3,  -2, 219, -219, 4239, 304, 129, 271, 122, ANGLE_MODE, GPS_FIX_HOME|GPS_FIX|SMALL_ANGLE, IDLE, 1, 1
1088, 57309849,  -3,  22,  -1,   0,  16,   0, -14,   2,   0,  -1,  42,  -1, 1056, 1.843, 1023,   3,   4,   0, 232, -195, 4252, 350, 193, 284, 115, ANGLE_MODE, GPS_FIX_HOME|GPS_FIX|SMALL_ANGLE, IDLE, 1, 1
1096, 57313899,   1,  22,  -7,   0,  17,   0,  11,   1,   0,  -1,  42,  -1, 1056, 1.834, 1023,  -2,   4,   2, 243, -200, 4252, 267, 131, 349, 150, ANGLE_MODE, GPS_FIX_HOME|GPS_FIX|SMALL_ANGLE, IDLE, 1, 1
1104, 57317974,   0,  22,  -2,   0,  18,   0,   3,   0,   0,  -1,  43,  -1, 1065, 1.834, 1023,   0,   5,   0, 246, -210, 4262, 276, 126, 297, 119, ANGLE_MODE, GPS_FIX_HOME|GPS_FIX|SMALL_ANGLE, IDLE, 1, 1
1112, 57322026,   0,  22,  -2,   0,  19,   0,  -8,  -1,   0,  -1,  44,  -1, 1065, 1.834, 1023,   0,   6,   0, 265, -222, 4260, 311, 159, 284, 115, ANGLE_MODE, GPS_FIX_HOME|GPS_FIX|SMALL_ANGLE, IDLE, 1, 1
1120, 57326110,   0,  21,   3,   0,  20,   0,   7,  -3,   0,  -1,  44,  -1, 1065, 1.834, 1023,  -1,   7,  -2, 262, -214, 4266, 274, 115, 290, 151, ANGLE_MODE, GPS_FIX_HOME|GPS_FIX|SMALL_ANGLE, IDLE, 1, 1
1128, 57330182,  -2,  20,   2,   0,  21,   0,  -8,  -2,   0,  -1,  44,  -1, 1065, 1.834, 1012,   2,   8,  -1, 279, -226, 4275, 323, 158, 269, 119, ANGLE_MODE, GPS_FIX_HOME|GPS_FIX|SMALL_ANGLE, IDLE, 1, 1
1136, 57334224,  -2,  19,   3,   0,  22,   0,  -2,  -1,   0,  -1,  45,  -1, 1065, 1.843, 1012,   1,   9,  -2, 286, -225, 4272, 304, 129, 273, 121, ANGLE_MODE, GPS_FIX_HOME|GPS_FIX|SMALL_ANGLE, IDLE, 1, 1
1144, 57338280,  -2,  19,   0,   0,  23,   0,   0,   0,   0,  -1,  45,  -1, 1074, 1.843, 1012,   2,   9,  -1, 296, -227, 4281, 304, 126, 292, 116, ANGLE_MODE, GPS_FIX_HOME|GPS_FIX|SMALL_ANGLE, IDLE, 1, 1
1152, 57342338,  -2,  18,  -2,  -1,  24,   0,  -1,  -1,   0,  -1,  46,  -1, 1074, 1.843, 1012,   2,  10,   0, 307, -238, 4275, 299, 141, 290, 115, ANGLE_MODE, GPS_FIX_HOME|GPS_FIX|SMALL_ANGLE, IDLE, 1, 1
1160, 57346410,  -3,  17,   5,  -1,  25,   0,  -1,  -6,   0,  -1,  46,  -1, 1076, 1.843, 1012,   3,  12,  -2, 291, -225, 4281, 293, 129, 252, 125, ANGLE_MODE, GPS_FIX_HOME|GPS_FIX|SMALL_ANGLE, IDLE, 1, 1
1168, 57350474,  -1,  17,   2,  -1,  26,   0,   0,   1,   0,  -1,  46,  -1, 1084, 1.843, 1012,   1,  12,  -1, 323, -257, 4284, 312, 123, 294, 119, ANGLE_MODE, GPS_FIX_HOME|GPS_FIX|SMALL_ANGLE, IDLE, 1, 1
1176, 57354533,  -2,  16,   5,  -1,  27,   0,   5,  -3,   0,  -1,  46,  -1, 1084, 1.843, 1012,   1,  13,  -2, 301, -245, 4276, 292, 115, 278, 139, ANGLE_MODE, GPS_FIX_HOME|GPS_FIX|SMALL_ANGLE, IDLE, 1, 1
1184, 57358674,  -5,  15,  -1,  -1,  28,   0, -12,  -1,   0,  -1,  47,  -1, 1091, 1.843, 1012,   5,  14,   0, 319, -251, 4284, 358, 197, 287, 115, ANGLE_MODE, GPS_FIX_HOME|GPS_FIX|SMALL_ANGLE, IDLE, 1, 1
1192, 57363084,  -4,  14,   3,  -1,  28,   0,  -1,  -4,   0,  -1,  47,  -1, 1091, 1.843, 1012,   4,  16,  -2, 315, -250, 4274, 306, 140, 265, 121, ANGLE_MODE, GPS_FIX_HOME|GPS_FIX|SMALL_ANGLE, IDLE, 1, 1
1200, 57367152,  -3,  14,   2,  -2,  29,   0,   4,   0,   0,  -1,  47,  -1, 1101, 1.843, 1012,   3,  16,  -2, 313, -243, 4287, 314, 129, 299, 134, ANGLE_MODE, GPS_FIX_HOME|GPS_FIX|SMALL_ANGLE, IDLE, 1, 1
1208, 57371252,  -4,  12,   7,  -2,  30,   0,   0,  -3,   0,  -1,  48,  -1, 1101, 1.843, 1012,   4,  18,  -3, 342, -254, 4278, 327, 142, 267, 141, ANGLE_MODE, GPS_FIX_HOME|GPS_FIX|SMALL_ANGLE, IDLE, 1, 1
1216, 57375311,  -4,  12,   2,  -2,  30,   0,  -1,  -1,   0,  -1,  49,  -1, 1101, 1.843, 1012,   4,  19,  -1, 387, -233, 4288, 323, 149, 282, 122, ANGLE_MODE, GPS_FIX_HOME|GPS_FIX|SMALL_ANGLE, IDLE, 1, 1
1224, 57379360,  -5,  11,   0,  -2,  31,   0,   0,   3,   0,  -1,  52,  -1, 1110, 1.843, 1012,   5,  21,  -1, 436, -236, 4276, 349, 162, 314, 125, ANGLE_MODE, GPS_FIX_HOME|GPS_FIX|SMALL_ANGLE, IDLE, 1, 1
1232, 57383419,  -7,  14,   5,  -3,  32,   0,  -8,   5,   0,  -1,  56,  -1, 1110, 1.843, 1012,   7,  20,  -2, 438, -213, 4288, 413, 185, 313, 126, ANGLE_MODE, GPS_FIX_HOME|GPS_FIX|SMALL_ANGLE, IDLE, 1, 1
1240, 57387503,  -4,  13,   0,  -3,  32,   0,   6,   0,   0,   0,  56,  -1, 1110, 1.843, 1012,   4,  22,  -1, 466, -233, 4285, 333, 147, 325, 144, ANGLE_MODE, GPS_FIX_HOME|GPS_FIX|SMALL_ANGLE, IDLE, 1, 1
1248, 57391558,  -4,  11,   1,  -3,  33,   0,   5,  -8,   0,   0,  56,  -1, 1117, 1.843, 1012,   4,  24,  -1, 446, -225, 4286, 334, 179, 317, 177, ANGLE_MODE, GPS_FIX_HOME|GPS_FIX|SMALL_ANGLE, IDLE, 1, 1
1256, 57395611,  -4,   9,  -5,  -3,  34,   0,  -3,  -4,   0,   0,  56,  -1, 1117, 1.834, 1012,   5,  26,   1, 440, -239, 4288, 342, 209, 318, 137, ANGLE_MODE, GPS_FIX_HOME|GPS_FIX|SMALL_ANGLE, IDLE, 1, 1
1264, 57399717,  -5,   9,   1,  -4,  34,   0,  -2,  -5,   0,   0,  56,  -1, 1117, 1.834, 1012,   6,  27,  -1, 435, -214, 4285, 355, 198, 301, 152, ANGLE_MODE, GPS_FIX_HOME|GPS_FIX|SMALL_ANGLE, IDLE, 1, 1
1272, 57403777,  -4,   8,   4,  -4,  34,   0,   3,   0,   0,   0,  56,  -1, 1120, 1.834, 1012,   4,  28,  -2, 415, -229, 4296, 363, 175, 321, 171, ANGLE_MODE, GPS_FIX_HOME|GPS_FIX|SMALL_ANGLE, IDLE, 1, 1
1280, 57407839,  -6,   6,   5,  -4,  35,   0,  -4,  -6,   0,   0,  56,  -1, 1120, 1.834, 1012,   7,  30,  -2, 420, -206, 4292, 370, 206, 287, 168, ANGLE_MODE, GPS_FIX_HOME|GPS_FIX|SMALL_ANGLE, IDLE, 1, 1
1288, 57411924,  -6,   3,   1,  -4,  35,   0,  -3,  -9,   0,   0,  56,  -1, 1120, 1.834, 1012,   7,  33,  -1, 372, -205, 4288, 350, 224, 284, 173, ANGLE_MODE, GPS_FIX_HOME|GPS_FIX|SMALL_ANGLE, IDLE, 1, 1
1296, 57415988,  -5,   2,   3,  -5,  35,   0,   1,  -3,   0,   0,  56,  -1, 1120, 1.843, 1012,   6,  33,  -2, 384, -196, 4292, 352, 200, 302, 177, ANGLE_MODE, GPS_FIX_HOME|GPS_FIX|SMALL_ANGLE, IDLE, 1, 1
1304, 57420045,  -5,   0,   5,  -5,  35,   0,   2,  -6,   0,   0,  56,  -1, 1128, 1.843, 1012,   6,  35,  -2, 352, -201, 4290, 361, 220, 306, 210, ANGLE_MODE, GPS_FIX_HOME|GPS_FIX|SMALL_ANGLE, IDLE, 1, 1
1312, 57424109,  -6,   1,   0,  -5,  35,   0,  -3,   2,   0,   0,  57,  -1, 1128, 1.843, 1012,   6,  35,   0, 362, -203, 4303, 381, 227, 324, 164, ANGLE_MODE, GPS_FIX_HOME|GPS_FIX|SMALL_ANGLE, IDLE, 1, 1
1320, 57428185,  -5,  -3,   3,  -6,  35,   0,   2, -12,   0,   0,  57,  -1, 1128, 1.843, 1012,   6,  40,  -2, 333, -198, 4281, 339, 248, 287, 223, ANGLE_MODE, GPS_FIX_HOME|GPS_FIX|SMALL_ANGLE, IDLE, 1, 1
1328, 57432258,  -6,  -3,   1,  -6,  35,   0,  -1,  -4,   0,   0,  57,   0, 1128, 1.843, 1012,   6,  40,  -1, 321, -207, 4295, 362, 243, 297, 193, ANGLE_MODE, GPS_FIX_HOME|GPS_FIX|SMALL_ANGLE, IDLE, 1, 1
1336, 57436315,  -7,  -5,   5,  -6,  35,   0,  -2,  -5,   0,   0,  57,   0, 1128, 1.843, 1012,   8,  42,  -2, 310, -192, 4291, 367, 246, 278, 206, ANGLE_MODE, GPS_FIX_HOME|GPS_FIX|SMALL_ANGLE, IDLE, 1, 1
1344, 57440421,  -6,  -5,   0,  -7,  35,   0,  -1,  -1,   0,   0,  57,   0, 1128, 1.843, 1012,   6,  42,   0, 304, -203, 4306, 361, 247, 297, 191, ANGLE_MODE, GPS_FIX_HOME|GPS_FIX|SMALL_ANGLE, IDLE, 1, 1
1352, 57444480,  -7,  -8,   8,  -7,  34,   0,   3,  -5,   0,   0,  57,   0, 1137, 1.843, 1012,   7,  45,  -3, 288, -189, 4297, 372, 258, 293, 246, ANGLE_MODE, GPS_FIX_HOME|GPS_FIX|SMALL_ANGLE, IDLE, 1, 1
1360, 57448601,  -6, -10,   0,  -7,  34,   0,  -1,  -8,   0,   0,  57,   0, 1137, 1.843, 1012,   6,  46,   0, 279, -210, 4289, 355, 292, 293, 229, ANGLE_MODE, GPS_FIX_HOME|GPS_FIX|SMALL_ANGLE, IDLE, 1, 1
1368, 57452933,  -7, -11,   0,  -8,  33,   0,   1,  -2,   0,   0,  57,   0, 1137, 1.843, 1012,   7,  48,   0, 262, -181, 4300, 362, 279, 303, 226, ANGLE_MODE, GPS_FIX_HOME|GPS_FIX|SMALL_ANGLE, IDLE, 1, 1
1376, 57456999,  -6, -12,   2,  -8,  33,   0,  -1,  -7,   0,   0,  57,   0, 1149, 1.843, 1012,   6,  49,  -1, 253, -214, 4293, 356, 294, 279, 240, ANGLE_MODE, GPS_FIX_HOME|GPS_FIX|SMALL_ANGLE, IDLE, 1, 1
1384, 57461060,  -6, -12,   3,  -8,  32,   0,   2,   2,   0,   0,  57,   0, 1149, 1.843, 1012,   7,  49,  -1, 245, -186, 4306, 395, 290, 326, 256, ANGLE_MODE, GPS_FIX_HOME|GPS_FIX|SMALL_ANGLE, IDLE, 1, 1
1392, 57465123,  -6, -16,   0,  -9,  31,   0,  -1, -11,   0,   0,  57,   0, 1150, 1.843, 1012,   7,  53,   0, 214, -185, 4296, 359, 348, 291, 277, ANGLE_MODE, GPS_FIX_HOME|GPS_FIX|SMALL_ANGLE, IDLE, 1, 1
1400, 57469183,  -7, -15,   0,  -9,  30,   0,  -2,   0,   0,   0,  57,   0, 1150, 1.843, 1012,   7,  52,   0, 201, -152, 4317, 392, 323, 309, 251, ANGLE_MODE, GPS_FIX_HOME|GPS_FIX|SMALL_ANGLE, IDLE, 1, 1
1408, 57473244,  -6, -18,   0,  -9,  30,   0,   2,  -6,   0,   0,  57,   0, 1160, 1.843, 1012,   7,  55,   0, 145, -141, 4319, 379, 353, 322, 303, ANGLE_MODE, GPS_FIX_HOME|GPS_FIX|SMALL_ANGLE, IDLE, 1, 1
1416, 57477317,  -5, -18,   0, -10,  29,   0,   1,  -3,   0,   0,  57,   0, 1160, 1.826, 1012,   6,  55,   0, 157, -146, 4325, 383, 352, 322, 299, ANGLE_MODE, GPS_FIX_HOME|GPS_FIX|SMALL_ANGLE, IDLE, 1, 1
1424, 57481386,  -5, -19,  -2, -10,  28,   0,   3,  -1,   0,   0,  57,   0, 1160, 1.826, 1012,   6,  56,   1, 110, -114, 4327, 374, 352, 334, 296, ANGLE_MODE, GPS_FIX_HOME|GPS_FIX|SMALL_ANGLE, IDLE, 1, 1
1432, 57485450,  -5, -21,  -5, -10,  27,   0,  -2,  -5,   0,   0,  57,   0, 1167, 1.826, 1012,   5,  58,   2,  95, -134, 4309, 383, 397, 328, 305, ANGLE_MODE, GPS_FIX_HOME|GPS_FIX|SMALL_ANGLE, IDLE, 1, 1
1440, 57489515,  -5, -20,  -7, -10,  26,   0,   2,  -1,   0,   0,  57,   0, 1167, 1.826, 1012,   5,  57,   3,  81, -97, 4305, 375, 385, 349, 303, ANGLE_MODE, GPS_FIX_HOME|GPS_FIX|SMALL_ANGLE, IDLE, 1, 1
1448, 57493565,  -3, -22,   1, -11,  25,   0,   4,   0,   0,   0,  57,   0, 1167, 1.826, 1012,   4,  59,  -1,  57, -116, 4300, 383, 366, 331, 333, ANGLE_MODE, GPS_FIX_HOME|GPS_FIX|SMALL_ANGLE, IDLE, 1, 1
1456, 57497639,  -5, -22,  -6, -11,  24,   0,  -3,  -5,   0,   0,  57,   0, 1168, 1.834, 1012,   5,  60,   2,  40, -84, 4291, 375, 415, 318, 312, ANGLE_MODE, GPS_FIX_HOME|GPS_FIX|SMALL_ANGLE, IDLE, 1, 1
1464, 57501687,  -2, -23,   1, -11,  22,   0,   7,  -1,   0,   0,  57,   0, 1168, 1.834, 1012,   2,  61,   0,  19, -91, 4293, 365, 369, 335, 352, ANGLE_MODE, GPS_FIX_HOME|GPS_FIX|SMALL_ANGLE, IDLE, 1, 1
1472, 57505750,  -3, -24,  -9, -11,  21,   0,   0,   0,   0,   0,  58,   0, 1168, 1.834, 1012,   3,  62,   3,   6, -76, 4274, 361, 412, 334, 314, ANGLE_MODE, GPS_FIX_HOME|GPS_FIX|SMALL_ANGLE, IDLE, 1, 1
1480, 57509814,  -1, -24,  -2, -11,  20,   0,   1,  -2,   0,   0,  59,   0, 1168, 1.834, 1012,   2,  62,   1, -24, -86, 4275, 361, 397, 323, 340, ANGLE_MODE, GPS_FIX_HOME|GPS_FIX|SMALL_ANGLE, IDLE, 1, 1
1488, 57513870,   0, -25, -11, -11,  19,   0,   5,   1,   0,   0,  60,   0, 1168, 1.826, 1012,   0,  64,   4, -27, -73, 4269, 334, 399, 358, 330, ANGLE_MODE, GPS_FIX_HOME|GPS_FIX|SMALL_ANGLE, IDLE, 1, 1
1496, 57517956,   0, -24,  -1, -11,  18,   0,   3,  -6,   0,   0,  60,   0, 1168, 1.826, 1012,   0,  63,   1, -74, -88, 4263, 341, 400, 318, 362, ANGLE_MODE, GPS_FIX_HOME|GPS_FIX|SMALL_ANGLE, IDLE, 1, 1
1504, 57521998,   0, -26, -10, -11,  16,   0,  -1,   2,   0,   0,  60,   0, 1168, 1.826, 1012,  -1,  65,   4, -63, -67, 4271, 344, 416, 338, 323, ANGLE_MODE, GPS_FIX_HOME|GPS_FIX|SMALL_ANGLE, IDLE, 1, 1
1512, 57526076,   0, -25,  -7, -11,  15,   0,  -2,  -4,   0,   0,  60,   1, 1170, 1.826, 1012,   1,  65,   3, -116, -59, 4254, 343, 434, 315, 346, ANGLE_MODE, GPS_FIX_HOME|GPS_FIX|SMALL_ANGLE, IDLE, 1, 1
1520, 57530180,   1, -26,  -4, -11,  14,   0,   3,   1,   0,   0,  60,   1, 1170, 1.826, 1012,  -1,  65,   2, -96, -43, 4255, 343, 406, 333, 356, ANGLE_MODE, GPS_FIX_HOME|GPS_FIX|SMALL_ANGLE, IDLE, 1, 1
1528, 57534223,   0, -26,  -9, -11,  12,   0,   0,   1,   0,   0,  60,   1, 1170, 1.834, 1012,   0,  65,   4, -155, -26, 4249, 340, 428, 331, 338, ANGLE_MODE, GPS_FIX_HOME|GPS_FIX|SMALL_ANGLE, IDLE, 1, 1
1536, 57538285,   1, -27,   0, -11,  11,   0,   3,   2,   0,   0,  62,   3, 1170, 1.834, 1012,  -2,  67,   1, -184, -53, 4252, 345, 399, 319, 374, ANGLE_MODE, GPS_FIX_HOME|GPS_FIX|SMALL_ANGLE, IDLE, 1, 1
1544, 57542340,   3, -22, -14, -11,  10,   0,   4,  14,   0,   0,  66,   3, 1170, 1.834, 1012,  -4,  65,   7, -175, -79, 4257, 339, 395, 386, 317, ANGLE_MODE, GPS_FIX_HOME|GPS_FIX|SMALL_ANGLE, IDLE, 1, 1
1552, 57546670,   4, -23,  -7, -11,   9,   0,   6,  -2,   0,   0,  68,   3, 1172, 1.834, 1012,  -5,  67,   4, -206, -103, 4259, 312, 416, 346, 380, ANGLE_MODE, GPS_FIX_HOME|GPS_FIX|SMALL_ANGLE, IDLE, 1, 1
1560, 57550729,   6, -22, -11, -11,   8,  -1,   4,   3,   0,   0,  69,   3, 1178, 1.834, 1012,  -7,  67,   6, -225, -138, 4255, 331, 422, 378, 372, ANGLE_MODE, GPS_FIX_HOME|GPS_FIX|SMALL_ANGLE, IDLE, 1, 1
1568, 57554799,   5, -22, -14, -10,   7,  -1,   1,   0,   0,   0,  69,   3, 1178, 1.834, 1012,  -5,  67,   7, -231, -116, 4258, 322, 447, 366, 368, ANGLE_MODE, GPS_FIX_HOME|GPS_FIX|SMALL_ANGLE, IDLE, 1, 1
1576, 57558859,   6, -22, -12, -10,   5,  -1,  -1,   1,   0,   0,  69,   4, 1178, 1.834, 1012,  -6,  67,   7, -278, -156, 4243, 328, 444, 363, 367, ANGLE_MODE, GPS_FIX_HOME|GPS_FIX|SMALL_ANGLE, IDLE, 1, 1
1584, 57562914,   4, -20, -23, -10,   4,  -1,  -3,   1,   0,   0,  69,   4, 1178, 1.834, 1012,  -5,  65,  10, -270, -105, 4238, 315, 472, 381, 335, ANGLE_MODE, GPS_FIX_HOME|GPS_FIX|SMALL_ANGLE, IDLE, 1, 1
1592, 57566968,   6, -20, -15,  -9,   3,  -1,   3,   6,   0,   0,  70,   5, 1181, 1.834, 1012,  -6,  65,   8, -313, -127, 4232, 329, 437, 395, 366, ANGLE_MODE, GPS_FIX_HOME|GPS_FIX|SMALL_ANGLE, IDLE, 1, 1
1600, 57571028,   6, -17, -13,  -9,   2,  -2,   2,   2,   0,   0,  70,   5, 1181, 1.834, 1012,  -7,  63,   8, -313, -103, 4221, 327, 437, 390, 373, ANGLE_MODE, GPS_FIX_HOME|GPS_FIX|SMALL_ANGLE, IDLE, 1, 1
1608, 57575083,   8, -17, -23,  -9,   2,  -2,   5,   2,   0,   0,  70,   5, 1181, 1.834, 1012,  -9,  63,  11, -327, -89, 4222, 294, 449, 417, 367, ANGLE_MODE, GPS_FIX_HOME|GPS_FIX|SMALL_ANGLE, IDLE, 1, 1
1616, 57579164,   9, -13, -16,  -8,   1,  -2,   2,   9,   0,   0,  70,   5, 1181, 1.834, 1012,  -9,  59,   8, -370, -103, 4212, 332, 420, 419, 355, ANGLE_MODE, GPS_FIX_HOME|GPS_FIX|SMALL_ANGLE, IDLE, 1, 1
1624, 57583230,   9, -13, -17,  -8,   0,  -2,   0,   3,   0,   0,  70,   5, 1181, 1.834, 1012,  -9,  58,   9, -332, -77, 4212, 323, 439, 405, 360, ANGLE_MODE, GPS_FIX_HOME|GPS_FIX|SMALL_ANGLE, IDLE, 1, 1
1632, 57587310,   9, -13, -23,  -7,   0,  -3,   0,   4,   0,   0,  71,   5, 1181, 1.834, 1012, -10,  60,  11, -397, -96, 4215, 304, 449, 422, 353, ANGLE_MODE, GPS_FIX_HOME|GPS_FIX|SMALL_ANGLE, IDLE, 1, 1
1640, 57591369,  11, -12, -15,  -7,   0,  -3,   6,  -3,   0,   0,  73,   7, 1182, 1.834, 1012, -11,  59,   9, -398, -80, 4193, 290, 435, 410, 400, ANGLE_MODE, GPS_FIX_HOME|GPS_FIX|SMALL_ANGLE, IDLE, 1, 1
1648, 57595435,  10,  -8, -24,  -6,  -1,  -3,  -3,  12,   0,   0,  74,   7, 1182, 1.834, 1012, -10,  56,  12, -419, -76, 4182, 335, 433, 446, 322, ANGLE_MODE, GPS_FIX_HOME|GPS_FIX|SMALL_ANGLE, IDLE, 1, 1
1656, 57599512,  10,  -6, -22,  -6,  -1,  -4,   0,  12,   0,   0,  74,   7, 1182, 1.834, 1012, -11,  54,  12, -438, -58, 4147, 333, 420, 453, 330, ANGLE_MODE, GPS_FIX_HOME|GPS_FIX|SMALL_ANGLE, IDLE, 1, 1
1664, 57603576,  11,  -2, -22,  -5,  -1,  -4,   2,   8,   0,   0,  74,   7, 1182, 1.834, 1012, -11,  50,  11, -425, -63, 4101, 323, 411, 462, 339, ANGLE_MODE, GPS_FIX_HOME|GPS_FIX|SMALL_ANGLE, IDLE, 1, 1
1672, 57607634,  10,  -2, -27,  -5,  -1,  -4,   0,   1,   0,   0,  74,   7, 1184, 1.834, 1012, -11,  50,  13, -428, -24, 4083, 308, 449, 456, 339, ANGLE_MODE, GPS_FIX_HOME|GPS_FIX|SMALL_ANGLE, IDLE, 1, 1
1680, 57611722,  10,  -1, -26,  -4,  -1,  -5,  -1,  10,   0,   0,  74,   7, 1184, 1.834, 1012, -10,  49,  13, -464, -49, 4113, 329, 428, 474, 320, ANGLE_MODE, GPS_FIX_HOME|GPS_FIX|SMALL_ANGLE, IDLE, 1, 1
1688, 57615795,  11,   1, -29,  -4,  -1,  -5,   3,  -5,   0,   0,  74,   7, 1184, 1.826, 1012, -11,  47,  14, -538, -70, 4135, 286, 449, 464, 353, ANGLE_MODE, GPS_FIX_HOME|GPS_FIX|SMALL_ANGLE, IDLE, 1, 1
1696, 57619864,   7,  -1, -39,  -3,  -1,  -5, -10,   7,   0,   0,  75,   7, 1191, 1.826, 1012,  -8,  49,  17, -498, -42, 4159, 332, 496, 488, 292, ANGLE_MODE, GPS_FIX_HOME|GPS_FIX|SMALL_ANGLE, IDLE, 1, 1
1704, 57623939,   4,   3, -30,  -3,  -1,  -6,  -8,   5,   0,   0,  75,   7, 1191, 1.826, 1012,  -4,  45,  14, -556, -29, 4152, 358, 477, 475, 299, ANGLE_MODE, GPS_FIX_HOME|GPS_FIX|SMALL_ANGLE, IDLE, 1, 1
1712, 57628011,   3,   0, -45,  -3,  -1,  -6,  -7,  -9,   0,   0,  75,   7, 1191, 1.826, 1012,  -4,  48,  20, -560,  16, 4151, 289, 542, 472, 305, ANGLE_MODE, GPS_FIX_HOME|GPS_FIX|SMALL_ANGLE, IDLE, 1, 1
1720, 57632068,  -1,   0, -47,  -3,  -1,  -7, -11,   9,   0,   0,  75,   7, 1191, 1.826, 1012,   2,  49,  20, -707,  59, 4190, 339, 533, 493, 243, ANGLE_MODE, GPS_FIX_HOME|GPS_FIX|SMALL_ANGLE, IDLE, 1, 1
1728, 57636121,   0,   0, -29,  -3,  -1,  -8,  -3,  -8,   0,   0,  75,   7, 1191, 1.817, 1012,   0,  49,  14, -985,  74, 4176, 316, 513, 442, 337, ANGLE_MODE, GPS_FIX_HOME|GPS_FIX|SMALL_ANGLE, IDLE, 1, 1
1736, 57640473,   2,  -1, -11,  -3,  -1,  -8,   7,   0,   0,   0,  76,   7, 1191, 1.817, 1012,  -3,  51,   8, -1193, 162, 4176, 341, 437, 450, 381, ANGLE_MODE, GPS_FIX_HOME|GPS_FIX|SMALL_ANGLE, IDLE, 1, 1
1744, 57644548,   8,  -7, -43,  -3,  -1,  -9,  18, -11,   0,   0,  77,   7, 1191, 1.817, 1012,  -9,  57,  19, -1261, 246, 4204, 207, 502, 515, 384, ANGLE_MODE, GPS_FIX_HOME|GPS_FIX|SMALL_ANGLE, IDLE, 1, 1
1752, 57648607,  15, -13, -40,  -2,  -2, -10,  23, -25,   0,   0,  78,   7, 1191, 1.817, 1012, -15,  63,  18, -1393, 166, 4315, 147, 512, 493, 455, ANGLE_MODE, GPS_FIX_HOME|GPS_FIX|SMALL_ANGLE, IDLE, 1, 1
1760, 57652696,  25, -21, -54,  -1,  -3, -10,  33, -24,   0,   0,  79,   7, 1191, 1.817, 1012, -26,  72,  23, -1465,  80, 4452, 115, 516, 547, 485, ANGLE_MODE, GPS_FIX_HOME|GPS_FIX|SMALL_ANGLE, IDLE, 1, 1
1768, 57656752,  24, -22, -65,   0,  -4, -11,  10, -13,   0,   0,  79,   7, 1191, 1.817, 1012, -24,  73,  26, -1525, 112, 4568, 115, 567, 544, 399, ANGLE_MODE, GPS_FIX_HOME|GPS_FIX|SMALL_ANGLE, IDLE, 1, 1
1776, 57660819,  18, -18, -91,   1,  -5, -13, -15,  18,   0,   0,  79,   7, 1191, 1.817, 1002, -19,  69,  35, -1633,  81, 4667, 176, 614, 606, 213, ANGLE_MODE, GPS_FIX_HOME|GPS_FIX|SMALL_ANGLE, IDLE, 1, 1
1784, 57664876,  13, -10, -67,   1,  -6, -14, -23,  11,   0,   0,  78,   8, 1191, 1.817, 1002, -13,  61,  28, -1739, -57, 4705, 246, 591, 538, 233, ANGLE_MODE, GPS_FIX_HOME|GPS_FIX|SMALL_ANGLE, IDLE, 1, 1
1792, 57668944,   1,   0, -67,   2,  -6, -15, -34,  31,   0,   0,  78,   8, 1191, 1.817, 1002,  -2,  51,  28, -1816, -158, 4741, 347, 578, 554, 129, ANGLE_MODE, GPS_FIX_HOME|GPS_FIX|SMALL_ANGLE, IDLE, 1, 1
1800, 57673014,  -4,   4, -85,   1,  -6, -16, -23,  27,   0,   0,  79,   8, 1193, 1.817, 1002,   4,  46,  34, -2001, -219, 4720, 306, 608, 611, 115, ANGLE_MODE, GPS_FIX_HOME|GPS_FIX|SMALL_ANGLE, IDLE, 1, 1
1808, 57677081,  -7,   9, -83,   1,  -5, -17, -13,  17,   0,   0,  79,   8, 1193, 1.817, 1002,   8,  41,  33, -2274, -231, 4688, 287, 603, 609, 125, ANGLE_MODE, GPS_FIX_HOME|GPS_FIX|SMALL_ANGLE, IDLE, 1, 1
1816, 57681153, -12,  17, -75,   1,  -5, -18, -13,  21,   0,   0,  79,   8, 1193, 1.817, 1002,  13,  33,  30, -2420, -177, 4637, 337, 575, 610, 115, ANGLE_MODE, GPS_FIX_HOME|GPS_FIX|SMALL_ANGLE, IDLE, 1, 1
1824, 57685213, -14,  12, -54,   0,  -4, -19, -12,   0,   0,   0,  79,   8, 1193, 1.817, 1002,  15,  39,  23, -2347, -101, 4645, 326, 592, 513, 193, ANGLE_MODE, GPS_FIX_HOME|GPS_FIX|SMALL_ANGLE, IDLE, 1, 1
1832, 57689262, -16,  10, -59,   0,  -3, -19,  -8, -12,   0,   0,  79,   8, 1193, 1.817, 1002,  17,  40,  25, -2370,  11, 4638, 285, 627, 503, 210, ANGLE_MODE, GPS_FIX_HOME|GPS_FIX|SMALL_ANGLE, IDLE, 1, 1
1840, 57693306,  -9,  12, -48,   0,  -3, -20,  15,   1,   0,   0,  79,   8, 1194, 1.817, 1002,  11,  39,  21, -2305,  30, 4761, 280, 516, 579, 257, ANGLE_MODE, GPS_FIX_HOME|GPS_FIX|SMALL_ANGLE, IDLE, 1, 1
1848, 57697393,  -7,   9, -34,  -1,  -2, -21,  16,  -9,   0,   0,  80,  10, 1194, 1.826, 1002,   8,  42,  16, -2177, -51, 4758, 277, 510, 528, 318, ANGLE_MODE, GPS_FIX_HOME|GPS_FIX|SMALL_ANGLE, IDLE, 1, 1
1856, 57701444,  -5,  15, -41,  -1,  -2, -22,   3,  17,   0,   0,  81,  10, 1194, 1.826, 1002,   6,  36,  20, -2024, -36, 4809, 349, 481, 589, 214, ANGLE_MODE, GPS_FIX_HOME|GPS_FIX|SMALL_ANGLE, IDLE, 1, 1
1864, 57705490, -10,  18, -53,  -2,  -1, -22,  -7,   7,   0,   0,  81,  10, 1203, 1.826, 1002,  11,  33,  24, -1807, -10, 4771, 365, 569, 587, 184, ANGLE_MODE, GPS_FIX_HOME|GPS_FIX|SMALL_ANGLE, IDLE, 1, 1
1872, 57709542, -11,  19, -49,  -2,   0, -23,  -9,   7,   0,   0,  81,  10, 1203, 1.826, 1002,  12,  33,  23, -1518,  46, 4710, 378, 569, 577, 182, ANGLE_MODE, GPS_FIX_HOME|GPS_FIX|SMALL_ANGLE, IDLE, 1, 1
1880, 57713583, -10,  21, -51,  -3,   0, -24,   4,   7,   0,   0,  81,  10, 1203, 1.826, 1002,  11,  31,  23, -1334,  87, 4671, 353, 538, 617, 198, ANGLE_MODE, GPS_FIX_HOME|GPS_FIX|SMALL_ANGLE, IDLE, 1, 1
1888, 57717653, -10,  17, -43,  -3,   1, -25,   0, -10,   0,   0,  81,  10, 1203, 1.826, 1002,  10,  34,  20, -1076, 119, 4572, 338, 574, 552, 242, ANGLE_MODE, GPS_FIX_HOME|GPS_FIX|SMALL_ANGLE, IDLE, 1, 1
1896, 57721959,  -7,  20, -41,  -4,   2, -25,   7,   8,   0,   0,  81,  10, 1203, 1.826, 1002,   8,  31,  20, -914, 150, 4539, 364, 505, 617, 221, ANGLE_MODE, GPS_FIX_HOME|GPS_FIX|SMALL_ANGLE, IDLE, 1, 1
1904, 57726017,  -3,  18, -34,  -4,   3, -26,  13,   2,   0,   0,  81,  12, 1204, 1.826, 1002,   3,  33,  18, -750, 181, 4515, 346, 488, 611, 269, ANGLE_MODE, GPS_FIX_HOME|GPS_FIX|SMALL_ANGLE, IDLE, 1, 1
1912, 57730069,  -4,  13, -28,  -4,   4, -26,   4, -20,   0,   0,  81,  12, 1204, 1.826, 1002,   4,  38,  16, -593, 156, 4462, 322, 552, 525, 315, ANGLE_MODE, GPS_FIX_HOME|GPS_FIX|SMALL_ANGLE, IDLE, 1, 1
1920, 57734169,  -4,  15, -20,  -4,   4, -26,  -4,  -1,   0,   0,  81,  12, 1204, 1.826, 1002,   5,  37,  14, -466, 161, 4432, 399, 515, 533, 267, ANGLE_MODE, GPS_FIX_HOME|GPS_FIX|SMALL_ANGLE, IDLE, 1, 1
1928, 57738230,  -5,  14, -30,  -5,   5, -27,  -6,   0,   0,   0,  81,  12, 1213, 1.826, 1002,   6,  38,  17, -394, 217, 4429, 404, 558, 567, 258, ANGLE_MODE, GPS_FIX_HOME|GPS_FIX|SMALL_ANGLE, IDLE, 1, 1
1936, 57742305,  -4,   8, -17,  -5,   6, -27,   6, -11,   0,   0,  81,  12, 1213, 1.826, 1002,   5,  44,  13, -292, 179, 4400, 371, 538, 535, 343, ANGLE_MODE, GPS_FIX_HOME|GPS_FIX|SMALL_ANGLE, IDLE, 1, 1
1944, 57746357,  -6,   9, -24,  -5,   6, -27,  -8,  -5,   0,   0,  81,  12, 1213, 1.826, 1002,   7,  43,  15, -279, 168, 4393, 404, 572, 533, 279, ANGLE_MODE, GPS_FIX_HOME|GPS_FIX|SMALL_ANGLE, IDLE, 1, 1
1952, 57750418,  -8,   6, -22,  -6,   7, -28,  -6,  -7,   0,   0,  81,  12, 1213, 1.826, 1002,   8,  46,  14, -216, 200, 4378, 402, 577, 519, 290, ANGLE_MODE, GPS_FIX_HOME|GPS_FIX|SMALL_ANGLE, IDLE, 1, 1
1960, 57754470,  -6,   6, -11,  -6,   7, -28,   5,  -1,   0,   0,  81,  13, 1213, 1.826, 1002,   6,  45,  11, -173, 198, 4370, 407, 517, 538, 326, ANGLE_MODE, GPS_FIX_HOME|GPS_FIX|SMALL_ANGLE, IDLE, 1, 1
1968, 57758529,  -7,   5, -14,  -6,   7, -28,   0,  -3,   0,   0,  81,  13, 1221, 1.826, 1002,   7,  46,  12, -265, 225, 4357, 427, 558, 540, 326, ANGLE_MODE, GPS_FIX_HOME|GPS_FIX|SMALL_ANGLE, IDLE, 1, 1
1976, 57762593,  -6,   4, -27,  -7,   8, -29,   3,  -5,   0,   0,  80,  13, 1221, 1.826, 1002,   6,  47,  17, -198, 183, 4327, 383, 583, 571, 315, ANGLE_MODE, GPS_FIX_HOME|GPS_FIX|SMALL_ANGLE, IDLE, 1, 1
1984, 57766690,  -2,   7, -22,  -7,   8, -29,   3,   6,   0,   0,  80,  13, 1221, 1.826, 1002,   2,  44,  15, -225, 199, 4349, 418, 535, 599, 301, ANGLE_MODE, GPS_FIX_HOME|GPS_FIX|SMALL_ANGLE, IDLE, 1, 1
1992, 57770760,  -1,   7, -11,  -7,   8, -29,   9,   9,   0,   0,  80,  13, 1221, 1.826, 1002,   2,  43,  11, -267, 199, 4360, 433, 494, 598, 327, ANGLE_MODE, GPS_FIX_HOME|GPS_FIX|SMALL_ANGLE, IDLE, 1, 1
2000, 57774827,   1,   8, -28,  -7,   9, -30,   6,  -8,   0,   0,  80,  13, 1223, 1.817, 1002,  -1,  42,  17, -421, -119, 4514, 367, 565, 605, 331, ANGLE_MODE, GPS_FIX_HOME|GPS_FIX|SMALL_ANGLE, IDLE, 1, 1
2008, 57778898,   0,   7,  -7,  -7,   9, -30,   1,   0,   0,   0,  80,  14, 1230, 1.817, 1002,  -1,  43,  10, -460, -322, 4634, 449, 532, 583, 361, ANGLE_MODE, GPS_FIX_HOME|GPS_FIX|SMALL_ANGLE, IDLE, 1, 1
2016, 57783009,   2,   9, -14,  -7,  10, -30,   0,  11,   0,   0,  80,  14, 1230, 1.817, 1002,  -3,  41,  12, -584, -462, 4776, 462, 515, 627, 321, ANGLE_MODE, GPS_FIX_HOME|GPS_FIX|SMALL_ANGLE, IDLE, 1, 1
2024, 57787087,   2,  10, -25,  -7,  10, -31,  -3,  -2,   0,   0,  79,  14, 1230, 1.817, 1002,  -2,  40,  16, -742, -472, 4859, 421, 575, 615, 314, ANGLE_MODE, GPS_FIX_HOME|GPS_FIX|SMALL_ANGLE, IDLE, 1, 1
2032, 57791147,   1,   4, -22,  -7,  10, -31,   4,  -9,   0,   0,  79,  16, 1230, 1.817, 1002,  -2,  46,  15, -745, -486, 4869, 386, 581, 598, 361, ANGLE_MODE, GPS_FIX_HOME|GPS_FIX|SMALL_ANGLE, IDLE, 1, 1
2040, 57795224,   2,   3,  -1,  -7,  11, -31,  -5,  -6,   0,   0,  79,  16, 1230, 1.808, 1002,  -2,  47,   9, -770, -455, 4905, 450, 553, 544, 378, ANGLE_MODE, GPS_FIX_HOME|GPS_FIX|SMALL_ANGLE, IDLE, 1, 1
2048, 57799295,   2,   1,   0,  -6,  11, -31,   6, -15,   0,   0,  76,  16, 1230, 1.808, 1002,  -2,  48,   9, -784, -331, 4937, 408, 546, 546, 426, ANGLE_MODE, GPS_FIX_HOME|GPS_FIX|SMALL_ANGLE, IDLE, 1, 1
2056, 57803357,   2,  -3, -10,  -6,  11, -32,   1, -18,   0,   0,  72,  16, 1230, 1.808, 1002,  -2,  50,  12, -722, -298, 4941, 381, 597, 536, 412, ANGLE_MODE, GPS_FIX_HOME|GPS_FIX|SMALL_ANGLE, IDLE, 1, 1
2064, 57807688,   0,   0, -36,  -6,  10, -32,  -8,   5,   0,   0,  71,  16, 1231, 1.808, 1002,  -1,  46,  21, -713, -174, 4940, 409, 619, 623, 284, ANGLE_MODE, GPS_FIX_HOME|GPS_FIX|SMALL_ANGLE, IDLE, 1, 1
2072, 57811785,   0,   1, -17,  -6,  11, -32,   3,  15,   0,   0,  71,  16, 1233, 1.808, 1002,   0,  44,  15, -639, -125, 4969, 448, 539, 637, 325, ANGLE_MODE, GPS_FIX_HOME|GPS_FIX|SMALL_ANGLE, IDLE, 1, 1
2080, 57815841,   4,   1, -16,  -6,  11, -32,   4,   1,   0,   0,  71,  16, 1233, 1.808, 1002,  -5,  43,  14, -563, -103, 4971, 411, 552, 621, 366, ANGLE_MODE, GPS_FIX_HOME|GPS_FIX|SMALL_ANGLE, IDLE, 1, 1
2088, 57819908,   2,   4,  -7,  -6,  11, -33,   0,   5,   0,   0,  70,  16, 1233, 1.808, 1002,  -3,  41,  11, -611,  41, 4903, 456, 534, 605, 355, ANGLE_MODE, GPS_FIX_HOME|GPS_FIX|SMALL_ANGLE, IDLE, 1, 1
2096, 57823961,   4,   2, -11,  -6,  11, -33,   6,  -3,   0,   0,  70,  16, 1233, 1.808, 1002,  -4,  42,  13, -502, 145, 4819, 411, 547, 606, 385, ANGLE_MODE, GPS_FIX_HOME|GPS_FIX|SMALL_ANGLE, IDLE, 1, 1
2104, 57828021,   4,   0, -12,  -5,  11, -33,   0,  -9,   0,   0,  67,  16, 1233, 1.808, 1002,  -4,  44,  13, -457, 136, 4746, 400, 578, 580, 392, ANGLE_MODE, GPS_FIX_HOME|GPS_FIX|SMALL_ANGLE, IDLE, 1, 1
2112, 57832088,   0,  -4, -13,  -5,  11, -34, -12,  -6,   0,   0,  65,  16, 1234, 1.808, 1002,   0,  46,  13, -476,  78, 4760, 432, 617, 551, 358, ANGLE_MODE, GPS_FIX_HOME|GPS_FIX|SMALL_ANGLE, IDLE, 1, 1
2120, 57836154,   0, -12, -16,  -5,  10, -34,  -4, -28,   0,   0,  63,  16, 1234, 1.799, 1002,  -1,  53,  14, -449, 120, 4703, 347, 668, 512, 430, ANGLE_MODE, GPS_FIX_HOME|GPS_FIX|SMALL_ANGLE, IDLE, 1, 1
2128, 57840223,   3, -15,  -1,  -5,  10, -34,   5,  -9,   0,   0,  63,  17, 1242, 1.799, 1002,  -3,  55,  10, -468, 256, 4672, 401, 599, 554, 470, ANGLE_MODE, GPS_FIX_HOME|GPS_FIX|SMALL_ANGLE, IDLE, 1, 1
2136, 57844284,   6, -12,   7,  -5,   9, -33,  13,   9,   0,   0,  62,  17, 1242, 1.799, 1002,  -7,  52,   7, -479, 224, 4669, 437, 514, 602, 469, ANGLE_MODE, GPS_FIX_HOME|GPS_FIX|SMALL_ANGLE, IDLE, 1, 1
2144, 57848353,  10, -14,  -5,  -5,   8, -34,   5, -12,   0,   0,  61,  17, 1242, 1.799, 1002, -11,  54,  11, -421, 238, 4663, 370, 597, 570, 485, ANGLE_MODE, GPS_FIX_HOME|GPS_FIX|SMALL_ANGLE, IDLE, 1, 1
2152, 57852421,   9, -10, -10,  -4,   8, -34,   2,  14,   0,   0,  61,  25, 1250, 1.799, 1002, -10,  49,  17, -376, 320, 4701, 442, 570, 653, 422, ANGLE_MODE, GPS_FIX_HOME|GPS_FIX|SMALL_ANGLE, IDLE, 1, 1
2160, 57856484,   8, -17, -51,  -4,   7, -34,   0, -15,   0,   0,  61,  25, 1250, 1.790, 1002,  -9,  56,  31, -346, 375, 4667, 295, 736, 650, 406, ANGLE_MODE, GPS_FIX_HOME|GPS_FIX|SMALL_ANGLE, IDLE, 1, 1
2168, 57860546,   7, -24, -28,  -4,   6, -35,  -9, -27,   0,   0,  61,  26, 1250, 1.790, 1002,  -8,  63,  24, -341, 343, 4617, 315, 754, 545, 474, ANGLE_MODE, GPS_FIX_HOME|GPS_FIX|SMALL_ANGLE, IDLE, 1, 1
2176, 57864620,   3, -22, -28,  -3,   5, -35,  -8,  -1,   0,   0,  61,  26, 1260, 1.790, 1002,  -4,  62,  24, -418, 153, 4631, 394, 726, 613, 436, ANGLE_MODE, GPS_FIX_HOME|GPS_FIX|SMALL_ANGLE, IDLE, 1, 1
2184, 57868692,   6, -29, -59,  -3,   3, -35,   3, -11,   0,   0,  61,  26, 1260, 1.790, 1002,  -7,  68,  35, -430, -76, 4603, 268, 793, 670, 439, ANGLE_MODE, GPS_FIX_HOME|GPS_FIX|SMALL_ANGLE, IDLE, 1, 1
2192, 57872751,   5, -27, -65,  -3,   2, -36,   1,  -2,   0,   0,  61,  27, 1260, 1.790, 1002,  -6,  67,  37, -457, -104, 4656, 278, 795, 696, 400, ANGLE_MODE, GPS_FIX_HOME|GPS_FIX|SMALL_ANGLE, IDLE, 1, 1
2200, 57876820,   7, -24, -25,  -3,   1, -37,   4,   9,   0,   0,  61,  27, 1260, 1.772, 1002,  -8,  63,  23, -527, -183, 4744, 374, 677, 657, 462, ANGLE_MODE, GPS_FIX_HOME|GPS_FIX|SMALL_ANGLE, IDLE, 1, 1
2208, 57880887,  10, -27, -45,  -2,   0, -37,   7,  -8,   0,   0,  56,  27, 1268, 1.772, 1002, -12,  64,  30, -568, -199, 4838, 291, 765, 682, 496, ANGLE_MODE, GPS_FIX_HOME|GPS_FIX|SMALL_ANGLE, IDLE, 1, 1
2216, 57884940,  13, -26, -53,  -2,  -1, -38,  16,   5,   0,  -1,  53,  27, 1268, 1.772, 1002, -15,  61,  33, -591, -224, 4990, 273, 732, 753, 477, ANGLE_MODE, GPS_FIX_HOME|GPS_FIX|SMALL_ANGLE, IDLE, 1, 1
2224, 57889011,  12, -22, -54,  -1,  -2, -38,  -2,  13,   0,  -2,  52,  27, 1268, 1.772, 1002, -14,  56,  34, -620, -355, 5168, 330, 751, 740, 413, ANGLE_MODE, GPS_FIX_HOME|GPS_FIX|SMALL_ANGLE, IDLE, 1, 1
2232, 57893330,   8, -22, -35,   0,  -3, -39, -10,   2,   0,  -2,  52,  27, 1268, 1.772, 1002, -10,  56,  27, -588, -386, 5187, 366, 763, 655, 450, ANGLE_MODE, GPS_FIX_HOME|GPS_FIX|SMALL_ANGLE, IDLE, 1, 1
2240, 57897399,  11, -13, -19,   0,  -4, -39,   4,  24,   0,  -2,  52,  27, 1268, 1.781, 1002, -13,  46,  21, -518, -491, 5187, 424, 632, 720, 458, ANGLE_MODE, GPS_FIX_HOME|GPS_FIX|SMALL_ANGLE, IDLE, 1, 1
2248, 57901492,  14, -19, -32,   0,  -5, -40,  13,  -6,   0,  -2,  47,  29, 1277, 1.781, 1002, -16,  50,  27, -445, -509, 5258, 312, 727, 717, 551, ANGLE_MODE, GPS_FIX_HOME|GPS_FIX|SMALL_ANGLE, IDLE, 1, 1
2256, 57905554,  14, -18, -19,   1,  -6, -41,   2,   3,   0,  -2,  43,  29, 1277, 1.781, 1002, -17,  46,  22, -480, -497, 5289, 377, 705, 691, 534, ANGLE_MODE, GPS_FIX_HOME|GPS_FIX|SMALL_ANGLE, IDLE, 1, 1
2264, 57909629,  13, -14,  -9,   1,  -7, -41,  -7,   5,   0,  -2,  43,  29, 1277, 1.781, 1002, -15,  43,  19, -424, -442, 5386, 426, 699, 661, 521, ANGLE_MODE, GPS_FIX_HOME|GPS_FIX|SMALL_ANGLE, IDLE, 1, 1
2272, 57913688,  16, -15,  14,   2,  -8, -41,   8,   5,   0,  -2,  42,  30, 1277, 1.781, 1002, -19,  43,  11, -379, -417, 5465, 433, 612, 650, 613, ANGLE_MODE, GPS_FIX_HOME|GPS_FIX|SMALL_ANGLE, IDLE, 1, 1
2280, 57917745,  17,  -8,  -3,   3,  -8, -42,   7,  11,   0,  -2,  41,  30, 1287, 1.799, 1002, -20,  35,  17, -174, -353, 5519, 419, 622, 713, 553, ANGLE_MODE, GPS_FIX_HOME|GPS_FIX|SMALL_ANGLE, IDLE, 1, 1
2288, 57921799,  12,  -9, -16,   4,  -9, -42, -10,   5,   0,  -2,  37,  30, 1287, 1.799, 1002, -14,  34,  22,  28, -326, 5579, 441, 729, 699, 519, ANGLE_MODE, GPS_FIX_HOME|GPS_FIX|SMALL_ANGLE, IDLE, 1, 1
2296, 57925844,   9,  -9, -10,   4,  -9, -42, -14,   2,   0,  -2,  35,  30, 1287, 1.799, 1002, -12,  32,  20, 178, -276, 5631, 459, 736, 671, 523, ANGLE_MODE, GPS_FIX_HOME|GPS_FIX|SMALL_ANGLE, IDLE, 1, 1
2304, 57929905,   5,  -7,  -5,   5,  -9, -43,  -9,   7,   0,  -2,  35,  30, 1287, 1.799, 1002,  -7,  30,  18, 242, -197, 5686, 479, 714, 674, 522, ANGLE_MODE, GPS_FIX_HOME|GPS_FIX|SMALL_ANGLE, IDLE, 1, 1
2312, 57933977,   3,  -4, -11,   5, -10, -43,  -8,  10,   0,  -3,  35,  30, 1287, 1.808, 1002,  -6,  26,  20, 271, -147, 5731, 479, 713, 700, 497, ANGLE_MODE, GPS_FIX_HOME|GPS_FIX|SMALL_ANGLE, IDLE, 1, 1
2320, 57938030,   2,  -4,   0,   5, -10, -43,  -2,   0,   0,  -3,  34,  32, 1287, 1.808, 1002,  -5,  27,  16, 279, -103, 5800, 469, 703, 665, 552, ANGLE_MODE, GPS_FIX_HOME|GPS_FIX|SMALL_ANGLE, IDLE, 1, 1
2328, 57942089,   5,  -4,   1,   5, -10, -43,   3,   1,   0,  -3,  29,  32, 1287, 1.808, 1002,  -7,  24,  17, 253, -63, 5877, 455, 681, 681, 572, ANGLE_MODE, GPS_FIX_HOME|GPS_FIX|SMALL_ANGLE, IDLE, 1, 1
2336, 57946156,   5,  -5,  -3,   5, -11, -43,   0,  -1,   0,  -3,  26,  33, 1296, 1.808, 1002,  -7,  23,  19, 225, -16, 5966, 462, 723, 695, 582, ANGLE_MODE, GPS_FIX_HOME|GPS_FIX|SMALL_ANGLE, IDLE, 1, 1
2344, 57950272,   9,  -3,  -4,   6, -11, -43,  15,  10,   0,  -3,  26,  33, 1296, 1.808, 1002, -11,  20,  19, 172, -39, 6077, 450, 658, 765, 589, ANGLE_MODE, GPS_FIX_HOME|GPS_FIX|SMALL_ANGLE, IDLE, 1, 1
2352, 57954321,   7,   0,  -8,   6, -11, -43,  -5,  12,   0,  -3,  25,  33, 1296, 1.799, 1002,  -9,  15,  21, 145, -51, 6183, 496, 700, 741, 525, ANGLE_MODE, GPS_FIX_HOME|GPS_FIX|SMALL_ANGLE, IDLE, 1, 1
2360, 57958387,   2,   1,  -5,   7, -11, -43, -11,   6,   0,  -3,  25,  33, 1296, 1.799, 1002,  -4,  14,  20,  84, -38, 6285, 516, 725, 703, 518, ANGLE_MODE, GPS_FIX_HOME|GPS_FIX|SMALL_ANGLE, IDLE, 1, 1
2368, 57962450,   2,   3,   0,   7, -11, -43,  -4,   6,   0,  -3,  25,  33, 1296, 1.799, 1002,  -4,  12,  18,  72, -49, 6404, 514, 696, 712, 539, ANGLE_MODE, GPS_FIX_HOME|GPS_FIX|SMALL_ANGLE, IDLE, 1, 1
2376, 57966520,   0,   4,  12,   7, -10, -43,  -8,   3,   0,  -3,  24,  33, 1296, 1.799, 1002,  -2,  11,  13,  52, -45, 6514, 550, 685, 670, 557, ANGLE_MODE, GPS_FIX_HOME|GPS_FIX|SMALL_ANGLE, IDLE, 1, 1
2384, 57970598,   0,   5,  16,   7, -10, -43,   0,   2,   0,  -3,  24,  33, 1296, 1.799, 1002,  -1,  10,  12,   2, -44, 6618, 543, 661, 679, 579, ANGLE_MODE, GPS_FIX_HOME|GPS_FIX|SMALL_ANGLE, IDLE, 1, 1
2392, 57974914,   0,   4,  22,   7, -10, -42,   0,  -2,   0,  -3,  23,  42, 1305, 1.799, 992,  -2,  10,  15, -10, -62, 6704, 564, 678, 672, 622, ANGLE_MODE, GPS_FIX_HOME|GPS_FIX|SMALL_ANGLE, IDLE, 1, 1
2400, 57979006,   0,   4,   7,   7, -10, -42,  -1,   0,   0,  -3,  23,  42, 1307, 1.799, 992,  -2,  10,  20, -28, -59, 6759, 542, 709, 708, 593, ANGLE_MODE, GPS_FIX_HOME|GPS_FIX|SMALL_ANGLE, IDLE, 1, 1
2408, 57983074,   0,   6,   1,   7,  -9, -42,   0,   5,   0,  -3,  23,  42, 1307, 1.799, 992,  -1,   8,  22, -53, -50, 6836, 547, 704, 735, 565, ANGLE_MODE, GPS_FIX_HOME|GPS_FIX|SMALL_ANGLE, IDLE, 1, 1
2416, 57987178,  -1,   7,  18,   7,  -9, -42,   0,   0,   0,  -3,  22,  42, 1307, 1.799, 1002,   0,   6,  16, -56, -72, 6908, 577, 679, 694, 601, ANGLE_MODE, GPS_FIX_HOME|GPS_FIX|SMALL_ANGLE, IDLE, 1, 1
2424, 57991236,   0,   7,  28,   7,  -9, -42,  -1,   0,   0,  -3,  22,  42, 1316, 1.799, 1002,  -2,   7,  13, -81, -87, 6977, 597, 656, 674, 624, ANGLE_MODE, GPS_FIX_HOME|GPS_FIX|SMALL_ANGLE, IDLE, 1, 1
2432, 57995294,   2,   8,  24,   7,  -8, -41,   7,   3,   0,  -3,  22,  42, 1316, 1.790, 1002,  -5,   5,  14, -128, -105, 7035, 592, 649, 733, 649, ANGLE_MODE, GPS_FIX_HOME|GPS_FIX|SMALL_ANGLE, IDLE, 1, 1
2440, 57999365,   3,   8,   9,   7,  -8, -41,   7,  -2,   0,  -3,  22,  42, 1316, 1.790, 1002,  -6,   6,  19, -202, -187, 7086, 550, 690, 749, 636, ANGLE_MODE, GPS_FIX_HOME|GPS_FIX|SMALL_ANGLE, IDLE, 1, 1
2448, 58003429,   0,   8,   7,   7,  -8, -41,  -7,   3,   0,  -3,  22,  42, 1316, 1.790, 1002,  -2,   6,  20, -477, -197, 7123, 593, 717, 732, 583, ANGLE_MODE, GPS_FIX_HOME|GPS_FIX|SMALL_ANGLE, IDLE, 1, 1
2456, 58007486,  -1,   6,  10,   7,  -7, -40, -10,  -4,   0,  -3,  22,  42, 1326, 1.790, 1002,  -1,   7,  19, -632, -209, 7158, 612, 758, 717, 619, ANGLE_MODE, GPS_FIX_HOME|GPS_FIX|SMALL_ANGLE, IDLE, 1, 1
2464, 58011577,  -1,   4,  16,   7,  -7, -40,   0,  -3,   0,  -3,  22,  42, 1326, 1.790, 1002,  -1,   9,  17, -726, -242, 7205, 602, 727, 723, 654, ANGLE_MODE, GPS_FIX_HOME|GPS_FIX|SMALL_ANGLE, IDLE, 1, 1
2472, 58015645,  -2,   2,  19,   7,  -7, -39,  -3,  -5,   0,  -3,  22,  42, 1326, 1.799, 1002,   1,  11,  16, -791, -262, 7253, 613, 736, 698, 659, ANGLE_MODE, GPS_FIX_HOME|GPS_FIX|SMALL_ANGLE, IDLE, 1, 1
2480, 58019694,  -4,   2,   5,   6,  -7, -39,  -7,  -3,   0,  -3,  21,  42, 1326, 1.799, 1002,   3,  11,  21, -820, -237, 7319, 599, 772, 718, 617, ANGLE_MODE, GPS_FIX_HOME|GPS_FIX|SMALL_ANGLE, IDLE, 1, 1
2488, 58023740,  -4,   0,  17,   6,  -7, -39,  -3,  -1,   0,  -3,  20,  42, 1326, 1.799, 1002,   3,  12,  17, -814, -175, 7381, 620, 740, 699, 648, ANGLE_MODE, GPS_FIX_HOME|GPS_FIX|SMALL_ANGLE, IDLE, 1, 1
2496, 58027800,  -4,   0,  18,   6,  -7, -38,   1,  -2,   0,  -3,  19,  42, 1336, 1.799, 1002,   3,  12,  16, -790, -138, 7449, 634, 749, 725, 680, ANGLE_MODE, GPS_FIX_HOME|GPS_FIX|SMALL_ANGLE, IDLE, 1, 1
2504, 58031980,  -2,   0,  11,   6,  -6, -38,   5,   1,   0,  -3,  19,  43, 1336, 1.799, 1002,   0,  12,  19, -732, -135, 7504, 614, 742, 760, 671, ANGLE_MODE, GPS_FIX_HOME|GPS_FIX|SMALL_ANGLE, IDLE, 1, 1
2512, 58036047,   0,   1,  25,   6,  -6, -38,  10,   0,   0,  -3,  19,  43, 1336, 1.781, 1002,  -2,  11,  15, -667, -157, 7572, 626, 699, 747, 715, ANGLE_MODE, GPS_FIX_HOME|GPS_FIX|SMALL_ANGLE, IDLE, 1, 1
2520, 58040117,   0,   2,  28,   6,  -6, -37,   4,   3,   0,  -3,  19,  43, 1336, 1.781, 1002,  -3,   9,  13, -606, -174, 7650, 656, 692, 737, 702, ANGLE_MODE, GPS_FIX_HOME|GPS_FIX|SMALL_ANGLE, IDLE, 1, 1
2528, 58044183,   1,   2,  32,   6,  -6, -37,   1,   2,   0,  -3,  19,  43, 1336, 1.781, 1002,  -3,   9,  12, -544, -181, 7736, 665, 691, 723, 708, ANGLE_MODE, GPS_FIX_HOME|GPS_FIX|SMALL_ANGLE, IDLE, 1, 1
2536, 58048251,   2,   2,  35,   6,  -6, -36,   1,   0,   0,  -3,  19,  43, 1336, 1.781, 1002,  -4,   9,  11, -493, -155, 7828, 666, 687, 712, 723, ANGLE_MODE, GPS_FIX_HOME|GPS_FIX|SMALL_ANGLE, IDLE, 1, 1
2544, 58052320,   0,   2,  34,   6,  -6, -36,  -4,   0,   0,  -3,  18,  43, 1336, 1.781, 1002,  -2,  10,  11, -446, -157, 7927, 682, 703, 698, 704, ANGLE_MODE, GPS_FIX_HOME|GPS_FIX|SMALL_ANGLE, IDLE, 1, 1
2552, 58056408,   0,   2,  38,   6,  -6, -35,  -5,  -2,   0,  -3,  17,  43, 1336, 1.799, 1002,  -1,   9,  10, -395, -168, 8039, 690, 704, 679, 715, ANGLE_MODE, GPS_FIX_HOME|GPS_FIX|SMALL_ANGLE, IDLE, 1, 1
2560, 58060740,   0,   1,  44,   6,  -5, -35,   2,   0,   0,  -3,  16,  43, 1338, 1.799, 1002,  -2,   9,   8, -355, -167, 8120, 693, 669, 694, 747, ANGLE_MODE, GPS_FIX_HOME|GPS_FIX|SMALL_ANGLE, IDLE, 1, 1
2568, 58064785,   0,   1,  24,   6,  -5, -34,   4,  -2,   0,  -3,  16,  43, 1338, 1.799, 1002,  -3,   9,  15, -304, -170, 8183, 641, 715, 730, 718, ANGLE_MODE, GPS_FIX_HOME|GPS_FIX|SMALL_ANGLE, IDLE, 1, 1
2576, 58068847,   0,   0,  20,   6,  -5, -34,  -3,  -2,   0,  -3,  16,  43, 1338, 1.799, 1002,  -2,   9,  16, -260, -181, 8240, 653, 740, 718, 693, ANGLE_MODE, GPS_FIX_HOME|GPS_FIX|SMALL_ANGLE, IDLE, 1, 1
