loopIteration, time (us), axisP[0], axisP[1], axisP[2], axisI[0], axisI[1], axisI[2], axisD[0], axisD[1], axisD[2], rcCommand[0], rcCommand[1], rcCommand[2], rcCommand[3], vbatLatest (V), rssi, gyroADC[0], gyroADC[1], gyroADC[2], accSmooth[0], accSmooth[1], accSmooth[2], motor[0], motor[1], motor[2], motor[3], flightModeFlags (flags), stateFlags (flags), failsafePhase (flags), rxSignalReceived, rxFlightChannelsValid
  0, 158812260,   0,   0,   0,   0,   0,   0,  -4,   0,   0,   0,   0,   0, 1000, 1.843, 1023,   0,   0,   0,  70, -13, 4173, 124, 126, 115, 115, 0, 0, IDLE, 0, 0
  8, 158816336,   0,   0,  -3,   0,   0,   0,  -2,   0,   0,   0,   0,   0, 1000, 1.843, 1023,   1,   0,   1,  66,  -3, 4169, 115, 131, 115, 115, ANGLE_MODE, GPS_FIX_HOME|GPS_FIX|SMALL_ANGLE, IDLE, 1, 1
 16, 158820395,   0,   0,  -2,   0,   0,   0,   3,   0,   0,   0,   0,   0, 1000, 1.843, 1023,  -1,   0,   1,  64, -11, 4172, 115, 115, 126, 120, ANGLE_MODE, GPS_FIX_HOME|GPS_FIX|SMALL_ANGLE, IDLE, 1, 1
 24, 158824479,   1,   0,  -1,   0,   0,   0,   4,   0,   0,   0,   0,   0, 1000, 1.843, 1023,  -2,   0,   1,  68, -23, 4176, 115, 115, 131, 125, ANGLE_MODE, GPS_FIX_HOME|GPS_FIX|SMALL_ANGLE, IDLE, 1, 1
 32, 158828534,   1,   0,  -2,   0,   0,   0,   0,   0,   0,   0,   0,   0, 1000, 1.852, 1023,  -2,   0,   1,  75, -28, 4178, 115, 116, 124, 118, ANGLE_MODE, GPS_FIX_HOME|GPS_FIX|SMALL_ANGLE, IDLE, 1, 1
 40, 158832591,   0,   0,   1,   0,   0,   0,  -2,   0,   0,   0,   0,   0, 1000, 1.852, 1023,  -1,   0,  -1,  73, -29, 4180, 121, 115, 115, 117, ANGLE_MODE, GPS_FIX_HOME|GPS_FIX|SMALL_ANGLE, IDLE, 1, 1
 48, 158836680,   0,   0,   2,   0,   0,   0,  -3,   0,   0,   0,   0,   0, 1000, 1.852, 1023,   0,   1,  -1,  79, -20, 4175, 128, 120, 115, 115, ANGLE_MODE, GPS_FIX_HOME|GPS_FIX|SMALL_ANGLE, IDLE, 1, 1
 56, 158840748,   0,   0,   0,   0,   0,   0,  -3,   0,   0,   0,   0,   0, 1000, 1.852, 1023,   1,   0,   0,  81, -13, 4177, 121, 126, 115, 115, ANGLE_MODE, GPS_FIX_HOME|GPS_FIX|SMALL_ANGLE, IDLE, 1, 1
 64, 158844803,   0,   0,   0,   0,   0,   0,   2,   0,   0,   0,   0,   0, 1000, 1.852, 1023,   0,   0,   0,  83, -17, 4177, 115, 115, 122, 121, ANGLE_MODE, GPS_FIX_HOME|GPS_FIX|SMALL_ANGLE, IDLE, 1, 1
 72, 158848902,   1,   0,   0,   0,   0,   0,   4,   0,   0,   0,   0,   0, 1000, 1.843, 1023,  -1,   0,   0,  86, -27, 4179, 115, 115, 129, 124, ANGLE_MODE, GPS_FIX_HOME|GPS_FIX|SMALL_ANGLE, IDLE, 1, 1
 80, 158852976,   1,   0,   0,   0,   0,   0,   0,   0,   0,   0,   0,   0, 1000, 1.843, 1023,  -1,   0,   0,  89, -35, 4184, 115, 115, 122, 118, ANGLE_MODE, GPS_FIX_HOME|GPS_FIX|SMALL_ANGLE, IDLE, 1, 1
 88, 158857045,   0,   0,   1,   0,   0,   0,  -1,   0,   0,   0,   0,   0, 1000, 1.843, 1023,   0,   0,  -1,  87, -34, 4181, 121, 116, 115, 118, ANGLE_MODE, GPS_FIX_HOME|GPS_FIX|SMALL_ANGLE, IDLE, 1, 1
 96, 158861361,  -1,   0,   1,   0,   0,   0,  -5,   0,   0,   0,   0,   0, 1000, 1.843, 1023,   1,   0,  -1,  87, -25, 4182, 131, 126, 115, 115, ANGLE_MODE, GPS_FIX_HOME|GPS_FIX|SMALL_ANGLE, IDLE, 1, 1
104, 158865444,   0,   0,  -2,   0,   0,   0,   0,   1,   0,   0,   0,   0, 1000, 1.843, 1023,   0,   0,   1,  91, -19, 4183, 115, 118, 121, 115, ANGLE_MODE, GPS_FIX_HOME|GPS_FIX|SMALL_ANGLE, IDLE, 1, 1
256, 158942661,   0,   0,  -3,   0,   0,   0,   0,  -1,   0,   0,   0,   0, 1000, 1.852, 1023,   0,   1,   1,  81, -25, 4187, 116, 137, 131, 128, ANGLE_MODE, GPS_FIX_HOME|GPS_FIX|SMALL_ANGLE, IDLE, 1, 1
264, 158946708,   2,   0,  -1,   0,   0,   0,   7,   0,   0,   0,   0,   0, 1000, 1.852, 1023,  -2,   0,   0,  87, -28, 4190, 116, 122, 161, 157, ANGLE_MODE, GPS_FIX_HOME|GPS_FIX|SMALL_ANGLE, IDLE, 1, 1
272, 158951058,   0,   0,   1,   0,   0,   0,  -3,   0,   0,   0,   0,   0, 1000, 1.843, 1023,   0,   0,  -1,  87, -39, 4193, 138, 130, 117, 123, ANGLE_MODE, GPS_FIX_HOME|GPS_FIX|SMALL_ANGLE, IDLE, 1, 1
280, 158955137,   0,   0,   1,   0,   0,   0,  -4,   0,   0,   0,   0,   0, 1000, 1.843, 1023,   0,   0,  -1,  90, -22, 4188, 145, 134, 118, 123, ANGLE_MODE, GPS_FIX_HOME|GPS_FIX|SMALL_ANGLE, IDLE, 1, 1
288, 158959220,   0,   0,   2,   0,   0,   0,   1,   0,   0,   0,   0,   0, 1000, 1.843, 1023,   0,   0,  -1,  95,  -6, 4184, 129, 116, 124, 127, ANGLE_MODE, GPS_FIX_HOME|GPS_FIX|SMALL_ANGLE, IDLE, 1, 1
296, 158963294,   0,   0,  -2,   0,   0,   0,  -2,   0,   0,   0,   0,   0, 1000, 1.843, 1023,   1,   0,   1,  88, -13, 4183, 129, 140, 124, 118, ANGLE_MODE, GPS_FIX_HOME|GPS_FIX|SMALL_ANGLE, IDLE, 1, 1
304, 158967359,   2,   0,  -2,   0,   0,   0,   6,  -2,   0,   0,   0,   0, 1000, 1.843, 1023,  -2,   0,   1,  89, -17, 4185, 116, 132, 157, 159, ANGLE_MODE, GPS_FIX_HOME|GPS_FIX|SMALL_ANGLE, IDLE, 1, 1
312, 158971423,   1,   0,   0,   0,   0,   0,   2,   0,   0,   0,   0,   0, 1000, 1.852, 1023,  -1,   0,   0,  97, -23, 4187, 120, 116, 130, 131, ANGLE_MODE, GPS_FIX_HOME|GPS_FIX|SMALL_ANGLE, IDLE, 1, 1
320, 158975490,   0,   0,   0,   0,   0,   0,  -7,   0,   0,   0,   0,   0, 1000, 1.852, 1023,   1,   0,   0,  93, -42, 4186, 151, 148, 117, 117, ANGLE_MODE, GPS_FIX_HOME|GPS_FIX|SMALL_ANGLE, IDLE, 1, 1
328, 158979555,   0,   0,   0,   0,   0,   0,   1,   1,   0,   0,   0,   0, 1000, 1.852, 1023,   0,  -1,   0,  87, -48, 4186, 121, 117, 128, 123, ANGLE_MODE, GPS_FIX_HOME|GPS_FIX|SMALL_ANGLE, IDLE, 1, 1
336, 158983623,   0,   0,  -2,   0,   0,   0,  -2,   0,   0,   0,   0,   0, 1000, 1.852, 1023,   1,   0,   1,  77, -63, 4187, 127, 141, 125, 118, ANGLE_MODE, GPS_FIX_HOME|GPS_FIX|SMALL_ANGLE, IDLE, 1, 1
344, 158987687,   0,  -1,  -3,   0,   0,   0,   1,  -2,   0,   0,   0,   0, 1000, 1.852, 1023,  -1,   1,   1,  72, -75, 4191, 116, 139, 134, 135, ANGLE_MODE, GPS_FIX_HOME|GPS_FIX|SMALL_ANGLE, IDLE, 1, 1
352, 158991786,   1,   0,   0,   0,   0,   0,   6,   0,   0,   0,   0,   0, 1000, 1.852, 1023,  -2,   0,   0,  78, -80, 4196, 119, 117, 148, 152, ANGLE_MODE, GPS_FIX_HOME|GPS_FIX|SMALL_ANGLE, IDLE, 1, 1
360, 158995833,   0,   0,   1,   0,   0,   0,  -4,   1,   0,   0,   0,   0, 1000, 1.852, 1023,   0,   0,   0,  79, -78, 4197, 145, 133, 122, 118, ANGLE_MODE, GPS_FIX_HOME|GPS_FIX|SMALL_ANGLE, IDLE, 1, 1
368, 158999907,   0,   0,   1,   0,   0,   0,  -1,   0,   0,   0,   0,   0, 1000, 1.852, 1023,   0,   0,   0,  78, -64, 4195, 127, 118, 119, 119, ANGLE_MODE, GPS_FIX_HOME|GPS_FIX|SMALL_ANGLE, IDLE, 1, 1
376, 159003986,   0,   0,   0,   0,   0,   0,   0,   0,   0,   0,   0,   0, 1000, 1.852, 1023,   0,   0,   0,  83, -57, 4194, 120, 116, 118, 118, ANGLE_MODE, GPS_FIX_HOME|GPS_FIX|SMALL_ANGLE, IDLE, 1, 1
384, 159008046,   0,   0,  -2,   0,   0,   0,  -2,  -2,   0,   0,   0,   0, 1000, 1.852, 1023,   0,   0,   1,  81, -50, 4192, 122, 142, 123, 121, ANGLE_MODE, GPS_FIX_HOME|GPS_FIX|SMALL_ANGLE, IDLE, 1, 1
392, 159012111,   1,   0,   0,   0,   0,   0,   4,   0,   0,   0,   0,   0, 1000, 1.843, 1023,  -1,   0,   0,  83, -45, 4195, 117, 119, 139, 143, ANGLE_MODE, GPS_FIX_HOME|GPS_FIX|SMALL_ANGLE, IDLE, 1, 1
400, 159016200,   0,   0,   1,   0,   0,   0,   0,   1,   0,   0,   0,   0, 1000, 1.843, 1023,  -1,   0,  -1,  86, -45, 4198, 129, 116, 125, 126, ANGLE_MODE, GPS_FIX_HOME|GPS_FIX|SMALL_ANGLE, IDLE, 1, 1
408, 159020273,   0,   0,   0,   0,   0,   0,  -1,   0,   0,   0,   0,   0, 1000, 1.843, 1023,  -1,   0,   0,  87, -35, 4197, 124, 120, 118, 117, ANGLE_MODE, GPS_FIX_HOME|GPS_FIX|SMALL_ANGLE, IDLE, 1, 1
416, 159024334,   0,   0,  -1,   0,   0,   0,   0,   0,   0,   0,   0,   0, 1000, 1.843, 1023,   0,   0,   0,  93, -23, 4192, 119, 123, 122, 116, ANGLE_MODE, GPS_FIX_HOME|GPS_FIX|SMALL_ANGLE, IDLE, 1, 1
424, 159028396,   0,  -1,  -4,   0,   0,   0,  -2,  -2,   0,   0,   0,   0, 1000, 1.843, 1023,   1,   1,   2,  93, -23, 4189, 123, 155, 128, 124, ANGLE_MODE, GPS_FIX_HOME|GPS_FIX|SMALL_ANGLE, IDLE, 1, 1
432, 159032447,   0,   0,  -1,   0,   0,   0,   2,  -1,   0,   0,   0,   0, 1000, 1.852, 1023,  -1,   0,   0,  95, -22, 4193, 116, 128, 134, 137, ANGLE_MODE, GPS_FIX_HOME|GPS_FIX|SMALL_ANGLE, IDLE, 1, 1
440, 159036502,   1,   0,   3,   0,   0,   0,   3,   2,   0,   0,   0,   0, 1000, 1.852, 1023,  -1,   0,  -1, 102, -23, 4193, 136, 116, 141, 143, ANGLE_MODE, GPS_FIX_HOME|GPS_FIX|SMALL_ANGLE, IDLE, 1, 1
448, 159040562,   0,   0,   1,   0,   0,   0,  -1,   0,   0,   0,   0,   0, 1000, 1.852, 1023,  -1,   0,  -1,  97, -22, 4191, 130, 120, 118, 122, ANGLE_MODE, GPS_FIX_HOME|GPS_FIX|SMALL_ANGLE, IDLE, 1, 1
456, 159044620,   0,   0,  -1,   0,   0,   0,  -2,   0,   0,   0,   0,   0, 1000, 1.852, 1023,   0,   0,   1,  97, -15, 4189, 124, 133, 123, 117, ANGLE_MODE, GPS_FIX_HOME|GPS_FIX|SMALL_ANGLE, IDLE, 1, 1
464, 159048951,   0,   0,  -3,   0,   0,   0,  -1,   0,   0,   0,   0,   0, 1000, 1.852, 1023,   0,   1,   1,  95, -13, 4187, 121, 143, 130, 119, ANGLE_MODE, GPS_FIX_HOME|GPS_FIX|SMALL_ANGLE, IDLE, 1, 1
472, 159053015,   0,   0,  -3,   0,   0,   0,   1,  -1,   0,   0,   0,   0, 1000, 1.852, 1023,  -1,   1,   1,  95, -16, 4190, 116, 136, 136, 131, ANGLE_MODE, GPS_FIX_HOME|GPS_FIX|SMALL_ANGLE, IDLE, 1, 1
480, 159057080,   1,   0,   2,   0,   0,   0,   3,   1,   0,   0,   0,   0, 1000, 1.852, 1023,  -1,   0,  -1, 100, -21, 4191, 129, 116, 137, 139, ANGLE_MODE, GPS_FIX_HOME|GPS_FIX|SMALL_ANGLE, IDLE, 1, 1
488, 159061140,   0,   0,   2,   0,   0,   0,  -1,   1,   0,   0,   0,   0, 1000, 1.852, 1023,  -1,   0,  -1,  96, -24, 4189, 135, 118, 122, 126, ANGLE_MODE, GPS_FIX_HOME|GPS_FIX|SMALL_ANGLE, IDLE, 1, 1
496, 159065214,   0,   0,  -1,   0,   0,   0,  -1,   0,   0,   0,   0,   0, 1000, 1.852, 1023,   0,   0,   0,  93, -19, 4186, 119, 124, 122, 116, ANGLE_MODE, GPS_FIX_HOME|GPS_FIX|SMALL_ANGLE, IDLE, 1, 1
504, 159069267,   0,   0,  -3,   0,   0,   0,  -1,   0,   0,   0,   0,   0, 1000, 1.852, 1023,   0,   0,   1,   5,  19, 4166, 122, 143, 128, 119, ANGLE_MODE, GPS_FIX_HOME|GPS_FIX|SMALL_ANGLE, IDLE, 1, 1
512, 159073328,   0,  -1,  -5,   0,   0,   0,   0,  -2,   0,   0,   0,   0, 1000, 1.852, 1023,   0,   1,   2, -63,  43, 4151, 116, 153, 137, 129, ANGLE_MODE, GPS_FIX_HOME|GPS_FIX|SMALL_ANGLE, IDLE, 1, 1
520, 159077379,   1,   0,   0,   0,   0,   0,   3,   1,   0,   0,   0,   0, 1000, 1.852, 1023,  -1,   0,   0, -93,  54, 4142, 124, 115, 143, 135, ANGLE_MODE, GPS_FIX_HOME|GPS_FIX|SMALL_ANGLE, IDLE, 1, 1
528, 159081442,   1,   0,   5,   0,   0,   0,   2,   1,   0,   0,   0,   0, 1000, 1.852, 1023,  -1,   0,  -2, -110,  53, 4140, 142, 115, 135, 149, ANGLE_MODE, GPS_FIX_HOME|GPS_FIX|SMALL_ANGLE, IDLE, 1, 1
536, 159085501,   0,   0,   2,   0,   0,   0,  -1,  -1,   0,   0,   0,   0, 1000, 1.852, 1023,  -1,   0,  -1, -117,  56, 4142, 127, 122, 115, 130, ANGLE_MODE, GPS_FIX_HOME|GPS_FIX|SMALL_ANGLE, IDLE, 1, 1
544, 159089564,   0,   0,  -1,   0,   0,   0,  -3,   0,   0,   0,   0,   0, 1000, 1.852, 1023,   0,   0,   1, -102,  60, 4143, 129, 142, 120, 118, ANGLE_MODE, GPS_FIX_HOME|GPS_FIX|SMALL_ANGLE, IDLE, 1, 1
552, 159093648,   0,   0,  -4,   0,   0,   0,  -2,  -1,   0,   0,   0,   0, 1000, 1.852, 1023,   1,   1,   2, -91,  55, 4145, 125, 152, 130, 120, ANGLE_MODE, GPS_FIX_HOME|GPS_FIX|SMALL_ANGLE, IDLE, 1, 1
560, 159097731,   0,   0,  -2,   0,   0,   0,   2,   0,   0,   0,   0,   0, 1000, 1.852, 1023,  -1,   0,   1, -68,  41, 4150, 115, 124, 138, 130, ANGLE_MODE, GPS_FIX_HOME|GPS_FIX|SMALL_ANGLE, IDLE, 1, 1
568, 159101794,   1,   0,   3,   0,   0,   0,   5,   1,   0,   0,   0,   0, 1000, 1.852, 1023,  -2,   0,  -1, -34,  26, 4158, 132, 115, 149, 154, ANGLE_MODE, GPS_FIX_HOME|GPS_FIX|SMALL_ANGLE, IDLE, 1, 1
576, 159105852,   0,   0,   0,   0,   0,   0,  -1,   0,   0,   0,   0,   0, 1000, 1.852, 1023,  -1,   0,   0, -14,  13, 4165, 119, 116, 116, 117, ANGLE_MODE, GPS_FIX_HOME|GPS_FIX|SMALL_ANGLE, IDLE, 1, 1
584, 159109937,   0,   0,  -2,   0,   0,   0,  -4,  -1,   0,   0,   0,   0, 1000, 1.852, 1023,   0,   0,   1,   5,  11, 4169, 132, 150, 124, 119, ANGLE_MODE, GPS_FIX_HOME|GPS_FIX|SMALL_ANGLE, IDLE, 1, 1
592, 159114016,  -1,   0,  -2,   0,   0,   0,  -2,   0,   0,   0,   0,   0, 1000, 1.852, 1023,   1,   0,   1,  28,  10, 4172, 129, 145, 126, 117, ANGLE_MODE, GPS_FIX_HOME|GPS_FIX|SMALL_ANGLE, IDLE, 1, 1
600, 159118082,   0,   0,  -1,   0,   0,   0,   0,   0,   0,   0,   0,   0, 1000, 1.852, 1023,   0,   0,   1,  40,   3, 4177, 117, 123, 125, 116, ANGLE_MODE, GPS_FIX_HOME|GPS_FIX|SMALL_ANGLE, IDLE, 1, 1
608, 159122146,   2,   0,   4,   0,   0,   0,   8,   1,   0,   0,   0,   0, 1000, 1.852, 1023,  -3,   0,  -1,  59, -10, 4183, 135, 115, 162, 172, ANGLE_MODE, GPS_FIX_HOME|GPS_FIX|SMALL_ANGLE, IDLE, 1, 1
616, 159126209,   1,   0,   3,   0,   0,   0,   1,   1,   0,   0,   0,   0, 1000, 1.852, 1023,  -2,   0,  -1,  73, -27, 4189, 134, 115, 133, 142, ANGLE_MODE, GPS_FIX_HOME|GPS_FIX|SMALL_ANGLE, IDLE, 1, 1
624, 159130261,   0,   0,  -4,   0,   0,   0,  -7,  -2,   0,   0,   0,   0, 1000, 1.852, 1023,   1,   0,   2,  82, -22, 4190, 143, 174, 129, 121, ANGLE_MODE, GPS_FIX_HOME|GPS_FIX|SMALL_ANGLE, IDLE, 1, 1
632, 159134336,  -1,   0,  -4,   0,   0,   0,  -3,   0,   0,   0,   0,   0, 1000, 1.852, 1023,   1,   0,   1,  92,  -9, 4186, 136, 154, 131, 116, ANGLE_MODE, GPS_FIX_HOME|GPS_FIX|SMALL_ANGLE, IDLE, 1, 1
640, 159138415,  -1,   0,   0,   0,   0,   0,  -1,   0,   0,   0,   0,   0, 1000, 1.852, 1023,   1,   0,   0, 108, -17, 4192, 126, 130, 120, 115, ANGLE_MODE, GPS_FIX_HOME|GPS_FIX|SMALL_ANGLE, IDLE, 1, 1
648, 159142727,   2,   0,   4,   0,   0,   0,  10,   0,   0,   0,   0,   0, 1000, 1.852, 1023,  -3,   0,  -2, 124, -28, 4203, 136, 115, 171, 187, ANGLE_MODE, GPS_FIX_HOME|GPS_FIX|SMALL_ANGLE, IDLE, 1, 1
656, 159146878,   3,   0,   5,   0,   0,   0,   6,   2,   0,   0,   0,   0, 1000, 1.852, 1023,  -3,  -1,  -2, 134, -47, 4211, 143, 115, 163, 171, ANGLE_MODE, GPS_FIX_HOME|GPS_FIX|SMALL_ANGLE, IDLE, 1, 1
664, 159150941,   0,   0,  -6,   0,   0,   0, -10,  -2,   0,   0,   0,   0, 1000, 1.852, 1023,   0,   0,   2, 132, -43, 4210, 149, 187, 134, 122, ANGLE_MODE, GPS_FIX_HOME|GPS_FIX|SMALL_ANGLE, IDLE, 1, 1
672, 159155015,  -1,   0,  -5,   0,   0,   0,  -7,  -1,   0,   0,   0,   0, 1000, 1.852, 1023,   2,   0,   2, 137, -25, 4201, 149, 176, 133, 119, ANGLE_MODE, GPS_FIX_HOME|GPS_FIX|SMALL_ANGLE, IDLE, 1, 1
680, 159159099,  -1,   0,   1,   0,   0,   0,  -1,   1,   0,   0,   0,   0, 1000, 1.852, 1023,   2,   0,   0, 125, -20, 4199, 134, 125, 118, 118, ANGLE_MODE, GPS_FIX_HOME|GPS_FIX|SMALL_ANGLE, IDLE, 1, 1
688, 159163204,   3,   0,   8,   0,   0,   0,  12,   1,   0,   0,   0,   0, 1000, 1.852, 1023,  -3,  -1,  -3, 130, -31, 4203, 151, 115, 184, 208, ANGLE_MODE, GPS_FIX_HOME|GPS_FIX|SMALL_ANGLE, IDLE, 1, 1
696, 159167265,   3,   0,   4,   0,   0,   0,   8,   2,   0,   0,   0,   0, 1000, 1.852, 1023,  -3,  -1,  -2, 129, -45, 4210, 140, 115, 173, 179, ANGLE_MODE, GPS_FIX_HOME|GPS_FIX|SMALL_ANGLE, IDLE, 1, 1
704, 159171320,   0,   0,  -7,   0,   0,   0, -10,  -4,   0,   0,   0,   0, 1000, 1.843, 1023,   0,   1,   3, 117, -41, 4206, 148, 198, 135, 126, ANGLE_MODE, GPS_FIX_HOME|GPS_FIX|SMALL_ANGLE, IDLE, 1, 1
712, 159175374,  -2,   0,  -5,   0,   0,   0, -10,   0,   0,   0,   0,   0, 1000, 1.843, 1023,   3,   0,   2, 114, -28, 4197, 167, 188, 136, 115, ANGLE_MODE, GPS_FIX_HOME|GPS_FIX|SMALL_ANGLE, IDLE, 1, 1
720, 159179482,   0,   0,   2,   0,   0,   0,   1,   0,   0,   0,   0,   0, 1000, 1.843, 1023,   1,   0,  -1, 108, -15, 4190, 127, 116, 118, 130, ANGLE_MODE, GPS_FIX_HOME|GPS_FIX|SMALL_ANGLE, IDLE, 1, 1
728, 159183547,   3,   0,   9,   0,   0,   0,  13,   2,   0,   0,   0,   0, 1000, 1.843, 1023,  -3,  -1,  -3, 115, -25, 4194, 160, 115, 187, 217, ANGLE_MODE, GPS_FIX_HOME|GPS_FIX|SMALL_ANGLE, IDLE, 1, 1
736, 159187605,   3,   0,  -1,   0,   0,   0,   5,   0,   0,   0,   0,   0, 1000, 1.843, 1023,  -3,   0,   1, 105, -27, 4196, 115, 122, 159, 154, ANGLE_MODE, GPS_FIX_HOME|GPS_FIX|SMALL_ANGLE, IDLE, 1, 1
744, 159191688,   0,  -1, -10,   0,   0,   0, -10,  -3,   0,   0,   0,   0, 1000, 1.852, 1023,   1,   0,   4,  93, -26, 4192, 150, 211, 148, 125, ANGLE_MODE, GPS_FIX_HOME|GPS_FIX|SMALL_ANGLE, IDLE, 1, 1
752, 159195835,  -2,   0,  -4,   0,   0,   0,  -9,   2,   0,   1,   0,   0, 1000, 1.852, 1023,   3,   0,   1,  94, -19, 4181, 167, 175, 136, 115, ANGLE_MODE, GPS_FIX_HOME|GPS_FIX|SMALL_ANGLE, IDLE, 1, 1
760, 159199895,   0,   0,   6,   0,   0,   0,   5,   1,   0,   1,   0,   0, 1000, 1.852, 1023,   0,  -1,  -2, 103, -14, 4179, 147, 115, 146, 165, ANGLE_MODE, GPS_FIX_HOME|GPS_FIX|SMALL_ANGLE, IDLE, 1, 1
768, 159203957,   2,   0,   0,   0,   0,   0,   9,   1,   0,   1,   0,   0, 1000, 1.852, 1023,  -2,  -1,   0, 172,  -8, 4187, 125, 115, 170, 166, ANGLE_MODE, GPS_FIX_HOME|GPS_FIX|SMALL_ANGLE, IDLE, 1, 1
776, 159208027,   2,   0,  -5,   0,   0,   0,   0,  -2,   0,   1,   0,   0, 1000, 1.852, 1023,  -1,   0,   2, 216,  -7, 4188, 115, 142, 143, 130, ANGLE_MODE, GPS_FIX_HOME|GPS_FIX|SMALL_ANGLE, IDLE, 1, 1
784, 159212090,  -1,   0,  -1,   0,   0,   0,  -9,  -1,   0,   1,   0,   0, 1000, 1.852, 1023,   2,   0,   0, 238, -13, 4188, 159, 173, 118, 123, ANGLE_MODE, GPS_FIX_HOME|GPS_FIX|SMALL_ANGLE, IDLE, 1, 1
792, 159216155,   0,   0,   5,   0,   0,   0,  -2,   0,   0,   1,   0,   0, 1000, 1.852, 1023,   1,   0,  -2, 258,  -8, 4183, 148, 128, 115, 138, ANGLE_MODE, GPS_FIX_HOME|GPS_FIX|SMALL_ANGLE, IDLE, 1, 1
800, 159220209,   1,   0,   1,   0,   0,   0,   8,   2,   0,   1,   0,   0, 1000, 1.852, 1023,  -1,  -1,  -1, 252,  -3, 4192, 131, 115, 162, 157, ANGLE_MODE, GPS_FIX_HOME|GPS_FIX|SMALL_ANGLE, IDLE, 1, 1
808, 159224277,   1,  -1,  -7,   0,   0,   0,   0,  -3,   0,   1,   0,   0, 1000, 1.852, 1023,  -1,   1,   3, 239,   4, 4189, 115, 159, 147, 135, ANGLE_MODE, GPS_FIX_HOME|GPS_FIX|SMALL_ANGLE, IDLE, 1, 1
816, 159228334,   0,   0,  -4,   0,   0,   0,  -1,   0,   0,   1,   0,   0, 1000, 1.852, 1023,   0,   0,   1, 224,  -4, 4192, 116, 136, 132, 117, ANGLE_MODE, GPS_FIX_HOME|GPS_FIX|SMALL_ANGLE, IDLE, 1, 1
824, 159232439,   0,   0,   1,   0,   0,   0,  -2,   0,   0,   1,   0,   0, 1000, 1.843, 1023,   0,   0,  -1, 210, -16, 4190, 133, 126, 115, 123, ANGLE_MODE, GPS_FIX_HOME|GPS_FIX|SMALL_ANGLE, IDLE, 1, 1
832, 159236762,   1,   0,   3,   0,   0,   0,   4,   1,   0,   1,   0,   0, 1000, 1.843, 1023,  -1,   0,  -1, 188,  -6, 4191, 131, 115, 140, 151, ANGLE_MODE, GPS_FIX_HOME|GPS_FIX|SMALL_ANGLE, IDLE, 1, 1
840, 159240838,   0,   0,  -3,   0,   0,   0,   0,   0,   0,   1,   0,   0, 1000, 1.843, 1023,   0,   0,   1, 164,  10, 4190, 115, 130, 133, 120, ANGLE_MODE, GPS_FIX_HOME|GPS_FIX|SMALL_ANGLE, IDLE, 1, 1
848, 159244897,   0,   0,  -1,   0,   0,   0,  -2,  -1,   0,   1,   0,   0, 1000, 1.843, 1023,   0,   0,   0, 151,   4, 4191, 122, 137, 118, 123, ANGLE_MODE, GPS_FIX_HOME|GPS_FIX|SMALL_ANGLE, IDLE, 1, 1
856, 159248946,   1,  -1,   1,   0,   0,   0,   1,   0,   0,   1,   0,   0, 1000, 1.843, 1023,  -1,   1,   0, 141, -11, 4193, 118, 121, 124, 136, ANGLE_MODE, GPS_FIX_HOME|GPS_FIX|SMALL_ANGLE, IDLE, 1, 1
864, 159252996,   2,   0,   4,   0,   0,   0,   4,   0,   0,   1,   0,   0, 1000, 1.843, 1023,  -2,   0,  -2, 135, -13, 4197, 134, 116, 142, 161, ANGLE_MODE, GPS_FIX_HOME|GPS_FIX|SMALL_ANGLE, IDLE, 1, 1
872, 159257054,   1,   0,   0,   0,   0,   0,   0,   0,   0,   1,   0,   0, 1000, 1.843, 1023,  -1,   0,   0, 117,  -4, 4197, 118, 116, 122, 124, ANGLE_MODE, GPS_FIX_HOME|GPS_FIX|SMALL_ANGLE, IDLE, 1, 1
880, 159261119,   0,  -1,  -4,   0,   0,   0,  -6,  -1,   0,   1,  -1,   0, 1000, 1.843, 1023,   1,   1,   2, 103,   6, 4190, 134, 168, 128, 122, ANGLE_MODE, GPS_FIX_HOME|GPS_FIX|SMALL_ANGLE, IDLE, 1, 1
888, 159265278,   0,  -1,  -3,   0,   0,   0,   0,   0,   0,   1,  -1,   0, 1000, 1.843, 1023,   0,   1,   1, 105,  -5, 4191, 117, 136, 127, 121, ANGLE_MODE, GPS_FIX_HOME|GPS_FIX|SMALL_ANGLE, IDLE, 1, 1
896, 159269336,   2,   0,   3,   0,   0,   0,   5,   0,   0,   1,  -1,   0, 1000, 1.852, 1023,  -2,   0,  -1, 105, -28, 4193, 128, 116, 147, 160, ANGLE_MODE, GPS_FIX_HOME|GPS_FIX|SMALL_ANGLE, IDLE, 1, 1
904, 159273398,   2,   0,   2,   0,   0,   0,   4,   1,   0,   1,  -1,   0, 1000, 1.852, 1023,  -2,   0,  -1, 101, -32, 4194, 128, 115, 147, 151, ANGLE_MODE, GPS_FIX_HOME|GPS_FIX|SMALL_ANGLE, IDLE, 1, 1
912, 159277486,   0,  -1,  -4,   0,   0,   0,  -6,  -1,   0,   1,  -1,   0, 1000, 1.852, 1023,   1,   1,   1, 102, -37, 4188, 137, 165, 126, 121, ANGLE_MODE, GPS_FIX_HOME|GPS_FIX|SMALL_ANGLE, IDLE, 1, 1
920, 159281544,  -1,  -1,  -3,   0,   0,   0,  -7,   0,   0,   1,  -1,   0, 1000, 1.852, 1023,   2,   1,   1, 109, -52, 4183, 147, 169, 124, 120, ANGLE_MODE, GPS_FIX_HOME|GPS_FIX|SMALL_ANGLE, IDLE, 1, 1
928, 159285590,   1,   0,   1,   0,   0,   0,   5,   1,   0,   1,  -1,   0, 1000, 1.852, 1023,  -1,   0,   0, 116, -76, 4187, 121, 115, 145, 149, ANGLE_MODE, GPS_FIX_HOME|GPS_FIX|SMALL_ANGLE, IDLE, 1, 1
936, 159289649,   3,   0,   3,   0,   0,   0,   8,   1,   0,   1,  -1,   0, 1000, 1.852, 1023,  -3,  -1,  -1, 114, -88, 4191, 132, 115, 165, 170, ANGLE_MODE, GPS_FIX_HOME|GPS_FIX|SMALL_ANGLE, IDLE, 1, 1
944, 159293725,   1,   0,  -2,   0,   0,   0,  -1,   1,   0,   1,  -1,   0, 1000, 1.852, 1023,  -1,   0,   1, 104, -76, 4190, 119, 124, 127, 115, ANGLE_MODE, GPS_FIX_HOME|GPS_FIX|SMALL_ANGLE, IDLE, 1, 1
952, 159297799,  -1,   0,  -5,   0,   0,   0, -10,  -2,   0,   1,  -1,   0, 1000, 1.852, 1023,   2,   0,   2, 100, -59, 4183, 156, 190, 133, 121, ANGLE_MODE, GPS_FIX_HOME|GPS_FIX|SMALL_ANGLE, IDLE, 1, 1
960, 159301861,   0,   0,  -1,   0,   0,   0,  -3,   0,   0,   1,  -1,   0, 1000, 1.852, 1023,   1,   0,   1, 100, -63, 4183, 128, 142, 120, 118, ANGLE_MODE, GPS_FIX_HOME|GPS_FIX|SMALL_ANGLE, IDLE, 1, 1
968, 159305916,   2,   0,   2,   0,   0,   0,  10,   1,   0,   1,  -1,   0, 1000, 1.852, 1023,  -2,  -1,  -1, 103, -71, 4190, 129, 115, 172, 177, ANGLE_MODE, GPS_FIX_HOME|GPS_FIX|SMALL_ANGLE, IDLE, 1, 1
976, 159310026,   2,   0,   2,   0,   0,   0,   5,   1,   0,   1,  -1,   0, 1000, 1.852, 1023,  -2,  -1,  -1,  99, -71, 4197, 131, 115, 153, 157, ANGLE_MODE, GPS_FIX_HOME|GPS_FIX|SMALL_ANGLE, IDLE, 1, 1
984, 159314154,   0,   0,  -2,   0,   0,   0,  -8,  -1,   0,   1,  -1,   0, 1000, 1.852, 1023,   1,   0,   1,  88, -51, 4193, 149, 167, 120, 121, ANGLE_MODE, GPS_FIX_HOME|GPS_FIX|SMALL_ANGLE, IDLE, 1, 1
992, 159318224,  -2,   0,  -2,   0,   0,   0, -10,   0,   0,   1,  -1,   0, 1000, 1.852, 1023,   3,   0,   1,  92, -35, 4185, 164, 176, 122, 117, ANGLE_MODE, GPS_FIX_HOME|GPS_FIX|SMALL_ANGLE, IDLE, 1, 1
1000, 159322288,   1,   0,   2,   0,   0,   0,   6,   0,   0,   1,  -1,   0, 1000, 1.852, 1023,   0,   0,  -1,  92, -43, 4187, 124, 116, 145, 156, ANGLE_MODE, GPS_FIX_HOME|GPS_FIX|SMALL_ANGLE, IDLE, 1, 1
1008, 159326336,   3,   0,   3,   0,   0,   0,  11,   1,   0,   1,  -1,   0, 1000, 1.852, 1023,  -3,  -1,  -1,  92, -53, 4196, 131, 115, 177, 187, ANGLE_MODE, GPS_FIX_HOME|GPS_FIX|SMALL_ANGLE, IDLE, 1, 1
1016, 159330655,   1,   0,  -2,   0,   0,   0,  -3,   0,   0,   1,  -1,   0, 1000, 1.852, 1023,   0,   0,   1,  89, -40, 4195, 125, 135, 126, 115, ANGLE_MODE, GPS_FIX_HOME|GPS_FIX|SMALL_ANGLE, IDLE, 1, 1
1024, 159334707,  -2,   0,  -3,   0,   0,   0, -12,  -1,   0,   1,  -1,   0, 1000, 1.852, 1023,   3,   0,   1,  83, -20, 4188, 168, 192, 126, 120, ANGLE_MODE, GPS_FIX_HOME|GPS_FIX|SMALL_ANGLE, IDLE, 1, 1
1032, 159338769,   0,   0,   1,   0,   0,   0,   0,   0,   0,   1,  -1,   0, 1000, 1.852, 1023,   1,   0,  -1,  87, -17, 4185, 127, 121, 116, 121, ANGLE_MODE, GPS_FIX_HOME|GPS_FIX|SMALL_ANGLE, IDLE, 1, 1
1040, 159342869,   3,   0,   2,   0,   0,   0,  14,   0,   0,   1,  -1,   0, 1000, 1.852, 1023,  -3,   0,  -1,  91, -28, 4193, 127, 115, 187, 197, ANGLE_MODE, GPS_FIX_HOME|GPS_FIX|SMALL_ANGLE, IDLE, 1, 1
1048, 159346923,   2,   0,   0,   0,   0,   0,   2,   0,   0,   1,  -1,   0, 1000, 1.852, 1023,  -2,   0,   0,  96, -42, 4197, 117, 116, 136, 133, ANGLE_MODE, GPS_FIX_HOME|GPS_FIX|SMALL_ANGLE, IDLE, 1, 1
1056, 159350978,   0,   0,  -2,   0,   0,   0, -10,  -1,   0,   1,  -1,   0, 1000, 1.843, 1023,   2,   0,   1, 112, -49, 4190, 158, 175, 121, 119, ANGLE_MODE, GPS_FIX_HOME|GPS_FIX|SMALL_ANGLE, IDLE, 1, 1
1064, 159355040,  -1,   0,   0,   0,   0,   0,  -6,   0,   0,   1,  -1,   0, 1000, 1.843, 1023,   2,   0,   0, 126, -60, 4184, 148, 151, 115, 122, ANGLE_MODE, GPS_FIX_HOME|GPS_FIX|SMALL_ANGLE, IDLE, 1, 1
1072, 159359102,   2,   0,   1,   0,   0,   0,   9,   0,   0,   1,   0,   0, 1000, 1.843, 1023,  -2,   0,   0, 134, -81, 4187, 120, 116, 161, 168, ANGLE_MODE, GPS_FIX_HOME|GPS_FIX|SMALL_ANGLE, IDLE, 1, 1
1080, 159363191,   3,   0,   0,   0,   0,   0,   9,   1,   0,   1,   0,   0, 1000, 1.843, 1023,  -3,  -1,   0, 130, -86, 4196, 120, 117, 175, 166, ANGLE_MODE, GPS_FIX_HOME|GPS_FIX|SMALL_ANGLE, IDLE, 1, 1
1088, 159367251,   0,   0,  -3,   0,   0,   0,  -8,   0,   0,   1,   0,   0, 1000, 1.843, 1023,   1,   0,   1, 127, -69, 4188, 149, 167, 127, 117, ANGLE_MODE, GPS_FIX_HOME|GPS_FIX|SMALL_ANGLE, IDLE, 1, 1
1096, 159371314,  -1,   0,   0,   0,   0,   0,  -9,   0,   0,   1,   0,   0, 1000, 1.843, 1023,   2,   0,   0, 131, -57, 4180, 158, 165, 117, 118, ANGLE_MODE, GPS_FIX_HOME|GPS_FIX|SMALL_ANGLE, IDLE, 1, 1
1104, 159375392,   1,   0,   2,   0,   0,   0,   6,   0,   0,   1,   0,   0, 1000, 1.843, 1023,  -1,   0,  -1, 132, -64, 4184, 124, 117, 143, 155, ANGLE_MODE, GPS_FIX_HOME|GPS_FIX|SMALL_ANGLE, IDLE, 1, 1
1112, 159379468,   3,   0,   0,   0,   0,   0,  11,   0,   0,   1,   0,   0, 1000, 1.843, 1023,  -3,   0,   0, 127, -68, 4192, 118, 116, 174, 179, ANGLE_MODE, GPS_FIX_HOME|GPS_FIX|SMALL_ANGLE, IDLE, 1, 1
1120, 159383579,   1,   0,  -4,   0,   0,   0,  -3,   1,   0,   1,   0,   0, 1000, 1.843, 1023,  -1,   0,   2, 121, -46, 4188, 126, 139, 136, 115, ANGLE_MODE, GPS_FIX_HOME|GPS_FIX|SMALL_ANGLE, IDLE, 1, 1
1128, 159387634,  -1,   0,  -2,   0,   0,   0, -11,   0,   0,   1,   0,   0, 1000, 1.843, 1023,   2,   0,   1, 121, -26, 4180, 166, 180, 123, 118, ANGLE_MODE, GPS_FIX_HOME|GPS_FIX|SMALL_ANGLE, IDLE, 1, 1
1136, 159391692,   0,   0,   3,   0,   0,   0,   0,   0,   0,   1,   0,   1, 1000, 1.843, 1023,   0,   0,  -1, 118, -27, 4181, 126, 119, 118, 136, ANGLE_MODE, GPS_FIX_HOME|GPS_FIX|SMALL_ANGLE, IDLE, 1, 1
1144, 159395850,   3,   0,   4,   0,   0,   0,  13,   0,   0,   1,   0,   1, 1000, 1.843, 1023,  -3,   0,  -1, 113, -36, 4191, 130, 117, 183, 203, ANGLE_MODE, GPS_FIX_HOME|GPS_FIX|SMALL_ANGLE, IDLE, 1, 1
1152, 159399904,   2,   0,  -2,   0,   0,   0,   1,   1,   0,   1,   0,   1, 1000, 1.843, 1023,  -2,   0,   1, 108, -29, 4194, 119, 121, 144, 129, ANGLE_MODE, GPS_FIX_HOME|GPS_FIX|SMALL_ANGLE, IDLE, 1, 1
1160, 159403992,   0,   0,  -3,   0,   0,   0, -12,   0,   0,   1,   0,   1, 1000, 1.843, 1023,   2,   0,   2, 106, -11, 4186, 169, 182, 128, 116, ANGLE_MODE, GPS_FIX_HOME|GPS_FIX|SMALL_ANGLE, IDLE, 1, 1
1168, 159408066,   0,   0,   1,   0,   0,   0,  -4,  -1,   0,   1,   0,   1, 1000, 1.843, 1023,   1,   0,   0, 106,  -7, 4184, 137, 138, 115, 124, ANGLE_MODE, GPS_FIX_HOME|GPS_FIX|SMALL_ANGLE, IDLE, 1, 1
1176, 159412124,   3,   0,   3,   0,   0,   0,  10,   0,   0,   1,   0,   1, 1000, 1.843, 1023,  -2,   1,  -1, 104, -19, 4190, 129, 118, 167, 187, ANGLE_MODE, GPS_FIX_HOME|GPS_FIX|SMALL_ANGLE, IDLE, 1, 1
1184, 159416194,   3,   0,   0,   0,   0,   0,   7,   0,   0,   1,   0,   1, 1000, 1.843, 1023,  -3,   0,   1,  99, -25, 4198, 118, 116, 164, 160, ANGLE_MODE, GPS_FIX_HOME|GPS_FIX|SMALL_ANGLE, IDLE, 1, 1
1192, 159420264,   0,   0,  -2,   0,   0,   0, -10,   1,   0,   1,   0,   1, 1000, 1.843, 1023,   1,   0,   1,  94, -12, 4191, 158, 164, 127, 115, ANGLE_MODE, GPS_FIX_HOME|GPS_FIX|SMALL_ANGLE, IDLE, 1, 1
1200, 159424588,  -1,   0,   6,   0,   0,   0,  -9,   0,   0,   1,   0,   3, 1000, 1.843, 1023,   2,   0,  -1,  59,  -4, 4183, 182, 162, 115, 143, ANGLE_MODE, GPS_FIX_HOME|GPS_FIX|SMALL_ANGLE, IDLE, 1, 1
1208, 159428646,   1,   0,   7,   0,   0,   0,   7,   0,   0,   1,   0,   3, 1000, 1.843, 1023,  -1,   0,  -1,  34, -10, 4183, 144, 117, 150, 182, ANGLE_MODE, GPS_FIX_HOME|GPS_FIX|SMALL_ANGLE, IDLE, 1, 1
1216, 159432746,   3,   2,  12,   0,   0,   0,  10,  10,   0,   1,   3,  10, 1000, 1.843, 1023,  -3,   0,   1,  14, -21, 4192, 189, 115, 195, 195, ANGLE_MODE, GPS_FIX_HOME|GPS_FIX|SMALL_ANGLE, IDLE, 1, 1
1224, 159436807,   0,   4,   3,   0,   0,   0,  -5,   2,   0,   1,   6,  10, 1000, 1.843, 1023,   0,   0,   4,   6, -14, 4187, 169, 127, 136, 122, ANGLE_MODE, GPS_FIX_HOME|GPS_FIX|SMALL_ANGLE, IDLE, 1, 1
1232, 159440882,  -1,   4,   7,   0,   0,   0, -11,   0,   0,   1,   6,  10, 1000, 1.843, 1023,   3,   0,   3,  10, -10, 4181, 207, 158, 126, 134, ANGLE_MODE, GPS_FIX_HOME|GPS_FIX|SMALL_ANGLE, IDLE, 1, 1
1240, 159444952,   0,   4,  10,   0,   0,   0,   1,   0,   0,   1,   7,  10, 1000, 1.843, 1023,   1,   0,   2,  14, -17, 4180, 173, 115, 138, 162, ANGLE_MODE, GPS_FIX_HOME|GPS_FIX|SMALL_ANGLE, IDLE, 1, 1
1248, 159449002,   3,   4,  10,   0,   0,   0,  13,   0,   0,   2,   8,  12, 1000, 1.852, 1023,  -2,   0,   2,  18, -23, 4188, 168, 115, 195, 216, ANGLE_MODE, GPS_FIX_HOME|GPS_FIX|SMALL_ANGLE, IDLE, 1, 1
1256, 159453072,   2,   7,  11,   0,   0,   0,   1,   9,   0,   2,  12,  12, 1000, 1.852, 1023,  -1,   0,   2,  24, -23, 4190, 225, 115, 193, 171, ANGLE_MODE, GPS_FIX_HOME|GPS_FIX|SMALL_ANGLE, IDLE, 1, 1
1264, 159457149,   0,   9,  15,   0,   0,   0,  -9,   1,   0,   2,  15,  12, 1000, 1.852, 1023,   2,   0,   1,  36, -18, 4185, 238, 133, 141, 159, ANGLE_MODE, GPS_FIX_HOME|GPS_FIX|SMALL_ANGLE, IDLE, 1, 1
1272, 159461210,   1,   9,  15,   0,   0,   0,   0,   0,   0,   2,  15,  12, 1000, 1.852, 1023,   1,   1,   1,  50, -23, 4183, 216, 115, 160, 181, ANGLE_MODE, GPS_FIX_HOME|GPS_FIX|SMALL_ANGLE, IDLE, 1, 1
1280, 159465274,   3,   9,  12,   0,   0,   0,   8,  -1,   0,   3,  16,  12, 1000, 1.852, 1023,  -1,   1,   2,  57, -24, 4190, 181, 115, 180, 197, ANGLE_MODE, GPS_FIX_HOME|GPS_FIX|SMALL_ANGLE, IDLE, 1, 1
1288, 159469349,   3,  10,  14,   0,   0,   0,   2,   3,   0,   3,  17,  12, 1000, 1.843, 1023,  -1,   0,   2,  64, -20, 4194, 215, 115, 180, 183, ANGLE_MODE, GPS_FIX_HOME|GPS_FIX|SMALL_ANGLE, IDLE, 1, 1
1296, 159473425,   2,  13,  16,   0,   0,   0,  -3,  11,   0,   3,  22,  12, 1000, 1.843, 1023,   0,   0,   1,  77, -10, 4184, 288, 118, 216, 179, ANGLE_MODE, GPS_FIX_HOME|GPS_FIX|SMALL_ANGLE, IDLE, 1, 1
1304, 159477489,   3,  14,  13,   0,   0,   0,   0,   0,   0,   3,  25,  12, 1000, 1.843, 1023,  -1,   1,   2,  83, -11, 4183, 219, 115, 177, 177, ANGLE_MODE, GPS_FIX_HOME|GPS_FIX|SMALL_ANGLE, IDLE, 1, 1
1312, 159481609,   4,  13,  14,   0,   1,   0,   5,  -3,   0,   3,  25,  12, 1000, 1.843, 1023,  -2,   2,   2,  84,  -2, 4191, 197, 115, 180, 192, ANGLE_MODE, GPS_FIX_HOME|GPS_FIX|SMALL_ANGLE, IDLE, 1, 1
1320, 159485670,   4,  15,  17,   0,   0,   0,   2,   5,   0,   4,  26,  12, 1000, 1.843, 1023,  -2,   1,   0,  97,   4, 4192, 259, 115, 218, 201, ANGLE_MODE, GPS_FIX_HOME|GPS_FIX|SMALL_ANGLE, IDLE, 1, 1
1328, 159489772,   5,  16,  17,   0,   0,   0,   0,  11,   0,   4,  28,  12, 1000, 1.843, 1023,  -2,   1,   1, 114,   1, 4180, 286, 115, 240, 195, ANGLE_MODE, GPS_FIX_HOME|GPS_FIX|SMALL_ANGLE, IDLE, 1, 1
1336, 159493857,   4,  18,  17,   0,   1,   0,   0,   6,   0,   4,  33,  12, 1000, 1.843, 1023,  -1,   3,   1, 112,   9, 4186, 279, 115, 225, 192, ANGLE_MODE, GPS_FIX_HOME|GPS_FIX|SMALL_ANGLE, IDLE, 1, 1
1344, 159497954,   4,  19,  17,   0,   0,   0,   0,  -1,   0,   5,  36,  12, 1000, 1.843, 1023,  -1,   3,   0, 118,  30, 4186, 250, 115, 200, 199, ANGLE_MODE, GPS_FIX_HOME|GPS_FIX|SMALL_ANGLE, IDLE, 1, 1
1352, 159502015,   7,  20,  18,   0,   1,   0,   8,   4,   0,   6,  36,  12, 1000, 1.843, 1023,  -3,   3,   0, 112,  42, 4190, 262, 115, 252, 223, ANGLE_MODE, GPS_FIX_HOME|GPS_FIX|SMALL_ANGLE, IDLE, 1, 1
1360, 159506074,   7,  20,  17,   0,   2,   0,   2,   0,   0,   6,  36,  10, 1004, 1.843, 1023,  -3,   3,  -1, 104,  48, 4201, 255, 115, 228, 208, ANGLE_MODE, GPS_FIX_HOME|GPS_FIX|SMALL_ANGLE, IDLE, 1, 1
1368, 159510136,   7,  19,  12,   1,   3,   0,   0,  -1,   0,   7,  36,  10, 1005, 1.843, 1023,  -3,   3,   1, 102,  70, 4202, 242, 115, 219, 185, ANGLE_MODE, GPS_FIX_HOME|GPS_FIX|SMALL_ANGLE, IDLE, 1, 1
1376, 159514479,   6,  19,  11,   1,   4,   1,  -2,  -2,   0,   7,  36,  10, 1005, 1.843, 1023,  -1,   4,   1,  87,  81, 4201, 240, 115, 210, 178, ANGLE_MODE, GPS_FIX_HOME|GPS_FIX|SMALL_ANGLE, IDLE, 1, 1
1384, 159518531,   6,  19,  19,   1,   5,   1,  -2,   0,   0,   7,  37,  10, 1005, 1.843, 1023,  -2,   4,  -1,  81,  64, 4196, 284, 115, 227, 209, ANGLE_MODE, GPS_FIX_HOME|GPS_FIX|SMALL_ANGLE, IDLE, 1, 1
1392, 159522593,   9,  19,  14,   2,   6,   1,   9,   2,   0,   7,  38,  10, 1014, 1.843, 1023,  -5,   4,   0,  90,  57, 4197, 264, 115, 285, 232, ANGLE_MODE, GPS_FIX_HOME|GPS_FIX|SMALL_ANGLE, IDLE, 1, 1
1400, 159526645,   7,  22,  12,   2,   7,   1,   0,   7,   0,   7,  42,  10, 1014, 1.843, 1023,  -3,   4,   1,  96,  49, 4205, 299, 115, 285, 191, ANGLE_MODE, GPS_FIX_HOME|GPS_FIX|SMALL_ANGLE, IDLE, 1, 1
1408, 159530722,   7,  23,  12,   3,   8,   1,  -2,   1,   0,   8,  44,   8, 1015, 1.834, 1023,  -3,   4,   0,  99,  32, 4198, 294, 115, 269, 192, ANGLE_MODE, GPS_FIX_HOME|GPS_FIX|SMALL_ANGLE, IDLE, 1, 1
1416, 159534791,   9,  22,  11,   3,   9,   2,   5,  -3,   0,   9,  44,   8, 1015, 1.834, 1023,  -3,   6,   0,  93,  28, 4196, 258, 115, 277, 218, ANGLE_MODE, GPS_FIX_HOME|GPS_FIX|SMALL_ANGLE, IDLE, 1, 1
1424, 159538860,   7,  22,   9,   3,  10,   2,  -5,  -4,   0,   9,  44,   8, 1025, 1.834, 1023,  -1,   6,   1,  90,  24, 4200, 267, 115, 241, 175, ANGLE_MODE, GPS_FIX_HOME|GPS_FIX|SMALL_ANGLE, IDLE, 1, 1
1432, 159542926,  10,  23,   8,   4,  12,   2,   3,   3,   0,  10,  45,   7, 1025, 1.834, 1023,  -4,   5,   1, 105,   5, 4196, 292, 115, 323, 211, ANGLE_MODE, GPS_FIX_HOME|GPS_FIX|SMALL_ANGLE, IDLE, 1, 1
1440, 159546983,  10,  24,   9,   4,  13,   2,   8,   3,   0,  11,  46,   7, 1025, 1.834, 1023,  -4,   5,   1, 117,  -4, 4193, 303, 115, 351, 233, ANGLE_MODE, GPS_FIX_HOME|GPS_FIX|SMALL_ANGLE, IDLE, 1, 1
1448, 159551033,   9,  23,   6,   5,  14,   2,  -7,  -2,   0,  11,  46,   7, 1034, 1.852, 1023,  -2,   6,   2, 121, -13, 4190, 276, 115, 269, 165, ANGLE_MODE, GPS_FIX_HOME|GPS_FIX|SMALL_ANGLE, IDLE, 1, 1
1456, 159555098,  10,  22,   9,   5,  15,   2,   1,  -4,   0,  11,  46,   7, 1034, 1.852, 1023,  -3,   7,   0, 116, -17, 4196, 273, 115, 290, 208, ANGLE_MODE, GPS_FIX_HOME|GPS_FIX|SMALL_ANGLE, IDLE, 1, 1
1464, 159559187,   9,  23,   9,   6,  16,   2,  -1,   5,   0,  11,  50,   7, 1034, 1.852, 1023,  -2,   8,   0, 116, -26, 4193, 322, 115, 328, 195, ANGLE_MODE, GPS_FIX_HOME|GPS_FIX|SMALL_ANGLE, IDLE, 1, 1
1472, 159563329,  10,  24,   6,   6,  17,   3,   2,  -1,   0,  11,  53,   7, 1045, 1.852, 1023,  -3,   9,   1, 123, -41, 4193, 301, 115, 341, 215, ANGLE_MODE, GPS_FIX_HOME|GPS_FIX|SMALL_ANGLE, IDLE, 1, 1
1480, 159567397,   9,  26,   7,   7,  19,   3,   0,   2,   0,  11,  53,   7, 1045, 1.852, 1023,  -2,   8,   1, 135, -47, 4201, 327, 115, 352, 204, ANGLE_MODE, GPS_FIX_HOME|GPS_FIX|SMALL_ANGLE, IDLE, 1, 1
1488, 159571463,   9,  24,   5,   7,  20,   3,  -2,  -1,   0,  11,  53,   7, 1054, 1.843, 1023,  -2,   9,   2, 145, -70, 4199, 305, 115, 332, 195, ANGLE_MODE, GPS_FIX_HOME|GPS_FIX|SMALL_ANGLE, IDLE, 1, 1
1496, 159575535,   8,  22,   1,   8,  21,   3,  -1,  -7,   0,  11,  53,   7, 1054, 1.843, 1023,  -1,  11,   3, 139, -59, 4201, 273, 115, 314, 187, ANGLE_MODE, GPS_FIX_HOME|GPS_FIX|SMALL_ANGLE, IDLE, 1, 1
1504, 159579623,   7,  22,  -1,   8,  22,   3,  -5,  -2,   0,  11,  53,   7, 1063, 1.843, 1023,   0,  12,   4, 133, -82, 4201, 287, 115, 325, 163, ANGLE_MODE, GPS_FIX_HOME|GPS_FIX|SMALL_ANGLE, IDLE, 1, 1
1512, 159583683,   8,  21,   3,   9,  23,   3,   0,  -3,   0,  11,  53,   5, 1073, 1.843, 1023,  -1,  13,   2,  97, -100, 4204, 296, 115, 334, 194, ANGLE_MODE, GPS_FIX_HOME|GPS_FIX|SMALL_ANGLE, IDLE, 1, 1
1520, 159587752,   8,  21,  -2,   9,  24,   3,   0,   0,   0,  10,  53,   5, 1073, 1.843, 1023,  -1,  13,   3,  85, -121, 4198, 297, 115, 359, 186, ANGLE_MODE, GPS_FIX_HOME|GPS_FIX|SMALL_ANGLE, IDLE, 1, 1
1528, 159591849,   6,  19,  -1,   9,  25,   3,   0,  -4,   0,  10,  53,   5, 1083, 1.843, 1023,   0,  14,   3,  83, -133, 4205, 283, 115, 341, 182, ANGLE_MODE, GPS_FIX_HOME|GPS_FIX|SMALL_ANGLE, IDLE, 1, 1
1536, 159595917,   4,  18,  -2,  10,  26,   3,  -7,  -2,   0,  10,  53,   5, 1083, 1.843, 1023,   1,  15,   4,  90, -134, 4200, 288, 115, 313, 145, ANGLE_MODE, GPS_FIX_HOME|GPS_FIX|SMALL_ANGLE, IDLE, 1, 1
1544, 159599986,   5,  16,   0,  10,  27,   3,   1,  -6,   0,  10,  53,   5, 1083, 1.843, 1023,   1,  17,   3,  92, -130, 4205, 272, 115, 328, 188, ANGLE_MODE, GPS_FIX_HOME|GPS_FIX|SMALL_ANGLE, IDLE, 1, 1
1552, 159604295,   3,  16,  -2,  10,  28,   3,  -4,  -3,   0,   9,  53,   5, 1090, 1.843, 1023,   2,  18,   3,  97, -119, 4212, 283, 115, 319, 157, ANGLE_MODE, GPS_FIX_HOME|GPS_FIX|SMALL_ANGLE, IDLE, 1, 1
1560, 159608354,   3,  15,   1,  10,  29,   3,  -3,  -2,   0,   8,  53,   5, 1090, 1.843, 1023,   2,  19,   2, 123, -123, 4211, 290, 115, 314, 170, ANGLE_MODE, GPS_FIX_HOME|GPS_FIX|SMALL_ANGLE, IDLE, 1, 1
1568, 159612412,   3,  15,   0,  10,  29,   3,   2,  -1,   0,   8,  53,   5, 1097, 1.843, 1023,   1,  19,   2, 136, -119, 4221, 295, 115, 347, 191, ANGLE_MODE, GPS_FIX_HOME|GPS_FIX|SMALL_ANGLE, IDLE, 1, 1
1576, 159616505,   3,  12,  -1,  11,  30,   3,   0,  -6,   0,   8,  53,   5, 1100, 1.843, 1023,   2,  22,   3, 154, -113, 4212, 264, 115, 316, 176, ANGLE_MODE, GPS_FIX_HOME|GPS_FIX|SMALL_ANGLE, IDLE, 1, 1
1584, 159620573,   1,  12,  -3,  11,  31,   3,  -6,  -3,   0,   8,  53,   5, 1100, 1.843, 1023,   3,  22,   4, 158, -103, 4223, 281, 126, 310, 151, ANGLE_MODE, GPS_FIX_HOME|GPS_FIX|SMALL_ANGLE, IDLE, 1, 1
1592, 159624634,   3,   9,  -3,  11,  31,   3,   1,  -6,   0,   7,  53,   4, 1107, 1.843, 1023,   1,  25,   3, 177, -105, 4220, 268, 129, 333, 195, ANGLE_MODE, GPS_FIX_HOME|GPS_FIX|SMALL_ANGLE, IDLE, 1, 1
1600, 159628698,   1,   8,  -2,  11,  32,   3,   0,  -5,   0,   7,  53,   4, 1107, 1.843, 1023,   3,  26,   3, 171, -94, 4234, 274, 133, 329, 190, ANGLE_MODE, GPS_FIX_HOME|GPS_FIX|SMALL_ANGLE, IDLE, 1, 1
1608, 159632798,   1,   7,  -2,  11,  32,   3,  -6,  -1,   0,   7,  53,   5, 1107, 1.843, 1023,   3,  26,   4, 188, -92, 4231, 297, 139, 321, 169, ANGLE_MODE, GPS_FIX_HOME|GPS_FIX|SMALL_ANGLE, IDLE, 1, 1
1616, 159636895,   2,   6,  -2,  11,  32,   3,   5,  -2,   0,   7,  54,   5, 1117, 1.843, 1023,   2,  27,   4, 195, -92, 4235, 288, 137, 365, 217, ANGLE_MODE, GPS_FIX_HOME|GPS_FIX|SMALL_ANGLE, IDLE, 1, 1
1624, 159640967,   0,   4,  -6,  11,  33,   3,  -5,  -4,   0,   7,  54,   5, 1117, 1.843, 1023,   4,  30,   5, 203, -82, 4223, 299, 177, 340, 191, ANGLE_MODE, GPS_FIX_HOME|GPS_FIX|SMALL_ANGLE, IDLE, 1, 1
1632, 159645053,   0,   4,  -3,  11,  33,   2,  -3,  -6,   0,   7,  54,   5, 1117, 1.843, 1023,   4,  31,   4, 187, -70, 4228, 297, 175, 330, 204, ANGLE_MODE, GPS_FIX_HOME|GPS_FIX|SMALL_ANGLE, IDLE, 1, 1
1640, 159649231,   0,   2,   6,  11,  33,   2,   1,  -3,   0,   7,  54,   5, 1117, 1.834, 1023,   4,  32,   0, 168, -51, 4226, 308, 139, 326, 233, ANGLE_MODE, GPS_FIX_HOME|GPS_FIX|SMALL_ANGLE, IDLE, 1, 1
1648, 159653300,   0,   1,   3,  11,  33,   3,   1,  -5,   0,   5,  54,   5, 1128, 1.834, 1023,   3,  33,   2, 149, -51, 4235, 319, 176, 346, 254, ANGLE_MODE, GPS_FIX_HOME|GPS_FIX|SMALL_ANGLE, IDLE, 1, 1
1656, 159657367,  -1,   0,  -3,  11,  33,   3,  -4,   0,   0,   5,  55,   5, 1128, 1.834, 1023,   5,  34,   4, 145, -42, 4234, 331, 193, 355, 217, ANGLE_MODE, GPS_FIX_HOME|GPS_FIX|SMALL_ANGLE, IDLE, 1, 1
1664, 159661448,  -1,   0,  -4,  11,  33,   2,  -1,  -2,   0,   5,  56,   5, 1128, 1.834, 1023,   5,  36,   4, 138, -44, 4229, 315, 199, 353, 228, ANGLE_MODE, GPS_FIX_HOME|GPS_FIX|SMALL_ANGLE, IDLE, 1, 1
1672, 159665530,  -2,  -1,   5,  11,  33,   3,  -1,  -6,   0,   5,  56,   7, 1137, 1.834, 1023,   6,  38,   2, 123, -42, 4229, 346, 210, 341, 272, ANGLE_MODE, GPS_FIX_HOME|GPS_FIX|SMALL_ANGLE, IDLE, 1, 1
1680, 159669614,  -1,  -3,   2,  11,  33,   3,  -1,  -5,   0,   5,  56,   7, 1149, 1.843, 1023,   5,  40,   3, 117, -40, 4232, 360, 240, 370, 298, ANGLE_MODE, GPS_FIX_HOME|GPS_FIX|SMALL_ANGLE, IDLE, 1, 1
1688, 159673686,  -2,  -3,   4,  11,  33,   3,   1,  -2,   0,   5,  56,   7, 1149, 1.843, 1023,   6,  40,   2, 120, -34, 4243, 366, 224, 377, 299, ANGLE_MODE, GPS_FIX_HOME|GPS_FIX|SMALL_ANGLE, IDLE, 1, 1
1696, 159677765,  -2,  -5,  -2,  11,  33,   3,  -1,  -4,   0,   5,  56,   7, 1157, 1.843, 1023,   5,  42,   5, 117, -50, 4239, 366, 271, 391, 303, ANGLE_MODE, GPS_FIX_HOME|GPS_FIX|SMALL_ANGLE, IDLE, 1, 1
1704, 159681827,  -2,  -7,   1,  11,  32,   3,   0,  -9,   0,   5,  56,   7, 1157, 1.843, 1023,   6,  44,   3, 105, -43, 4244, 356, 276, 371, 329, ANGLE_MODE, GPS_FIX_HOME|GPS_FIX|SMALL_ANGLE, IDLE, 1, 1
1712, 159685887,  -2, -10,   9,  11,  32,   3,   0,  -4,   0,   5,  56,   7, 1165, 1.843, 1023,   5,  46,   1,  94, -69, 4247, 392, 271, 378, 356, ANGLE_MODE, GPS_FIX_HOME|GPS_FIX|SMALL_ANGLE, IDLE, 1, 1
1720, 159689971,  -2, -11,   6,  10,  31,   3,  -1,  -7,   0,   4,  56,   8, 1174, 1.843, 1023,   6,  47,   2,  93, -48, 4249, 403, 307, 387, 373, ANGLE_MODE, GPS_FIX_HOME|GPS_FIX|SMALL_ANGLE, IDLE, 1, 1
1728, 159694036,  -4, -12,   2,  10,  31,   3,  -5,   0,   0,   4,  56,   8, 1174, 1.843, 1023,   7,  48,   4,  83, -59, 4257, 415, 315, 397, 343, ANGLE_MODE, GPS_FIX_HOME|GPS_FIX|SMALL_ANGLE, IDLE, 1, 1
1736, 159698349,  -5, -13,   7,  10,  30,   3,  -3,  -8,   0,   3,  57,   8, 1174, 1.843, 1023,   8,  50,   2,  71, -57, 4249, 401, 326, 366, 377, ANGLE_MODE, GPS_FIX_HOME|GPS_FIX|SMALL_ANGLE, IDLE, 1, 1
1744, 159702428,  -4, -13,  12,  10,  29,   3,   3,   0,   0,   4,  57,   8, 1174, 1.843, 1023,   7,  50,   0,  77, -70, 4256, 414, 283, 389, 383, ANGLE_MODE, GPS_FIX_HOME|GPS_FIX|SMALL_ANGLE, IDLE, 1, 1
1752, 159706497,  -5, -15,  12,  10,  29,   3,  -2,  -2,   0,   4,  57,  10, 1182, 1.843, 1012,   8,  52,   1,  89, -78, 4255, 434, 325, 377, 399, ANGLE_MODE, GPS_FIX_HOME|GPS_FIX|SMALL_ANGLE, IDLE, 1, 1
1760, 159710559,  -5, -15,  11,   9,  28,   3,   0,  -3,   0,   4,  57,  10, 1194, 1.834, 1012,   8,  52,   2, 105, -77, 4254, 447, 351, 405, 430, ANGLE_MODE, GPS_FIX_HOME|GPS_FIX|SMALL_ANGLE, IDLE, 1, 1
1768, 159714636,  -5, -16,   2,   9,  27,   4,  -1,   1,   0,   4,  57,  10, 1194, 1.834, 1012,   8,  53,   5,  98, -85, 4256, 441, 364, 426, 401, ANGLE_MODE, GPS_FIX_HOME|GPS_FIX|SMALL_ANGLE, IDLE, 1, 1
1776, 159718706,  -6, -18,  15,   9,  26,   4,  -2,  -8,   0,   4,  57,  10, 1194, 1.834, 1012,   9,  55,   0,  85, -77, 4244, 448, 365, 371, 449, ANGLE_MODE, GPS_FIX_HOME|GPS_FIX|SMALL_ANGLE, IDLE, 1, 1
1784, 159722761,  -5, -17,   8,   9,  25,   4,   0,   1,   0,   4,  57,  10, 1196, 1.834, 1012,   8,  54,   2,  68, -85, 4268, 447, 353, 410, 422, ANGLE_MODE, GPS_FIX_HOME|GPS_FIX|SMALL_ANGLE, IDLE, 1, 1
1792, 159726814,  -5, -20,  21,   8,  25,   4,   1,  -6,   0,   4,  57,  10, 1196, 1.834, 1012,   8,  57,  -2,  50, -76, 4264, 452, 353, 368, 476, ANGLE_MODE, GPS_FIX_HOME|GPS_FIX|SMALL_ANGLE, IDLE, 1, 1
1800, 159730952,  -4, -19,  15,   8,  24,   4,   2,  -4,   0,   4,  57,  12, 1205, 1.826, 1012,   7,  57,   1,  25, -62, 4284, 456, 378, 404, 484, ANGLE_MODE, GPS_FIX_HOME|GPS_FIX|SMALL_ANGLE, IDLE, 1, 1
1808, 159735011,  -3, -22,  17,   8,  23,   5,   2,  -1,   0,   4,  57,  12, 1205, 1.826, 1012,   6,  59,   0,  -4, -89, 4293, 457, 372, 399, 494, ANGLE_MODE, GPS_FIX_HOME|GPS_FIX|SMALL_ANGLE, IDLE, 1, 1
1816, 159739104,  -3, -22,  15,   8,  21,   5,   2,  -6,   0,   4,  57,  12, 1205, 1.826, 1012,   6,  59,   1, -19, -44, 4298, 443, 389, 389, 500, ANGLE_MODE, GPS_FIX_HOME|GPS_FIX|SMALL_ANGLE, IDLE, 1, 1
1824, 159743174,  -2, -23,  21,   8,  20,   5,   1,   0,   0,   4,  58,  12, 1205, 1.826, 1012,   6,  60,  -1, -71, -70, 4319, 467, 370, 384, 501, ANGLE_MODE, GPS_FIX_HOME|GPS_FIX|SMALL_ANGLE, IDLE, 1, 1
1832, 159747223,  -1, -22,  14,   7,  19,   5,   2,   3,   0,   4,  58,  12, 1205, 1.826, 1012,   4,  60,   2, -59, -60, 4314, 453, 374, 407, 487, ANGLE_MODE, GPS_FIX_HOME|GPS_FIX|SMALL_ANGLE, IDLE, 1, 1
1840, 159751314,  -1, -21,  19,   7,  18,   6,   0,  -4,   0,   3,  58,  12, 1213, 1.834, 1012,   4,  58,   0, -116, -45, 4327, 470, 402, 392, 524, ANGLE_MODE, GPS_FIX_HOME|GPS_FIX|SMALL_ANGLE, IDLE, 1, 1
1848, 159755374,  -2, -22,   7,   7,  17,   6,   0,  10,   0,   3,  58,  12, 1213, 1.834, 1012,   4,  60,   4, -98, -77, 4318, 476, 397, 439, 475, ANGLE_MODE, GPS_FIX_HOME|GPS_FIX|SMALL_ANGLE, IDLE, 1, 1
1856, 159759439,   0, -18,  21,   7,  16,   6,   5,  -4,   0,   3,  58,  12, 1213, 1.834, 1012,   1,  56,  -1, -135, -88, 4329, 461, 379, 404, 543, ANGLE_MODE, GPS_FIX_HOME|GPS_FIX|SMALL_ANGLE, IDLE, 1, 1
1864, 159763519,  -1, -21,  14,   7,  15,   6,   0,  10,   0,   3,  58,  12, 1214, 1.834, 1002,   3,  59,   1, -149, -83, 4303, 489, 387, 425, 495, ANGLE_MODE, GPS_FIX_HOME|GPS_FIX|SMALL_ANGLE, IDLE, 1, 1
1872, 159767598,   1, -17,  21,   7,  14,   7,   2,  -2,   0,   3,  58,  12, 1214, 1.834, 1002,   1,  54,  -1, -158, -106, 4301, 473, 380, 403, 539, ANGLE_MODE, GPS_FIX_HOME|GPS_FIX|SMALL_ANGLE, IDLE, 1, 1
1880, 159771657,   2, -19,  23,   7,  13,   7,   3,   4,   0,   3,  58,  13, 1227, 1.817, 1002,  -1,  57,  -1, -154, -100, 4284, 505, 391, 438, 568, ANGLE_MODE, GPS_FIX_HOME|GPS_FIX|SMALL_ANGLE, IDLE, 1, 1
1888, 159775725,   2, -16,  37,   7,  12,   8,   2,   3,   0,   3,  58,  13, 1227, 1.817, 1002,  -1,  53,  -6, -190, -119, 4288, 540, 360, 410, 590, ANGLE_MODE, GPS_FIX_HOME|GPS_FIX|SMALL_ANGLE, IDLE, 1, 1
1896, 159779796,   3, -17,  26,   7,  11,   8,   2,   0,   0,   3,  58,  13, 1227, 1.817, 1002,  -2,  54,  -2, -202, -118, 4272, 504, 390, 423, 585, ANGLE_MODE, GPS_FIX_HOME|GPS_FIX|SMALL_ANGLE, IDLE, 1, 1
1904, 159783848,   7, -14,  26,   8,  11,   8,   6,   6,   0,   3,  58,  13, 1236, 1.817, 1002,  -5,  52,  -2, -215, -126, 4311, 524, 375, 472, 602, ANGLE_MODE, GPS_FIX_HOME|GPS_FIX|SMALL_ANGLE, IDLE, 1, 1
1912, 159788187,   7, -13,  22,   8,  10,   9,   7,   2,   0,   3,  58,  13, 1236, 1.817, 1002,  -5,  50,  -1, -201, -152, 4306, 510, 383, 476, 604, ANGLE_MODE, GPS_FIX_HOME|GPS_FIX|SMALL_ANGLE, IDLE, 1, 1
1920, 159792269,   5, -12,  48,   8,   9,   9,  -1,   6,   0,   3,  58,  14, 1236, 1.843, 1002,  -4,  49,  -9, -213, -254, 4347, 592, 344, 411, 628, ANGLE_MODE, GPS_FIX_HOME|GPS_FIX|SMALL_ANGLE, IDLE, 1, 1
1928, 159796338,   6, -12,  40,   9,   9,  10,  -1,  -1,   0,   3,  58,  14, 1246, 1.843, 1002,  -4,  49,  -7, -197, -267, 4359, 580, 393, 431, 651, ANGLE_MODE, GPS_FIX_HOME|GPS_FIX|SMALL_ANGLE, IDLE, 1, 1
1936, 159800404,   5,  -7,  43,   9,   8,  10,   0,  12,   0,   3,  59,  14, 1246, 1.843, 1002,  -4,  45,  -7, -246, -266, 4426, 622, 348, 463, 622, ANGLE_MODE, GPS_FIX_HOME|GPS_FIX|SMALL_ANGLE, IDLE, 1, 1
1944, 159804480,   4,  -7,  23,   9,   8,  11,  -3,   4,   0,   3,  59,  14, 1246, 1.843, 1002,  -2,  45,  -1, -264, -260, 4482, 574, 413, 474, 594, ANGLE_MODE, GPS_FIX_HOME|GPS_FIX|SMALL_ANGLE, IDLE, 1, 1
1952, 159808541,   3,  -2,  30,   9,   7,  11,  -3,   6,   0,   3,  59,  14, 1246, 1.843, 1002,  -1,  41,  -3, -246, -297, 4574, 602, 388, 472, 593, ANGLE_MODE, GPS_FIX_HOME|GPS_FIX|SMALL_ANGLE, IDLE, 1, 1
1960, 159812609,   3,  -2,  38,  10,   7,  12,   0,   6,   0,   3,  60,  16, 1254, 1.799, 1002,  -1,  41,  -5, -242, -329, 4653, 629, 379, 477, 635, ANGLE_MODE, GPS_FIX_HOME|GPS_FIX|SMALL_ANGLE, IDLE, 1, 1
1968, 159816728,   5,  -2,  42,  10,   7,  12,   6,   0,   0,   3,  60,  16, 1254, 1.799, 1002,  -4,  41,  -6, -272, -327, 4760, 608, 363, 474, 675, ANGLE_MODE, GPS_FIX_HOME|GPS_FIX|SMALL_ANGLE, IDLE, 1, 1
1976, 159820795,   5,  -2,  27,  10,   7,  13,   0,  -1,   0,   3,  60,  16, 1254, 1.799, 1002,  -3,  41,  -1, -288, -293, 4842, 587, 410, 486, 638, ANGLE_MODE, GPS_FIX_HOME|GPS_FIX|SMALL_ANGLE, IDLE, 1, 1
1984, 159824879,   3,   0,  28,  10,   7,  13,  -2,   5,   0,   3,  60,  16, 1254, 1.799, 1002,  -2,  39,  -1, -329, -270, 4957, 613, 396, 497, 613, ANGLE_MODE, GPS_FIX_HOME|GPS_FIX|SMALL_ANGLE, IDLE, 1, 1
1992, 159828947,   2,  -2,  33,  10,   7,  14,  -6,  -1,   0,   3,  60,  16, 1254, 1.799, 1002,  -1,  41,  -3, -324, -239, 5045, 615, 415, 457, 633, ANGLE_MODE, GPS_FIX_HOME|GPS_FIX|SMALL_ANGLE, IDLE, 1, 1
2000, 159833014,   3,   2,  44,  11,   7,  14,   2,   5,   0,   3,  60,  16, 1264, 1.826, 1002,  -1,  36,  -7, -305, -263, 5175, 665, 367, 496, 674, ANGLE_MODE, GPS_FIX_HOME|GPS_FIX|SMALL_ANGLE, IDLE, 1, 1
2008, 159837078,   3,   0,  13,  11,   7,  15,   1,   1,   0,   3,  61,  16, 1264, 1.826, 1002,  -2,  39,   4, -267, -263, 5244, 592, 442, 545, 622, ANGLE_MODE, GPS_FIX_HOME|GPS_FIX|SMALL_ANGLE, IDLE, 1, 1
2016, 159841154,   1,   6,   8,  11,   7,  15,  -1,  11,   0,   3,  61,  16, 1264, 1.826, 1002,   0,  32,   6, -240, -292, 5374, 624, 430, 578, 570, ANGLE_MODE, GPS_FIX_HOME|GPS_FIX|SMALL_ANGLE, IDLE, 1, 1
2024, 159845214,   0,   0,  18,  11,   7,  15, -11,  -5,   0,   3,  61,  16, 1266, 1.826, 992,   2,  39,   2, -165, -358, 5505, 629, 482, 492, 615, ANGLE_MODE, GPS_FIX_HOME|GPS_FIX|SMALL_ANGLE, IDLE, 1, 1
2032, 159849260,  -2,   6,  19,  11,   7,  15,  -4,  10,   0,   3,  63,  16, 1266, 1.808, 992,   4,  34,   2, -108, -320, 5647, 664, 428, 542, 584, ANGLE_MODE, GPS_FIX_HOME|GPS_FIX|SMALL_ANGLE, IDLE, 1, 1
2040, 159853334,  -1,   2,  29,  11,   7,  16,   0,  -6,   0,   3,  66,  17, 1275, 1.808, 992,   4,  40,  -1, -143, -291, 5746, 654, 458, 505, 674, ANGLE_MODE, GPS_FIX_HOME|GPS_FIX|SMALL_ANGLE, IDLE, 1, 1
2048, 159857389,  -6,   6,   1,  10,   8,  16, -12,  13,   0,   3,  69,  17, 1275, 1.808, 992,   9,  37,   9, -155, -242, 5840, 681, 495, 577, 537, ANGLE_MODE, GPS_FIX_HOME|GPS_FIX|SMALL_ANGLE, IDLE, 1, 1
2056, 159861439,  -7,   4,   4,  10,   8,  16,  -6, -15,   0,   3,  69,  17, 1275, 1.808, 992,  10,  39,   8, -169, -231, 5939, 617, 544, 520, 610, ANGLE_MODE, GPS_FIX_HOME|GPS_FIX|SMALL_ANGLE, IDLE, 1, 1
2064, 159865515,  -9,   0,  18,  10,   8,  16,  -2,   0,   0,   3,  69,  25, 1276, 1.808, 992,  11,  45,   7, -145, -209, 5982, 665, 491, 518, 625, ANGLE_MODE, GPS_FIX_HOME|GPS_FIX|SMALL_ANGLE, IDLE, 1, 1
2072, 159869595,  -9,   2,  33,   9,   8,  17,   0, -19,   0,   3,  69,  26, 1276, 1.799, 992,  11,  42,   2, -112, -189, 6093, 658, 490, 460, 691, ANGLE_MODE, GPS_FIX_HOME|GPS_FIX|SMALL_ANGLE, IDLE, 1, 1
2080, 159873904,  -4,  -6,  34,   9,   8,  17,   9,  -5,   0,   3,  69,  26, 1276, 1.799, 992,   7,  51,   2, -143, -219, 6138, 643, 449, 493, 715, ANGLE_MODE, GPS_FIX_HOME|GPS_FIX|SMALL_ANGLE, IDLE, 1, 1
2088, 159877968,  -1,  -2,  -4,   9,   8,  17,  14,  -5,   0,   3,  69,  26, 1276, 1.799, 992,   3,  47,  16, -109, -201, 6226, 555, 503, 594, 647, ANGLE_MODE, GPS_FIX_HOME|GPS_FIX|SMALL_ANGLE, IDLE, 1, 1
2096, 159882040,  -1,  -9,  -2,   9,   7,  17,   5, -18,   0,   3,  69,  26, 1276, 1.799, 992,   3,  54,  15, -142, -220, 6290, 537, 560, 531, 673, ANGLE_MODE, GPS_FIX_HOME|GPS_FIX|SMALL_ANGLE, IDLE, 1, 1
2104, 159886115,   2,  -8,  12,   9,   7,  17,   1,  10,   0,   3,  70,  26, 1277, 1.799, 992,  -1,  53,  10, -181, -243, 6324, 628, 472, 564, 643, ANGLE_MODE, GPS_FIX_HOME|GPS_FIX|SMALL_ANGLE, IDLE, 1, 1
2112, 159890169,   5,  -4,   6,   9,   7,  17,  13,   0,   0,   3,  70,  26, 1277, 1.843, 992,  -3,  49,  12, -197, -205, 6390, 572, 468, 588, 679, ANGLE_MODE, GPS_FIX_HOME|GPS_FIX|SMALL_ANGLE, IDLE, 1, 1
2120, 159894235,   6,  -5, -10,   9,   6,  17,   9,  15,   0,   3,  70,  26, 1277, 1.843, 992,  -5,  51,  18, -219, -183, 6425, 571, 477, 650, 610, ANGLE_MODE, GPS_FIX_HOME|GPS_FIX|SMALL_ANGLE, IDLE, 1, 1
2128, 159898355,   4,   0,  -4,  10,   6,  17, -10,   3,   0,   3,  70,  26, 1286, 1.843, 992,  -3,  45,  16, -241, -212, 6459, 631, 542, 597, 610, ANGLE_MODE, GPS_FIX_HOME|GPS_FIX|SMALL_ANGLE, IDLE, 1, 1
2136, 159902404,   0,  -4,   4,  10,   6,  17, -12,   0,   0,   3,  70,  26, 1286, 1.843, 992,   2,  50,  12, -266, -214, 6486, 645, 551, 550, 635, ANGLE_MODE, GPS_FIX_HOME|GPS_FIX|SMALL_ANGLE, IDLE, 1, 1
2144, 159906447,  -1,   0,  -4,  10,   6,  17,  -7,   8,   0,   3,  70,  27, 1286, 1.843, 992,   4,  44,  16, -257, -163, 6519, 651, 535, 602, 592, ANGLE_MODE, GPS_FIX_HOME|GPS_FIX|SMALL_ANGLE, IDLE, 1, 1
2152, 159910548,  -5,   0,   6,  10,   6,  17, -13,  -4,   0,   3,  70,  27, 1293, 1.843, 992,   8,  45,  12, -329, -174, 6513, 680, 575, 545, 638, ANGLE_MODE, GPS_FIX_HOME|GPS_FIX|SMALL_ANGLE, IDLE, 1, 1
2160, 159914613,  -9,   0,   5,   9,   6,  17,  -8,   5,   0,   3,  70,  27, 1293, 1.843, 992,  11,  46,  13, -347, -150, 6518, 694, 558, 568, 618, ANGLE_MODE, GPS_FIX_HOME|GPS_FIX|SMALL_ANGLE, IDLE, 1, 1
2168, 159918657, -11,  -1,  -1,   9,   6,  17,  -8, -10,   0,   3,  70,  27, 1293, 1.843, 992,  13,  46,  15, -356, -68, 6522, 652, 608, 547, 631, ANGLE_MODE, GPS_FIX_HOME|GPS_FIX|SMALL_ANGLE, IDLE, 1, 1
2176, 159922703, -13,  -6,  12,   8,   6,  17,  -8,  -6,   0,   3,  70,  27, 1293, 1.843, 992,  15,  52,  10, -461, -41, 6516, 684, 588, 509, 657, ANGLE_MODE, GPS_FIX_HOME|GPS_FIX|SMALL_ANGLE, IDLE, 1, 1
2184, 159926767, -13,  -3,  12,   7,   6,  17,  -3,   2,   0,   3,  70,  27, 1293, 1.843, 992,  15,  49,  10, -599, -56, 6518, 697, 555, 541, 644, ANGLE_MODE, GPS_FIX_HOME|GPS_FIX|SMALL_ANGLE, IDLE, 1, 1
2192, 159930839, -13,  -6, -10,   7,   5,  17,   2,  -6,   0,   3,  70,  29, 1303, 1.826, 992,  16,  52,  19, -712, -21, 6515, 639, 639, 590, 651, ANGLE_MODE, GPS_FIX_HOME|GPS_FIX|SMALL_ANGLE, IDLE, 1, 1
2200, 159934909, -14,  -5, -18,   6,   5,  17,  -2,   6,   0,   3,  70,  29, 1303, 1.826, 992,  16,  51,  22, -722,   4, 6535, 659, 639, 624, 596, ANGLE_MODE, GPS_FIX_HOME|GPS_FIX|SMALL_ANGLE, IDLE, 1, 1
2208, 159938986, -14,  -6, -16,   5,   5,  17,  -6,  -6,   0,   3,  70,  29, 1303, 1.826, 992,  17,  52,  21, -660,  -5, 6563, 647, 673, 581, 618, ANGLE_MODE, GPS_FIX_HOME|GPS_FIX|SMALL_ANGLE, IDLE, 1, 1
2216, 159943051, -11, -10, -13,   5,   4,  17,  10,  -7,   0,   3,  70,  29, 1303, 1.826, 992,  13,  56,  21, -630, -42, 6617, 603, 641, 605, 671, ANGLE_MODE, GPS_FIX_HOME|GPS_FIX|SMALL_ANGLE, IDLE, 1, 1
2224, 159947111,  -9, -11, -21,   4,   4,  17,   9,  -7,   0,   3,  70,  29, 1303, 1.826, 992,  11,  57,  23, -802, 150, 6632, 583, 657, 618, 661, ANGLE_MODE, GPS_FIX_HOME|GPS_FIX|SMALL_ANGLE, IDLE, 1, 1
2232, 159951164, -10, -13, -13,   4,   3,  17,  -4,  -8,   0,   3,  70,  29, 1305, 1.843, 992,  13,  59,  20, -923, 199, 6647, 629, 685, 566, 655, ANGLE_MODE, GPS_FIX_HOME|GPS_FIX|SMALL_ANGLE, IDLE, 1, 1
2240, 159955226, -10, -14,  -8,   3,   2,  17,   2,  -1,   0,   3,  70,  29, 1305, 1.843, 992,  12,  60,  19, -945, 243, 6694, 635, 651, 580, 669, ANGLE_MODE, GPS_FIX_HOME|GPS_FIX|SMALL_ANGLE, IDLE, 1, 1
2248, 159959328, -10, -14,  -9,   3,   2,  17,   0,  -5,   0,   3,  70,  29, 1305, 1.843, 992,  13,  59,  19, -977, 293, 6776, 630, 670, 569, 667, ANGLE_MODE, GPS_FIX_HOME|GPS_FIX|SMALL_ANGLE, IDLE, 1, 1
2256, 159963633, -12, -13,  20,   2,   1,  17,  -3,   0,   0,   3,  70,  29, 1305, 1.843, 992,  14,  59,   9, -908, 285, 6839, 712, 607, 512, 704, ANGLE_MODE, GPS_FIX_HOME|GPS_FIX|SMALL_ANGLE, IDLE, 1, 1
2264, 159967685,  -8, -10,   4,   2,   0,  17,   7,   8,   0,   3,  70,  29, 1305, 1.843, 992,  11,  55,  14, -779, 260, 6909, 676, 590, 590, 679, ANGLE_MODE, GPS_FIX_HOME|GPS_FIX|SMALL_ANGLE, IDLE, 1, 1
2272, 159971786,  -7, -10, -11,   1,   0,  16,   8,   2,   0,   3,  70,  29, 1305, 1.799, 992,   9,  55,  20, -664, 218, 6965, 623, 631, 615, 666, ANGLE_MODE, GPS_FIX_HOME|GPS_FIX|SMALL_ANGLE, IDLE, 1, 1
2280, 159975850,  -6,  -6,   0,   1,   0,  16,   0,  11,   0,   3,  70,  29, 1305, 1.799, 992,   9,  52,  16, -601, 172, 7019, 688, 599, 601, 647, ANGLE_MODE, GPS_FIX_HOME|GPS_FIX|SMALL_ANGLE, IDLE, 1, 1
2288, 159979956,  -3,  -3,   4,   1,   0,  16,   3,  10,   0,   3,  71,  30, 1313, 1.799, 982,   6,  49,  15, -557, 133, 7069, 702, 594, 622, 682, ANGLE_MODE, GPS_FIX_HOME|GPS_FIX|SMALL_ANGLE, IDLE, 1, 1
2296, 159984016,  -1,  -1, -21,   1,   0,  16,  10,  11,   0,   3,  71,  30, 1313, 1.799, 982,   4,  47,  24, -572,  84, 7113, 639, 622, 699, 640, ANGLE_MODE, GPS_FIX_HOME|GPS_FIX|SMALL_ANGLE, IDLE, 1, 1
2304, 159988076,  -2,   0, -38,   0,   0,  15,   2,   5,   0,   3,  71,  30, 1313, 1.799, 982,   4,  46,  30, -544,   9, 7159, 611, 685, 705, 599, ANGLE_MODE, GPS_FIX_HOME|GPS_FIX|SMALL_ANGLE, IDLE, 1, 1
2312, 159992147,  -1,   0, -34,   0,   0,  15,  -4,   5,   0,   3,  71,  30, 1313, 1.834, 982,   3,  45,  28, -538, -59, 7204, 635, 688, 689, 588, ANGLE_MODE, GPS_FIX_HOME|GPS_FIX|SMALL_ANGLE, IDLE, 1, 1
2320, 159996209,   1,   1, -25,   0,   0,  15,  11,   1,   0,   3,  71,  30, 1313, 1.834, 982,   0,  44,  25, -483, -111, 7241, 607, 638, 703, 653, ANGLE_MODE, GPS_FIX_HOME|GPS_FIX|SMALL_ANGLE, IDLE, 1, 1
2328, 160000288,   3,   2, -17,   0,   0,  15,   9,   1,   0,   3,  72,  30, 1313, 1.834, 982,  -2,  43,  22, -400, -140, 7286, 625, 620, 689, 667, ANGLE_MODE, GPS_FIX_HOME|GPS_FIX|SMALL_ANGLE, IDLE, 1, 1
2336, 160004347,   2,   3, -24,   1,   0,  14,  -2,   0,   0,   3,  72,  30, 1313, 1.834, 982,  -1,  43,  25, -322, -170, 7333, 636, 658, 679, 627, ANGLE_MODE, GPS_FIX_HOME|GPS_FIX|SMALL_ANGLE, IDLE, 1, 1
2344, 160008404,   2,   2, -32,   1,   0,  14,   0,  -3,   0,   3,  72,  30, 1313, 1.834, 982,   0,  43,  27, -262, -191, 7381, 607, 681, 690, 623, ANGLE_MODE, GPS_FIX_HOME|GPS_FIX|SMALL_ANGLE, IDLE, 1, 1
2352, 160012492,   1,   1, -18,   1,   0,  14,  -2,  -4,   0,   3,  72,  32, 1313, 1.852, 982,   1,  45,  24, -225, -208, 7431, 636, 663, 654, 646, ANGLE_MODE, GPS_FIX_HOME|GPS_FIX|SMALL_ANGLE, IDLE, 1, 1
2360, 160016557,   1,  -1,  -5,   1,   0,  13,  -1,  -5,   0,   3,  73,  32, 1313, 1.852, 982,   0,  48,  19, -221, -232, 7477, 648, 643, 625, 684, ANGLE_MODE, GPS_FIX_HOME|GPS_FIX|SMALL_ANGLE, IDLE, 1, 1
2368, 160020640,   4,  -2,   0,   1,   0,  13,   9,  -8,   0,   3,  74,  32, 1313, 1.852, 982,  -3,  50,  17, -229, -247, 7514, 624, 615, 632, 730, ANGLE_MODE, GPS_FIX_HOME|GPS_FIX|SMALL_ANGLE, IDLE, 1, 1
2376, 160024709,   5,  -3, -12,   1,   0,  13,   4,  -2,   0,   3,  74,  32, 1313, 1.852, 982,  -4,  51,  22, -237, -253, 7546, 615, 637, 661, 688, ANGLE_MODE, GPS_FIX_HOME|GPS_FIX|SMALL_ANGLE, IDLE, 1, 1
2384, 160028774,   8,  -4, -19,   2,   0,  13,   4,   0,   0,   3,  74,  32, 1313, 1.852, 982,  -6,  52,  24, -137, -372, 7658, 598, 641, 684, 677, ANGLE_MODE, GPS_FIX_HOME|GPS_FIX|SMALL_ANGLE, IDLE, 1, 1
2392, 160032837,   8,  -4, -11,   2,   0,  12,   5,   0,   0,   3,  74,  32, 1313, 1.834, 982,  -7,  53,  21, -48, -452, 7739, 608, 625, 672, 696, ANGLE_MODE, GPS_FIX_HOME|GPS_FIX|SMALL_ANGLE, IDLE, 1, 1
2400, 160036916,   9,  -3, -19,   3,   0,  12,   0,   4,   0,   3,  74,  32, 1313, 1.834, 982,  -8,  51,  24,  23, -497, 7786, 610, 637, 690, 663, ANGLE_MODE, GPS_FIX_HOME|GPS_FIX|SMALL_ANGLE, IDLE, 1, 1
2408, 160040988,   9,  -3, -25,   3,   0,  12,   1,   0,   0,   3,  74,  32, 1313, 1.834, 982,  -7,  51,  26,  82, -508, 7802, 588, 658, 694, 661, ANGLE_MODE, GPS_FIX_HOME|GPS_FIX|SMALL_ANGLE, IDLE, 1, 1
2416, 160045055,   5,  -1, -18,   3,   0,  11,  -8,   0,   0,   3,  74,  33, 1313, 1.834, 982,  -4,  49,  24, 132, -513, 7798, 631, 666, 660, 644, ANGLE_MODE, GPS_FIX_HOME|GPS_FIX|SMALL_ANGLE, IDLE, 1, 1
2424, 160049390,   3,   2, -13,   4,   0,  11,  -9,   8,   0,   3,  74,  33, 1313, 1.826, 982,  -2,  45,  22, 158, -498, 7786, 670, 635, 671, 624, ANGLE_MODE, GPS_FIX_HOME|GPS_FIX|SMALL_ANGLE, IDLE, 1, 1
2432, 160053448,   3,   2, -16,   4,   0,  11,  -1,   8,   0,   3,  79,  33, 1313, 1.826, 982,  -2,  48,  24, 144, -462, 7758, 648, 626, 694, 632, ANGLE_MODE, GPS_FIX_HOME|GPS_FIX|SMALL_ANGLE, IDLE, 1, 1
2440, 160057508,   2,   5, -17,   4,   0,  11,  -1,  -2,   0,   3,  82,  33, 1313, 1.826, 982,  -1,  48,  24, 112, -431, 7730, 630, 647, 678, 645, ANGLE_MODE, GPS_FIX_HOME|GPS_FIX|SMALL_ANGLE, IDLE, 1, 1
2448, 160061570,   2,   4, -19,   4,   0,  10,  -2,  -1,   0,   3,  82,  33, 1313, 1.826, 982,  -1,  48,  25,  56, -420, 7702, 628, 652, 682, 638, ANGLE_MODE, GPS_FIX_HOME|GPS_FIX|SMALL_ANGLE, IDLE, 1, 1
2456, 160065719,   4,   1, -32,   4,   0,  10,   4,  -4,   0,   3,  82,  33, 1313, 1.826, 982,  -2,  52,  29,  39, -385, 7657, 570, 675, 714, 641, ANGLE_MODE, GPS_FIX_HOME|GPS_FIX|SMALL_ANGLE, IDLE, 1, 1
2464, 160069779,   1,   0, -33,   4,   0,  10,  -5,  -3,   0,   3,  82,  33, 1313, 1.799, 982,   1,  52,  29,   8, -369, 7627, 596, 700, 693, 611, ANGLE_MODE, GPS_FIX_HOME|GPS_FIX|SMALL_ANGLE, IDLE, 1, 1
2472, 160073848,   0,   1, -25,   4,   0,   9, -10,   6,   0,   3,  87,  33, 1313, 1.799, 982,   3,  54,  27,   8, -357, 7607, 648, 676, 685, 591, ANGLE_MODE, GPS_FIX_HOME|GPS_FIX|SMALL_ANGLE, IDLE, 1, 1
